0,0,-0.72,0.43,0.59,-1.69,6.12,-0.50,0.7242,0.0848,-0.0927,0.6780,$GPGGA,210850.400,4041.0423,N,07423.2880,W,1,07,1.16,138.3,M,-34.1,M,,*53
1,0,-0.76,0.76,0.86,4.37,-8.81,0.00,0.7250,0.0819,-0.0862,0.6784,$GPGGA,210850.600,4041.0428,N,07423.2874,W,1,07,1.16,138.3,M,-34.1,M,,*51
2,0,-0.25,0.81,0.90,3.00,-10.81,0.19,0.7238,0.0919,-0.0910,0.6779,$GPGGA,210850.600,4041.0428,N,07423.2874,W,1,07,1.16,138.3,M,-34.1,M,,*51
3,0,-0.50,0.69,0.31,-0.50,-3.94,0.06,0.7236,0.0934,-0.0908,0.6779,$GPGGA,210850.800,4041.0435,N,07423.2866,W,1,07,1.29,138.3,M,-34.1,M,,*5C
4,0,-0.44,0.53,0.84,0.50,-0.69,-0.25,0.7244,0.0944,-0.0819,0.6780,$GPGGA,210850.800,4041.0435,N,07423.2866,W,1,07,1.29,138.3,M,-34.1,M,,*5C
5,0,-0.46,0.44,0.47,0.50,-3.31,0.06,0.7246,0.0957,-0.0791,0.6779,$GPGGA,210850.900,4041.0439,N,07423.2861,W,2,07,1.29,138.3,M,-34.1,M,0000,0000*55
6,0,-0.37,0.67,0.15,2.12,1.06,0.75,0.7242,0.0976,-0.0778,0.6782,$GPGGA,210851.000,4041.0443,N,07423.2856,W,1,07,1.29,138.3,M,-34.1,M,,*57
7,0,0.03,0.65,0.61,0.62,-2.94,0.88,0.7242,0.0991,-0.0728,0.6785,$GPGGA,210851.100,4041.0447,N,07423.2850,W,1,07,1.16,138.3,M,-34.1,M,,*58
8,0,-0.03,0.57,0.66,-0.50,-3.37,1.31,0.7234,0.0996,-0.0748,0.6790,$GPGGA,210851.300,4041.0456,N,07423.2838,W,1,07,1.29,138.3,M,-34.1,M,,*58
9,0,-0.30,0.85,-0.05,-1.81,2.00,1.56,0.7228,0.1002,-0.0746,0.6797,$GPGGA,210851.300,4041.0456,N,07423.2838,W,1,07,1.29,138.3,M,-34.1,M,,*58
10,0,-0.05,0.81,0.83,-1.87,0.62,0.94,0.7224,0.1006,-0.0737,0.6801,$GPGGA,210851.400,4041.0459,N,07423.2833,W,1,07,1.16,138.3,M,-34.1,M,,*57
11,0,-0.14,0.23,-0.30,-3.06,-0.13,0.50,0.7225,0.0994,-0.0739,0.6802,$GPGGA,210851.500,4041.0464,N,07423.2826,W,1,07,1.16,138.3,M,-34.1,M,,*5C
12,0,-0.02,0.69,0.25,1.00,0.19,0.50,0.7227,0.0988,-0.0732,0.6802,$GPGGA,210851.700,4041.0473,N,07423.2812,W,1,07,1.16,138.3,M,-34.1,M,,*5F
13,0,-0.44,-0.04,0.09,-1.75,1.87,0.31,0.7228,0.0986,-0.0723,0.6801,$GPGGA,210851.700,4041.0473,N,07423.2812,W,1,07,1.16,138.3,M,-34.1,M,,*5F
14,0,-0.05,0.62,0.99,1.00,-0.50,0.62,0.7226,0.0996,-0.0714,0.6804,$GPGGA,210851.900,4041.0482,N,07423.2797,W,1,07,1.29,138.3,M,-34.1,M,,*51
15,0,0.09,0.66,-0.47,-0.56,-1.62,0.62,0.7225,0.0997,-0.0711,0.6805,$GPGGA,210851.900,4041.0482,N,07423.2797,W,1,07,1.29,138.3,M,-34.1,M,,*51
16,0,-0.18,0.51,0.21,-0.06,3.44,0.88,0.7222,0.0995,-0.0706,0.6808,$GPGGA,210852.000,4041.0486,N,07423.2789,W,2,07,1.29,138.2,M,-34.1,M,0000,0000*52
17,0,-0.26,0.38,-0.10,1.00,1.31,0.94,0.7217,0.0990,-0.0699,0.6815,$GPGGA,210852.200,4041.0496,N,07423.2773,W,1,07,1.29,138.2,M,-34.1,M,,*57
18,0,-0.30,0.48,0.64,1.50,0.06,1.06,0.7212,0.0993,-0.0694,0.6821,$GPGGA,210852.200,4041.0496,N,07423.2773,W,1,07,1.29,138.2,M,-34.1,M,,*57
19,0,-0.63,0.74,0.62,0.81,-0.13,1.12,0.7205,0.1000,-0.0698,0.6827,$GPGGA,210852.300,4041.0501,N,07423.2765,W,1,07,1.29,138.2,M,-34.1,M,,*5E
20,0,-0.46,0.52,0.03,-0.19,0.31,0.50,0.7205,0.1005,-0.0677,0.6828,$GPGGA,210852.400,4041.0506,N,07423.2757,W,1,07,1.16,138.2,M,-34.1,M,,*53
21,0,-0.62,0.08,0.17,-1.69,2.44,0.06,0.7208,0.0995,-0.0657,0.6829,$GPGGA,210852.500,4041.0510,N,07423.2749,W,1,07,1.16,138.2,M,-34.1,M,,*5A
22,0,-0.83,-0.48,-0.53,-2.19,0.50,0.06,0.7209,0.0984,-0.0655,0.6829,$GPGGA,210852.600,4041.0515,N,07423.2741,W,1,07,1.16,138.1,M,-34.1,M,,*57
23,0,-1.09,0.15,-0.14,-0.56,3.06,0.25,0.7212,0.0969,-0.0630,0.6830,$GPGGA,210852.700,4041.0520,N,07423.2733,W,1,07,1.16,138.1,M,-34.1,M,,*55
24,0,-1.20,0.02,-0.44,-0.37,1.75,0.19,0.7213,0.0961,-0.0618,0.6831,$GPGGA,210852.800,4041.0525,N,07423.2725,W,1,07,1.16,138.1,M,-34.1,M,,*58
25,0,-0.94,0.10,0.54,-0.56,-0.37,0.19,0.7214,0.0957,-0.0602,0.6832,$GPGGA,210852.900,4041.0530,N,07423.2716,W,1,07,1.16,138.1,M,-34.1,M,,*5D
26,0,-1.21,0.99,0.62,-1.31,3.75,0.19,0.7216,0.0941,-0.0593,0.6833,$GPGGA,210853.000,4041.0535,N,07423.2707,W,1,07,1.16,138.1,M,-34.1,M,,*50
27,0,-0.87,-0.28,0.72,-1.12,0.88,-0.25,0.7224,0.0898,-0.0541,0.6835,$GPGGA,210853.100,4041.0541,N,07423.2697,W,1,07,1.16,138.1,M,-34.1,M,,*5A
28,0,-0.92,-0.01,0.82,0.13,0.13,-0.31,0.7227,0.0877,-0.0536,0.6835,$GPGGA,210853.200,4041.0546,N,07423.2687,W,1,07,1.29,138.0,M,-34.1,M,,*52
29,0,-0.73,-0.12,0.17,0.75,-0.94,-0.13,0.7230,0.0848,-0.0507,0.6838,$GPGGA,210853.300,4041.0551,N,07423.2677,W,1,07,1.29,138.0,M,-34.1,M,,*5A
30,0,-0.80,-0.25,-0.30,-1.31,0.13,-0.69,0.7233,0.0825,-0.0484,0.6839,$GPGGA,210853.400,4041.0556,N,07423.2667,W,1,07,1.16,138.0,M,-34.1,M,,*57
31,0,-0.72,-0.06,1.15,-1.62,2.12,-1.00,0.7239,0.0816,-0.0492,0.6833,$GPGGA,210853.600,4041.0567,N,07423.2649,W,1,07,1.16,138.0,M,-34.1,M,,*5B
32,0,-0.66,-0.08,0.79,-0.06,-0.50,-1.37,0.7249,0.0800,-0.0488,0.6825,$GPGGA,210853.700,4041.0572,N,07423.2640,W,1,07,1.29,137.9,M,-34.1,M,,*5D
33,0,-0.55,-0.62,0.42,-1.56,-1.25,-1.44,0.7259,0.0768,-0.0482,0.6818,$GPGGA,210853.800,4041.0577,N,07423.2631,W,1,07,1.16,137.9,M,-34.1,M,,*5D
34,0,-0.38,-0.38,-0.12,1.06,-1.69,-0.88,0.7266,0.0764,-0.0479,0.6811,$GPGGA,210853.800,4041.0577,N,07423.2631,W,1,07,1.16,137.9,M,-34.1,M,,*5D
35,0,-0.53,0.46,-0.49,0.75,-0.88,-0.81,0.7272,0.0764,-0.0480,0.6805,$GPGGA,210853.900,4041.0582,N,07423.2622,W,2,07,1.16,137.9,M,-34.1,M,0000,0000*57
36,0,-0.37,0.03,0.57,0.00,0.75,-0.81,0.7277,0.0757,-0.0471,0.6801,$GPGGA,210854.000,4041.0587,N,07423.2613,W,2,07,1.16,137.8,M,-34.1,M,0000,0000*5F
37,0,-0.63,0.13,0.05,0.37,-0.06,-0.62,0.7280,0.0754,-0.0464,0.6798,$GPGGA,210854.100,4041.0592,N,07423.2604,W,2,07,1.29,137.8,M,-34.1,M,0000,0000*50
38,0,-0.12,0.10,0.64,-0.31,0.62,-0.62,0.7284,0.0754,-0.0466,0.6794,$GPGGA,210854.200,4041.0597,N,07423.2595,W,2,07,1.29,137.8,M,-34.1,M,0000,0000*5D
39,0,-0.75,0.25,0.56,1.37,0.44,-0.69,0.7288,0.0759,-0.0469,0.6790,$GPGGA,210854.300,4041.0602,N,07423.2585,W,2,07,1.29,137.8,M,-34.1,M,0000,0000*52
40,0,-0.49,-0.61,0.61,1.50,-1.56,-0.56,0.7290,0.0768,-0.0463,0.6786,$GPGGA,210854.400,4041.0608,N,07423.2576,W,2,07,1.16,137.7,M,-34.1,M,0000,0000*50
41,0,-0.52,-0.25,0.05,0.25,0.19,-0.69,0.7294,0.0771,-0.0460,0.6782,$GPGGA,210854.500,4041.0613,N,07423.2567,W,2,07,1.16,137.7,M,-34.1,M,0000,0000*5B
42,0,-0.57,0.00,0.51,-1.06,-0.62,-0.94,0.7299,0.0768,-0.0452,0.6778,$GPGGA,210854.600,4041.0618,N,07423.2558,W,2,07,1.16,137.7,M,-34.1,M,0000,0000*5F
43,0,-0.29,-0.58,-1.01,-1.56,-1.37,-1.19,0.7305,0.0766,-0.0456,0.6771,$GPGGA,210854.700,4041.0623,N,07423.2548,W,2,07,1.16,137.6,M,-34.1,M,0000,0000*56
44,0,-0.32,-0.01,0.63,-0.94,-0.13,-0.88,0.7311,0.0762,-0.0458,0.6765,$GPGGA,210854.800,4041.0628,N,07423.2538,W,2,07,1.16,137.6,M,-34.1,M,0000,0000*55
45,0,-0.77,-0.46,0.87,-0.25,0.56,-1.06,0.7317,0.0764,-0.0464,0.6758,$GPGGA,210854.900,4041.0633,N,07423.2528,W,2,07,1.16,137.6,M,-34.1,M,0000,0000*5F
46,0,-0.93,-0.36,0.16,-0.81,-0.25,-1.00,0.7322,0.0759,-0.0463,0.6753,$GPGGA,210855.000,4041.0638,N,07423.2518,W,2,07,1.16,137.5,M,-34.1,M,0000,0000*5C
47,0,-0.53,0.09,0.33,0.56,-0.31,-0.94,0.7327,0.0758,-0.0463,0.6747,$GPGGA,210855.100,4041.0643,N,07423.2508,W,2,07,1.16,137.5,M,-34.1,M,0000,0000*50
48,0,-0.34,-0.18,0.25,-0.50,-0.44,-1.06,0.7333,0.0758,-0.0466,0.6741,$GPGGA,210855.200,4041.0648,N,07423.2498,W,2,07,1.16,137.5,M,-34.1,M,0000,0000*50
49,0,-0.50,-0.44,0.14,-1.12,1.31,-1.75,0.7341,0.0748,-0.0464,0.6733,$GPGGA,210855.300,4041.0653,N,07423.2488,W,1,07,1.29,137.4,M,-34.1,M,,*54
50,0,-0.42,0.05,0.00,-0.94,-1.37,-1.75,0.7352,0.0740,-0.0464,0.6722,$GPGGA,210855.400,4041.0658,N,07423.2477,W,1,07,1.16,137.4,M,-34.1,M,,*54
51,0,-0.27,-0.74,0.65,0.88,0.25,-1.87,0.7363,0.0732,-0.0465,0.6711,$GPGGA,210855.500,4041.0663,N,07423.2467,W,1,07,1.16,137.4,M,-34.1,M,,*5C
52,0,-0.50,0.34,-0.17,0.81,1.06,-1.94,0.7373,0.0743,-0.0462,0.6699,$GPGGA,210855.700,4041.0674,N,07423.2446,W,1,07,1.29,137.3,M,-34.1,M,,*50
53,0,-0.70,-0.90,0.03,3.75,0.88,-1.87,0.7384,0.0730,-0.0459,0.6688,$GPGGA,210855.800,4041.0680,N,07423.2435,W,1,07,1.29,137.3,M,-34.1,M,,*50
54,0,-0.79,-0.68,-0.09,0.81,2.69,-2.06,0.7396,0.0731,-0.0443,0.6676,$GPGGA,210855.900,4041.0685,N,07423.2425,W,1,07,1.29,137.2,M,-34.1,M,,*54
55,0,-0.55,-0.49,-0.12,0.50,-2.44,-1.94,0.7406,0.0739,-0.0426,0.6665,$GPGGA,210856.000,4041.0690,N,07423.2414,W,1,07,1.29,137.2,M,-34.1,M,,*58
56,0,-0.19,-1.75,1.65,-1.25,-6.56,-1.62,0.7413,0.0764,-0.0436,0.6653,$GPGGA,210856.100,4041.0695,N,07423.2403,W,1,07,1.29,137.2,M,-34.1,M,,*5A
57,0,-0.39,-1.02,1.27,-0.06,-1.12,-2.00,0.7422,0.0781,-0.0447,0.6641,$GPGGA,210856.200,4041.0700,N,07423.2392,W,1,07,1.29,137.1,M,-34.1,M,,*58
58,0,-1.09,-0.06,-1.13,-1.44,3.19,-1.87,0.7433,0.0779,-0.0449,0.6629,$GPGGA,210856.300,4041.0705,N,07423.2381,W,1,07,1.29,137.1,M,-34.1,M,,*5E
59,0,0.02,-0.42,0.13,0.37,-1.25,-1.69,0.7444,0.0770,-0.0456,0.6617,$GPGGA,210856.400,4041.0711,N,07423.2370,W,1,07,1.16,137.0,M,-34.1,M,,*5F
60,0,-0.31,-1.23,0.83,-0.75,-4.81,-1.62,0.7454,0.0776,-0.0464,0.6605,$GPGGA,210856.400,4041.0711,N,07423.2370,W,1,07,1.16,137.0,M,-34.1,M,,*5F
61,0,-0.80,-0.54,0.84,0.94,-0.81,-0.75,0.7459,0.0789,-0.0472,0.6597,$GPGGA,210856.600,4041.0721,N,07423.2348,W,1,07,1.29,136.9,M,-34.1,M,,*51
62,0,-1.13,1.30,0.41,2.25,0.81,0.25,0.7458,0.0798,-0.0479,0.6595,$GPGGA,210856.700,4041.0726,N,07423.2336,W,1,07,1.29,136.9,M,-34.1,M,,*5E
63,0,-0.72,-0.44,-0.03,-2.62,-0.19,-0.31,0.7460,0.0790,-0.0487,0.6595,$GPGGA,210856.800,4041.0731,N,07423.2325,W,1,07,1.29,136.9,M,-34.1,M,,*55
64,0,-0.89,-0.49,0.52,-3.75,0.75,-0.50,0.7462,0.0771,-0.0483,0.6595,$GPGGA,210856.900,4041.0737,N,07423.2314,W,1,07,1.29,136.8,M,-34.1,M,,*51
65,0,-0.85,0.12,0.07,1.81,2.62,0.19,0.7463,0.0752,-0.0480,0.6596,$GPGGA,210856.900,4041.0737,N,07423.2314,W,1,07,1.29,136.8,M,-34.1,M,,*51
66,0,-0.77,0.06,-0.15,1.37,-1.25,0.37,0.7462,0.0761,-0.0471,0.6597,$GPGGA,210857.000,4041.0742,N,07423.2303,W,1,07,1.29,136.8,M,-34.1,M,,*5D
67,0,-1.06,0.05,0.47,4.75,-3.50,1.00,0.7455,0.0792,-0.0462,0.6602,$GPGGA,210857.100,4041.0747,N,07423.2291,W,1,07,1.29,136.8,M,-34.1,M,,*53
68,0,-1.09,1.13,1.24,2.19,1.00,1.37,0.7445,0.0817,-0.0458,0.6610,$GPGGA,210857.200,4041.0753,N,07423.2279,W,1,07,1.29,136.7,M,-34.1,M,,*5C
69,0,-0.61,0.19,0.52,-1.19,-4.62,0.81,0.7438,0.0830,-0.0469,0.6616,$GPGGA,210857.300,4041.0758,N,07423.2267,W,1,07,1.29,136.7,M,-34.1,M,,*59
70,0,-0.74,-0.53,0.78,-2.94,-1.81,0.62,0.7433,0.0833,-0.0482,0.6619,$GPGGA,210857.400,4041.0764,N,07423.2255,W,1,07,1.16,136.6,M,-34.1,M,,*5D
71,0,-0.98,0.81,-0.48,-0.25,0.94,1.06,0.7430,0.0826,-0.0488,0.6624,$GPGGA,210857.500,4041.0769,N,07423.2244,W,1,07,1.16,136.6,M,-34.1,M,,*51
72,0,-0.49,-0.36,0.91,-1.19,-1.69,1.00,0.7424,0.0820,-0.0490,0.6630,$GPGGA,210857.600,4041.0775,N,07423.2232,W,1,07,1.16,136.6,M,-34.1,M,,*5E
73,0,-1.23,0.50,0.35,-0.13,1.69,1.12,0.7419,0.0815,-0.0494,0.6637,$GPGGA,210857.700,4041.0781,N,07423.2220,W,2,07,1.16,136.5,M,-34.1,M,0000,0000*57
74,0,-0.98,1.34,-0.09,1.31,-0.81,1.25,0.7413,0.0814,-0.0504,0.6644,$GPGGA,210857.800,4041.0787,N,07423.2208,W,2,07,1.16,136.5,M,-34.1,M,0000,0000*54
75,0,-0.82,-0.49,0.72,-2.44,-0.19,0.94,0.7407,0.0806,-0.0510,0.6650,$GPGGA,210857.900,4041.0793,N,07423.2196,W,2,07,1.29,136.5,M,-34.1,M,0000,0000*58
76,0,-0.95,0.50,0.07,0.56,0.88,0.94,0.7403,0.0800,-0.0507,0.6656,$GPGGA,210858.000,4041.0799,N,07423.2184,W,2,07,1.29,136.4,M,-34.1,M,0000,0000*56
77,0,-0.88,-0.59,-0.98,-2.37,-3.50,0.13,0.7402,0.0802,-0.0511,0.6657,$GPGGA,210858.100,4041.0805,N,07423.2172,W,2,07,1.29,136.4,M,-34.1,M,0000,0000*54
78,0,-1.25,0.67,-0.53,2.62,1.94,0.00,0.7401,0.0805,-0.0502,0.6658,$GPGGA,210858.300,4041.0817,N,07423.2148,W,1,07,1.29,136.3,M,-34.1,M,,*58
79,0,-0.45,0.11,1.53,1.50,-4.94,0.44,0.7399,0.0819,-0.0500,0.6658,$GPGGA,210858.300,4041.0817,N,07423.2148,W,1,07,1.29,136.3,M,-34.1,M,,*58
80,0,-1.22,0.82,0.11,1.87,1.87,0.37,0.7397,0.0828,-0.0496,0.6660,$GPGGA,210858.500,4041.0829,N,07423.2124,W,1,07,1.16,136.3,M,-34.1,M,,*55
81,0,-0.99,-0.20,-0.29,-0.81,-0.94,0.62,0.7395,0.0823,-0.0479,0.6664,$GPGGA,210858.600,4041.0835,N,07423.2112,W,1,07,1.16,136.2,M,-34.1,M,,*5F
82,0,-1.23,1.03,0.03,-1.44,2.50,0.50,0.7395,0.0819,-0.0480,0.6664,$GPGGA,210858.700,4041.0841,N,07423.2100,W,1,07,1.29,136.2,M,-34.1,M,,*52
83,0,-0.98,0.48,0.38,-0.25,-1.94,0.56,0.7394,0.0819,-0.0483,0.6664,$GPGGA,210858.800,4041.0847,N,07423.2087,W,1,07,1.29,136.1,M,-34.1,M,,*56
84,0,-1.12,0.41,-0.14,-0.44,-0.88,0.69,0.7393,0.0812,-0.0483,0.6667,$GPGGA,210858.800,4041.0847,N,07423.2087,W,1,07,1.29,136.1,M,-34.1,M,,*56
85,0,-0.97,0.39,0.41,0.88,1.81,0.81,0.7391,0.0806,-0.0485,0.6669,$GPGGA,210859.000,4041.0860,N,07423.2063,W,1,07,1.29,136.1,M,-34.1,M,,*50
86,0,-1.24,0.49,0.15,-1.87,0.25,0.37,0.7391,0.0812,-0.0486,0.6669,$GPGGA,210859.100,4041.0866,N,07423.2051,W,1,07,1.29,136.0,M,-34.1,M,,*57
87,0,-1.04,0.68,-0.27,3.56,0.62,0.69,0.7386,0.0822,-0.0480,0.6673,$GPGGA,210859.100,4041.0866,N,07423.2051,W,1,07,1.29,136.0,M,-34.1,M,,*57
88,0,-1.39,0.27,-0.27,-0.19,0.62,0.19,0.7385,0.0828,-0.0470,0.6675,$GPGGA,210859.200,4041.0872,N,07423.2039,W,2,07,1.29,136.0,M,-34.1,M,0000,0000*5C
89,0,-0.61,-0.11,0.60,2.50,-2.81,0.37,0.7384,0.0834,-0.0468,0.6675,$GPGGA,210859.300,4041.0877,N,07423.2026,W,2,07,1.29,135.9,M,-34.1,M,0000,0000*5C
90,0,-1.14,0.15,0.00,-3.12,1.25,-0.31,0.7385,0.0826,-0.0473,0.6675,$GPGGA,210859.400,4041.0883,N,07423.2014,W,2,07,1.16,135.9,M,-34.1,M,0000,0000*5D
91,0,-1.22,0.51,0.27,-0.31,-0.13,-0.06,0.7386,0.0814,-0.0480,0.6675,$GPGGA,210859.500,4041.0889,N,07423.2001,W,2,07,1.16,135.8,M,-34.1,M,0000,0000*53
92,0,-1.37,0.50,0.12,-1.19,1.00,0.13,0.7386,0.0811,-0.0490,0.6674,$GPGGA,210859.600,4041.0894,N,07423.1989,W,2,07,1.16,135.8,M,-34.1,M,0000,0000*56
93,0,-1.06,0.10,0.51,0.00,-0.75,0.13,0.7386,0.0817,-0.0495,0.6673,$GPGGA,210859.700,4041.0900,N,07423.1977,W,2,07,1.29,135.7,M,-34.1,M,0000,0000*59
94,0,-1.12,0.62,0.12,1.12,2.31,0.06,0.7386,0.0818,-0.0491,0.6674,$GPGGA,210859.800,4041.0906,N,07423.1964,W,2,07,1.29,135.7,M,-34.2,M,0000,0000*51
95,0,-1.10,0.36,-0.35,1.12,-0.25,0.00,0.7386,0.0815,-0.0491,0.6674,$GPGGA,210859.900,4041.0912,N,07423.1952,W,2,07,1.29,135.7,M,-34.1,M,0000,0000*53
96,0,-1.04,1.14,-0.04,2.62,0.62,0.31,0.7386,0.0814,-0.0486,0.6674,$GPGGA,210900.000,4041.0918,N,07423.1940,W,2,07,1.29,135.6,M,-34.2,M,0000,0000*5C
97,0,-1.27,0.22,-0.14,1.25,-1.62,0.13,0.7386,0.0817,-0.0483,0.6674,$GPGGA,210900.100,4041.0924,N,07423.1928,W,2,07,1.29,135.6,M,-34.2,M,0000,0000*5C
98,0,-0.75,-1.19,0.38,1.19,0.94,0.13,0.7387,0.0806,-0.0464,0.6676,$GPGGA,210900.200,4041.0930,N,07423.1916,W,2,07,1.29,135.5,M,-34.2,M,0000,0000*54
99,0,-1.61,0.63,-0.67,-0.69,1.81,0.06,0.7388,0.0799,-0.0456,0.6677,$GPGGA,210900.300,4041.0936,N,07423.1904,W,2,07,1.29,135.5,M,-34.2,M,0000,0000*50
100,0,-0.90,-0.42,0.88,-2.81,-1.37,-0.25,0.7388,0.0787,-0.0456,0.6677,$GPGGA,210900.400,4041.0942,N,07423.1892,W,2,07,1.16,135.5,M,-34.2,M,0000,0000*56
101,0,-1.00,0.76,-0.10,-0.75,-0.13,-0.25,0.7390,0.0777,-0.0463,0.6677,$GPGGA,210900.500,4041.0948,N,07423.1880,W,2,07,1.16,135.4,M,-34.2,M,0000,0000*5F
102,0,-1.53,0.15,-0.17,-3.00,0.88,-0.19,0.7390,0.0771,-0.0470,0.6676,$GPGGA,210900.600,4041.0954,N,07423.1868,W,2,07,1.16,135.4,M,-34.2,M,0000,0000*57
103,0,-1.27,-0.21,0.70,3.31,0.69,0.06,0.7390,0.0772,-0.0466,0.6676,$GPGGA,210900.700,4041.0961,N,07423.1856,W,2,07,1.29,135.4,M,-34.2,M,0000,0000*51
104,0,-1.43,-0.21,-0.05,0.56,-1.00,0.00,0.7390,0.0777,-0.0470,0.6676,$GPGGA,210900.800,4041.0967,N,07423.1844,W,2,07,1.29,135.3,M,-34.2,M,0000,0000*5C
105,0,-0.91,-0.82,0.56,-1.37,-2.25,-0.44,0.7390,0.0782,-0.0472,0.6675,$GPGGA,210900.900,4041.0974,N,07423.1832,W,2,07,1.29,135.3,M,-34.2,M,0000,0000*5E
106,0,-0.91,0.89,0.40,2.06,0.94,-0.13,0.7390,0.0778,-0.0466,0.6676,$GPGGA,210901.000,4041.0981,N,07423.1820,W,2,07,1.29,135.3,M,-34.2,M,0000,0000*5F
107,0,-1.41,0.05,-1.09,-0.50,2.31,-0.31,0.7390,0.0770,-0.0458,0.6677,$GPGGA,210901.200,4041.0994,N,07423.1795,W,1,07,1.29,135.2,M,-34.2,M,,*5A
108,0,-0.96,0.41,-0.68,0.88,1.19,-0.25,0.7391,0.0759,-0.0446,0.6678,$GPGGA,210901.300,4041.1000,N,07423.1782,W,1,07,1.29,135.2,M,-34.2,M,,*58
109,0,-1.72,0.52,-0.14,0.75,2.44,0.00,0.7391,0.0755,-0.0439,0.6679,$GPGGA,210901.400,4041.1007,N,07423.1770,W,1,07,1.16,135.2,M,-34.2,M,,*59
110,0,-1.82,-0.51,-0.27,-1.62,-2.75,-0.06,0.7391,0.0751,-0.0443,0.6679,$GPGGA,210901.400,4041.1007,N,07423.1770,W,1,07,1.16,135.2,M,-34.2,M,,*59
111,0,-1.17,0.49,0.38,-1.06,0.37,0.00,0.7393,0.0740,-0.0450,0.6678,$GPGGA,210901.500,4041.1013,N,07423.1758,W,2,07,1.16,135.2,M,-34.2,M,0000,0000*54
112,0,-1.64,0.43,-0.70,-0.94,1.31,0.13,0.7394,0.0730,-0.0455,0.6678,$GPGGA,210901.600,4041.1019,N,07423.1745,W,2,07,1.16,135.2,M,-34.2,M,0000,0000*51
113,0,-1.07,0.03,0.04,-0.56,-1.37,0.75,0.7393,0.0724,-0.0459,0.6680,$GPGGA,210901.800,4041.1031,N,07423.1720,W,1,07,1.16,135.2,M,-34.2,M,,*55
114,0,-1.38,1.10,-0.05,-0.44,-0.06,0.94,0.7388,0.0719,-0.0466,0.6684,$GPGGA,210901.800,4041.1031,N,07423.1720,W,1,07,1.16,135.2,M,-34.2,M,,*55
115,0,-1.37,0.44,0.43,-2.12,0.00,0.69,0.7386,0.0710,-0.0467,0.6688,$GPGGA,210901.900,4041.1037,N,07423.1707,W,2,07,1.29,135.1,M,-34.2,M,0000,0000*5B
116,0,-1.15,-0.18,0.69,0.19,-1.19,0.88,0.7385,0.0699,-0.0450,0.6692,$GPGGA,210902.000,4041.1043,N,07423.1695,W,2,07,1.29,135.1,M,-34.2,M,0000,0000*58
117,0,-1.34,0.69,-0.11,0.62,0.69,1.00,0.7379,0.0703,-0.0457,0.6697,$GPGGA,210902.100,4041.1049,N,07423.1682,W,2,07,1.29,135.1,M,-34.2,M,0000,0000*55
118,0,-1.23,0.53,0.39,-2.00,0.81,0.81,0.7375,0.0700,-0.0460,0.6702,$GPGGA,210902.200,4041.1055,N,07423.1670,W,2,07,1.29,135.1,M,-34.2,M,0000,0000*56
119,0,-1.36,1.44,-0.15,0.00,3.25,0.75,0.7372,0.0685,-0.0457,0.6707,$GPGGA,210902.300,4041.1061,N,07423.1657,W,2,07,1.29,135.0,M,-34.2,M,0000,0000*54
120,0,-1.09,0.23,-0.15,1.37,1.37,0.88,0.7369,0.0671,-0.0453,0.6711,$GPGGA,210902.400,4041.1067,N,07423.1645,W,2,07,1.16,135.0,M,-34.2,M,0000,0000*5A
121,0,-1.00,-0.32,-0.05,0.44,-0.81,1.00,0.7365,0.0662,-0.0449,0.6717,$GPGGA,210902.500,4041.1074,N,07423.1633,W,2,07,1.16,135.0,M,-34.2,M,0000,0000*58
122,0,-1.03,0.18,0.45,-0.88,2.19,1.00,0.7360,0.0656,-0.0451,0.6724,$GPGGA,210902.600,4041.1080,N,07423.1620,W,2,07,1.16,135.0,M,-34.2,M,0000,0000*52
123,0,-1.44,-0.12,0.85,-3.75,-1.87,0.69,0.7355,0.0650,-0.0466,0.6729,$GPGGA,210902.700,4041.1086,N,07423.1608,W,2,07,1.16,134.9,M,-34.2,M,0000,0000*57
124,0,-0.83,-0.22,1.45,0.75,-0.81,1.12,0.7349,0.0645,-0.0474,0.6734,$GPGGA,210902.800,4041.1093,N,07423.1596,W,2,07,1.29,134.9,M,-34.2,M,0000,0000*54
125,0,-1.07,1.33,-0.48,2.12,0.13,1.31,0.7344,0.0638,-0.0474,0.6741,$GPGGA,210902.900,4041.1099,N,07423.1583,W,2,07,1.29,134.9,M,-34.2,M,0000,0000*5B
126,0,-1.22,-0.50,-0.21,-0.75,-1.00,1.19,0.7336,0.0633,-0.0475,0.6749,$GPGGA,210903.000,4041.1106,N,07423.1571,W,2,07,1.29,134.8,M,-34.2,M,0000,0000*58
127,0,-0.85,0.77,1.16,-1.00,1.00,1.31,0.7329,0.0630,-0.0472,0.6758,$GPGGA,210903.100,4041.1112,N,07423.1558,W,2,07,1.29,134.8,M,-34.2,M,0000,0000*57
128,0,-1.03,1.07,0.15,-0.13,3.06,1.81,0.7321,0.0616,-0.0450,0.6769,$GPGGA,210903.200,4041.1119,N,07423.1546,W,2,07,1.29,134.8,M,-34.2,M,0000,0000*50
129,0,-1.04,0.31,-0.47,-0.88,5.44,1.44,0.7313,0.0598,-0.0446,0.6780,$GPGGA,210903.300,4041.1125,N,07423.1534,W,2,07,1.29,134.7,M,-34.2,M,0000,0000*54
130,0,-0.80,-0.36,0.68,-2.44,-0.37,1.50,0.7303,0.0592,-0.0450,0.6790,$GPGGA,210903.400,4041.1132,N,07423.1521,W,2,07,1.16,134.7,M,-34.2,M,0000,0000*5D
131,0,-0.97,0.70,0.54,-1.62,-4.62,1.81,0.7294,0.0592,-0.0460,0.6800,$GPGGA,210903.500,4041.1138,N,07423.1509,W,2,07,1.29,134.6,M,-34.2,M,0000,0000*51
132,0,-1.26,1.56,-0.67,2.44,-1.62,1.94,0.7284,0.0593,-0.0472,0.6810,$GPGGA,210903.600,4041.1145,N,07423.1496,W,2,07,1.16,134.6,M,-34.2,M,0000,0000*53
133,0,-1.15,0.18,0.62,0.56,0.94,1.37,0.7275,0.0588,-0.0470,0.6819,$GPGGA,210903.700,4041.1152,N,07423.1484,W,2,07,1.16,134.5,M,-34.2,M,0000,0000*54
134,0,-0.82,0.41,-0.10,-0.19,1.81,1.56,0.7267,0.0580,-0.0436,0.6830,$GPGGA,210903.800,4041.1159,N,07423.1471,W,2,07,1.29,134.5,M,-34.2,M,0000,0000*56
135,0,-1.15,0.14,-0.42,-0.37,2.19,1.37,0.7259,0.0574,-0.0428,0.6840,$GPGGA,210903.900,4041.1166,N,07423.1458,W,2,07,1.29,134.5,M,-34.2,M,0000,0000*50
136,0,-1.03,-0.17,0.59,-1.00,0.75,0.81,0.7253,0.0569,-0.0430,0.6847,$GPGGA,210904.000,4041.1173,N,07423.1445,W,2,07,1.29,134.4,M,-34.2,M,0000,0000*57
137,0,-0.40,0.18,1.20,-0.75,-1.25,0.44,0.7252,0.0568,-0.0436,0.6849,$GPGGA,210904.100,4041.1180,N,07423.1432,W,2,07,1.29,134.4,M,-34.2,M,0000,0000*5A
138,0,-1.10,0.15,-0.65,0.25,1.37,0.31,0.7252,0.0562,-0.0441,0.6849,$GPGGA,210904.200,4041.1186,N,07423.1419,W,2,07,1.29,134.3,M,-34.2,M,0000,0000*51
139,0,-1.26,0.17,-0.85,2.00,2.50,0.69,0.7251,0.0558,-0.0441,0.6849,$GPGGA,210904.300,4041.1193,N,07423.1407,W,2,07,1.29,134.3,M,-34.2,M,0000,0000*5B
140,0,-0.82,0.12,-0.25,-0.81,1.06,0.44,0.7251,0.0551,-0.0440,0.6851,$GPGGA,210904.400,4041.1200,N,07423.1394,W,2,07,1.16,134.2,M,-34.2,M,0000,0000*55
141,0,-1.00,0.35,-0.74,-3.31,-3.87,0.62,0.7249,0.0537,-0.0447,0.6853,$GPGGA,210904.500,4041.1207,N,07423.1381,W,2,07,1.16,134.2,M,-34.2,M,0000,0000*57
142,0,-1.04,0.36,0.30,0.50,1.00,0.44,0.7250,0.0524,-0.0453,0.6853,$GPGGA,210904.600,4041.1214,N,07423.1369,W,2,07,1.16,134.1,M,-34.2,M,0000,0000*53
143,0,-0.76,0.17,0.87,-1.06,-1.37,0.69,0.7249,0.0524,-0.0453,0.6854,$GPGGA,210904.700,4041.1221,N,07423.1356,W,2,07,1.16,134.1,M,-34.2,M,0000,0000*58
144,0,-0.60,0.44,0.76,1.00,-2.06,1.25,0.7241,0.0529,-0.0433,0.6863,$GPGGA,210904.800,4041.1228,N,07423.1344,W,2,07,1.16,134.1,M,-34.2,M,0000,0000*5D
145,0,-1.15,1.08,1.08,5.62,-2.19,1.31,0.7231,0.0555,-0.0416,0.6872,$GPGGA,210904.900,4041.1234,N,07423.1331,W,2,07,1.16,134.0,M,-34.2,M,0000,0000*52
146,0,-0.62,0.24,-0.46,2.12,0.88,1.31,0.7222,0.0575,-0.0402,0.6880,$GPGGA,210905.000,4041.1241,N,07423.1318,W,2,07,1.16,134.0,M,-34.2,M,0000,0000*53
147,0,-0.77,0.13,-0.88,-3.69,2.50,0.44,0.7218,0.0553,-0.0386,0.6888,$GPGGA,210905.100,4041.1248,N,07423.1306,W,2,07,1.16,133.9,M,-34.2,M,0000,0000*5A
148,0,-1.38,-0.06,-0.25,-3.25,1.50,-0.06,0.7219,0.0538,-0.0394,0.6888,$GPGGA,210905.200,4041.1255,N,07423.1293,W,2,07,1.16,133.9,M,-34.2,M,0000,0000*58
149,0,-0.46,-0.45,-1.77,-2.25,8.81,0.31,0.7220,0.0524,-0.0405,0.6887,$GPGGA,210905.300,4041.1262,N,07423.1281,W,2,07,1.16,133.8,M,-34.2,M,0000,0000*5F
150,0,-1.49,-0.59,-0.08,6.25,-0.25,1.06,0.7219,0.0521,-0.0376,0.6891,$GPGGA,210905.400,4041.1270,N,07423.1268,W,2,07,1.16,133.8,M,-34.2,M,0000,0000*5C
151,0,-1.02,-0.28,0.62,5.87,-6.25,1.44,0.7212,0.0544,-0.0363,0.6896,$GPGGA,210905.500,4041.1277,N,07423.1255,W,2,07,1.16,133.7,M,-34.2,M,0000,0000*5B
152,0,-0.97,-0.07,1.19,1.44,-7.75,1.44,0.7198,0.0606,-0.0374,0.6904,$GPGGA,210905.600,4041.1284,N,07423.1243,W,2,07,1.16,133.7,M,-34.2,M,0000,0000*53
153,0,-1.49,1.12,-1.12,0.37,3.25,0.81,0.7191,0.0617,-0.0369,0.6912,$GPGGA,210905.700,4041.1291,N,07423.1230,W,2,07,1.16,133.6,M,-34.2,M,0000,0000*53
154,0,-1.23,1.18,-1.16,0.19,2.00,0.31,0.7190,0.0601,-0.0353,0.6915,$GPGGA,210905.800,4041.1298,N,07423.1218,W,2,07,1.16,133.6,M,-34.2,M,0000,0000*5F
155,0,-1.22,-0.65,-1.22,-3.19,3.25,0.25,0.7191,0.0579,-0.0347,0.6916,$GPGGA,210905.900,4041.1306,N,07423.1205,W,2,07,1.16,133.5,M,-34.2,M,0000,0000*57
156,0,-1.12,0.26,0.61,0.06,-0.25,0.44,0.7191,0.0570,-0.0350,0.6917,$GPGGA,210906.000,4041.1313,N,07423.1193,W,2,07,1.16,133.6,M,-34.2,M,0000,0000*56
157,0,-0.56,0.18,1.06,0.25,-2.25,0.69,0.7190,0.0568,-0.0349,0.6918,$GPGGA,210906.100,4041.1321,N,07423.1181,W,2,07,1.16,133.5,M,-34.2,M,0000,0000*56
158,0,-1.16,-0.32,-0.04,-0.44,0.19,1.00,0.7187,0.0544,-0.0323,0.6924,$GPGGA,210906.200,4041.1328,N,07423.1168,W,2,07,1.16,133.5,M,-34.2,M,0000,0000*5B
159,0,-1.57,-0.06,0.76,2.75,-3.50,1.44,0.7179,0.0552,-0.0319,0.6932,$GPGGA,210906.300,4041.1336,N,07423.1156,W,2,07,1.29,133.4,M,-34.2,M,0000,0000*55
160,0,-1.60,0.96,1.09,0.19,-1.19,1.56,0.7170,0.0573,-0.0328,0.6940,$GPGGA,210906.400,4041.1343,N,07423.1143,W,2,07,1.16,133.3,M,-34.2,M,0000,0000*5F
161,0,-1.48,0.70,-0.31,0.44,-0.62,1.56,0.7161,0.0576,-0.0334,0.6948,$GPGGA,210906.500,4041.1351,N,07423.1131,W,2,07,1.16,133.3,M,-34.2,M,0000,0000*58
162,0,-1.28,-0.96,0.14,-3.94,-2.19,0.94,0.7155,0.0566,-0.0344,0.6954,$GPGGA,210906.600,4041.1358,N,07423.1119,W,2,07,1.16,133.2,M,-34.2,M,0000,0000*59
163,0,-1.42,0.29,0.40,-0.94,1.50,1.31,0.7148,0.0562,-0.0341,0.6962,$GPGGA,210906.700,4041.1365,N,07423.1107,W,2,07,1.16,133.2,M,-34.2,M,0000,0000*59
164,0,-1.72,1.41,-0.96,2.19,1.25,1.69,0.7141,0.0549,-0.0308,0.6972,$GPGGA,210906.800,4041.1372,N,07423.1096,W,2,07,1.16,133.1,M,-34.2,M,0000,0000*5A
165,0,-1.84,0.56,0.03,0.75,-0.37,1.75,0.7131,0.0556,-0.0303,0.6982,$GPGGA,210906.900,4041.1379,N,07423.1084,W,2,07,1.16,133.2,M,-34.2,M,0000,0000*50
166,0,-1.63,1.26,0.07,1.75,-0.69,1.87,0.7119,0.0569,-0.0305,0.6993,$GPGGA,210907.000,4041.1387,N,07423.1072,W,2,07,1.16,133.1,M,-34.2,M,0000,0000*53
167,0,-1.15,1.15,1.26,1.69,-1.31,1.87,0.7107,0.0579,-0.0297,0.7005,$GPGGA,210907.100,4041.1394,N,07423.1061,W,2,07,1.16,133.0,M,-34.2,M,0000,0000*53
168,0,-1.06,-0.82,0.04,0.50,-2.25,1.50,0.7097,0.0587,-0.0289,0.7015,$GPGGA,210907.200,4041.1402,N,07423.1049,W,2,07,1.16,133.0,M,-34.2,M,0000,0000*52
169,0,-1.63,-0.38,0.02,2.37,0.06,2.06,0.7085,0.0597,-0.0284,0.7026,$GPGGA,210907.300,4041.1409,N,07423.1037,W,2,07,1.29,132.9,M,-34.2,M,0000,0000*55
170,0,-1.68,1.20,0.36,0.19,-0.06,1.56,0.7075,0.0595,-0.0289,0.7037,$GPGGA,210907.400,4041.1417,N,07423.1025,W,2,07,1.16,132.9,M,-34.2,M,0000,0000*52
171,0,-1.69,-0.44,0.01,-3.12,-0.69,0.88,0.7067,0.0586,-0.0292,0.7045,$GPGGA,210907.500,4041.1424,N,07423.1014,W,2,07,1.16,132.8,M,-34.2,M,0000,0000*50
172,0,-1.60,0.24,0.25,-2.06,-1.56,1.31,0.7060,0.0576,-0.0296,0.7053,$GPGGA,210907.600,4041.1431,N,07423.1002,W,2,07,1.16,132.8,M,-34.2,M,0000,0000*50
173,0,-1.92,0.85,0.49,-1.50,-1.62,1.37,0.7053,0.0569,-0.0311,0.7060,$GPGGA,210907.700,4041.1439,N,07423.0990,W,2,07,1.16,132.7,M,-34.2,M,0000,0000*55
174,0,-1.88,0.57,-0.07,0.88,0.44,1.25,0.7045,0.0562,-0.0316,0.7067,$GPGGA,210907.800,4041.1446,N,07423.0979,W,2,07,1.16,132.7,M,-34.2,M,0000,0000*55
175,0,-1.27,0.44,-0.34,0.44,1.69,1.37,0.7039,0.0552,-0.0312,0.7075,$GPGGA,210907.900,4041.1454,N,07423.0967,W,2,07,1.16,132.6,M,-34.2,M,0000,0000*59
176,0,-1.59,1.32,-0.81,-2.31,0.37,1.00,0.7031,0.0543,-0.0309,0.7083,$GPGGA,210908.000,4041.1462,N,07423.0955,W,2,07,1.29,132.5,M,-34.2,M,0000,0000*54
177,0,-1.48,-0.13,-0.49,-0.37,0.06,1.37,0.7024,0.0532,-0.0307,0.7092,$GPGGA,210908.100,4041.1469,N,07423.0944,W,2,07,1.29,132.5,M,-34.2,M,0000,0000*5E
178,0,-1.92,1.13,0.30,1.81,-2.87,1.25,0.7017,0.0527,-0.0314,0.7098,$GPGGA,210908.200,4041.1477,N,07423.0932,W,2,07,1.29,132.4,M,-34.2,M,0000,0000*52
179,0,-1.39,1.44,0.93,-0.88,-1.25,0.75,0.7010,0.0544,-0.0326,0.7103,$GPGGA,210908.300,4041.1485,N,07423.0920,W,2,07,1.29,132.4,M,-34.2,M,0000,0000*5D
180,0,-1.35,0.60,0.26,-0.25,-1.00,0.56,0.7005,0.0558,-0.0333,0.7107,$GPGGA,210908.400,4041.1493,N,07423.0908,W,2,07,1.16,132.3,M,-34.2,M,0000,0000*5C
181,0,-1.33,0.34,0.11,-0.94,-0.06,0.25,0.7004,0.0554,-0.0341,0.7108,$GPGGA,210908.500,4041.1500,N,07423.0897,W,2,07,1.16,132.2,M,-34.2,M,0000,0000*50
182,0,-1.94,0.60,0.30,1.44,-0.06,0.06,0.7004,0.0550,-0.0342,0.7108,$GPGGA,210908.600,4041.1508,N,07423.0885,W,2,07,1.16,132.2,M,-34.2,M,0000,0000*58
183,0,-1.21,0.97,1.28,-0.19,-0.69,0.62,0.7002,0.0563,-0.0350,0.7108,$GPGGA,210908.700,4041.1516,N,07423.0874,W,2,07,1.16,132.1,M,-34.2,M,0000,0000*5B
184,0,-1.35,0.31,0.19,0.31,-0.50,0.69,0.6996,0.0577,-0.0355,0.7113,$GPGGA,210908.800,4041.1524,N,07423.0862,W,2,07,1.16,132.1,M,-34.2,M,0000,0000*52
185,0,-1.58,0.40,-0.10,1.94,0.44,0.88,0.6990,0.0579,-0.0344,0.7119,$GPGGA,210908.900,4041.1532,N,07423.0851,W,2,07,1.16,132.0,M,-34.2,M,0000,0000*55
186,0,-1.88,0.50,-0.45,1.12,0.50,0.94,0.6985,0.0579,-0.0340,0.7125,$GPGGA,210909.000,4041.1541,N,07423.0839,W,2,07,1.16,132.0,M,-34.2,M,0000,0000*57
187,0,-1.53,0.90,-0.03,-4.37,-1.31,0.88,0.6980,0.0574,-0.0362,0.7128,$GPGGA,210909.100,4041.1549,N,07423.0827,W,2,07,1.29,132.0,M,-34.2,M,0000,0000*5D
188,0,-1.23,1.21,0.57,-5.50,-1.75,0.44,0.6980,0.0558,-0.0372,0.7130,$GPGGA,210909.200,4041.1557,N,07423.0815,W,2,07,1.29,131.9,M,-34.2,M,0000,0000*5A
189,0,-1.72,0.08,-0.06,1.06,-1.62,0.69,0.6976,0.0569,-0.0385,0.7131,$GPGGA,210909.300,4041.1565,N,07423.0804,W,2,07,1.29,131.8,M,-34.2,M,0000,0000*5B
190,0,-1.40,-0.12,-0.36,2.00,3.19,0.81,0.6971,0.0571,-0.0376,0.7137,$GPGGA,210909.400,4041.1573,N,07423.0792,W,2,07,1.16,131.8,M,-34.2,M,0000,0000*57
191,0,-1.45,0.28,-0.28,1.00,2.00,0.88,0.6965,0.0571,-0.0353,0.7145,$GPGGA,210909.500,4041.1581,N,07423.0780,W,2,07,1.16,131.7,M,-34.2,M,0000,0000*57
192,0,-1.31,0.63,-0.02,1.75,-1.69,0.75,0.6959,0.0581,-0.0339,0.7150,$GPGGA,210909.600,4041.1588,N,07423.0769,W,2,07,1.29,131.6,M,-34.2,M,0000,0000*57
193,0,-1.41,0.15,0.36,1.81,-2.69,0.81,0.6954,0.0596,-0.0338,0.7153,$GPGGA,210909.700,4041.1596,N,07423.0757,W,2,07,1.29,131.6,M,-34.2,M,0000,0000*54
194,0,-1.24,0.17,1.44,2.56,-1.50,0.94,0.6948,0.0621,-0.0341,0.7158,$GPGGA,210909.800,4041.1604,N,07423.0746,W,2,07,1.30,131.5,M,-34.2,M,0000,0000*58
195,0,-0.89,0.55,1.46,0.88,-1.12,0.94,0.6940,0.0645,-0.0341,0.7162,$GPGGA,210909.900,4041.1612,N,07423.0734,W,2,07,1.29,131.4,M,-34.2,M,0000,0000*52
196,0,-1.08,-0.05,0.07,1.94,0.00,0.81,0.6934,0.0656,-0.0337,0.7167,$GPGGA,210910.000,4041.1620,N,07423.0723,W,2,07,1.29,131.3,M,-34.2,M,0000,0000*53
197,0,-1.52,0.37,-0.67,1.00,0.62,0.81,0.6931,0.0659,-0.0327,0.7171,$GPGGA,210910.100,4041.1628,N,07423.0712,W,2,07,1.16,131.2,M,-34.2,M,0000,0000*55
198,0,-0.79,-0.01,1.42,2.19,1.00,0.81,0.6925,0.0670,-0.0313,0.7176,$GPGGA,210910.200,4041.1636,N,07423.0700,W,2,07,1.29,131.2,M,-34.2,M,0000,0000*56
199,0,-1.28,0.65,0.03,0.94,-3.00,1.44,0.6917,0.0688,-0.0311,0.7183,$GPGGA,210910.400,4041.1652,N,07423.0677,W,2,07,1.16,131.0,M,-34.2,M,0000,0000*5D
200,0,-1.51,0.87,-0.80,-0.88,-2.69,1.44,0.6909,0.0688,-0.0297,0.7191,$GPGGA,210910.400,4041.1652,N,07423.0677,W,2,07,1.16,131.0,M,-34.2,M,0000,0000*5D
201,0,-1.45,0.39,-0.11,-0.50,-0.25,0.94,0.6902,0.0689,-0.0303,0.7196,$GPGGA,210910.500,4041.1660,N,07423.0666,W,2,07,1.16,131.0,M,-34.2,M,0000,0000*5D
202,0,-1.22,0.17,0.69,-2.50,-3.19,0.88,0.6897,0.0695,-0.0322,0.7200,$GPGGA,210910.600,4041.1667,N,07423.0654,W,2,07,1.16,130.9,M,-34.2,M,0000,0000*50
203,0,-1.20,1.03,1.55,-0.37,-3.75,0.94,0.6891,0.0705,-0.0342,0.7204,$GPGGA,210910.800,4041.1683,N,07423.0632,W,2,07,1.16,130.7,M,-34.2,M,0000,0000*5A
204,0,-1.35,0.15,-0.23,-0.62,-2.00,1.06,0.6885,0.0717,-0.0351,0.7208,$GPGGA,210910.900,4041.1690,N,07423.0621,W,2,07,1.16,130.7,M,-34.2,M,0000,0000*5B
205,0,-1.20,-0.14,1.06,2.19,1.31,0.94,0.6878,0.0727,-0.0358,0.7214,$GPGGA,210911.000,4041.1698,N,07423.0609,W,2,07,1.29,130.6,M,-34.2,M,0000,0000*5C
206,0,-1.39,0.83,0.62,0.75,-0.56,0.81,0.6873,0.0735,-0.0358,0.7217,$GPGGA,210911.100,4041.1706,N,07423.0598,W,2,07,1.29,130.5,M,-34.2,M,0000,0000*53
207,0,-1.83,1.88,0.00,1.00,-4.37,0.62,0.6870,0.0743,-0.0359,0.7219,$GPGGA,210911.200,4041.1714,N,07423.0588,W,2,07,1.30,130.4,M,-34.2,M,0000,0000*5B
208,0,-1.57,1.39,0.42,0.19,-1.37,0.75,0.6868,0.0751,-0.0363,0.7221,$GPGGA,210911.300,4041.1722,N,07423.0576,W,2,07,1.29,130.4,M,-34.2,M,0000,0000*56
209,0,-1.40,0.04,0.55,-0.81,-0.37,0.44,0.6866,0.0756,-0.0367,0.7222,$GPGGA,210911.400,4041.1729,N,07423.0565,W,2,07,1.16,130.3,M,-34.2,M,0000,0000*53
210,0,-1.11,-0.05,1.37,0.88,-2.19,0.31,0.6865,0.0767,-0.0373,0.7220,$GPGGA,210911.500,4041.1737,N,07423.0554,W,2,07,1.16,130.2,M,-34.2,M,0000,0000*5E
211,0,-1.27,-0.13,0.40,2.12,1.12,0.13,0.6865,0.0778,-0.0375,0.7220,$GPGGA,210911.600,4041.1745,N,07423.0543,W,2,07,1.16,130.2,M,-34.2,M,0000,0000*5E
212,0,-1.44,0.77,0.57,1.19,0.31,-0.13,0.6863,0.0786,-0.0365,0.7221,$GPGGA,210911.700,4041.1753,N,07423.0532,W,2,07,1.16,130.1,M,-34.2,M,0000,0000*5D
213,0,-1.12,-0.48,0.27,-0.37,-1.06,-0.13,0.6863,0.0790,-0.0354,0.7222,$GPGGA,210911.800,4041.1761,N,07423.0521,W,2,07,1.16,130.0,M,-34.2,M,0000,0000*50
214,0,-1.59,0.13,-0.12,2.06,0.06,-0.25,0.6862,0.0799,-0.0351,0.7222,$GPGGA,210911.900,4041.1769,N,07423.0510,W,2,07,1.29,130.0,M,-34.2,M,0000,0000*57
215,0,-1.13,0.20,0.36,0.56,0.81,-0.19,0.6862,0.0803,-0.0347,0.7222,$GPGGA,210911.900,4041.1769,N,07423.0510,W,2,07,1.29,130.0,M,-34.2,M,0000,0000*57
216,0,-1.81,0.86,-0.56,-2.25,0.06,-0.19,0.6862,0.0797,-0.0340,0.7222,$GPGGA,210912.000,4041.1777,N,07423.0499,W,2,07,1.29,129.9,M,-34.2,M,0000,0000*53
217,0,-1.11,0.37,0.40,-0.69,-2.50,0.00,0.6862,0.0794,-0.0345,0.7222,$GPGGA,210912.200,4041.1793,N,07423.0478,W,2,07,1.29,129.8,M,-34.2,M,0000,0000*55
218,0,-1.01,0.19,0.77,-0.37,-0.19,0.25,0.6865,0.0780,-0.0330,0.7222,$GPGGA,210912.300,4041.1801,N,07423.0467,W,2,07,1.29,129.7,M,-34.2,M,0000,0000*51
219,0,-1.98,0.88,-0.83,-0.31,5.12,0.94,0.6862,0.0768,-0.0323,0.7226,$GPGGA,210912.400,4041.1809,N,07423.0456,W,2,07,1.16,129.7,M,-34.2,M,0000,0000*50
220,0,-1.70,1.42,-1.24,-1.94,3.81,1.37,0.6855,0.0752,-0.0314,0.7235,$GPGGA,210912.500,4041.1817,N,07423.0446,W,2,07,1.16,129.6,M,-34.2,M,0000,0000*5E
221,0,-1.21,1.60,0.31,-0.31,0.56,1.12,0.6850,0.0729,-0.0309,0.7242,$GPGGA,210912.600,4041.1825,N,07423.0435,W,2,07,1.29,129.6,M,-34.2,M,0000,0000*54
222,0,-1.86,0.89,-0.24,-1.50,1.31,0.19,0.6850,0.0716,-0.0317,0.7244,$GPGGA,210912.700,4041.1833,N,07423.0424,W,2,07,1.16,129.5,M,-34.2,M,0000,0000*5D
223,0,-1.59,0.50,0.78,-2.12,0.37,0.19,0.6851,0.0713,-0.0341,0.7242,$GPGGA,210912.800,4041.1841,N,07423.0413,W,2,07,1.16,129.4,M,-34.2,M,0000,0000*52
224,0,-1.50,-0.36,0.06,-1.75,-1.94,0.25,0.6851,0.0706,-0.0352,0.7241,$GPGGA,210912.900,4041.1849,N,07423.0402,W,2,07,1.16,129.4,M,-34.2,M,0000,0000*5B
225,0,-1.07,0.77,0.63,1.06,0.06,0.56,0.6851,0.0706,-0.0361,0.7241,$GPGGA,210913.000,4041.1857,N,07423.0392,W,2,07,1.29,129.3,M,-34.2,M,0000,0000*59
226,0,-1.49,0.39,0.05,-1.12,0.37,0.37,0.6852,0.0695,-0.0352,0.7242,$GPGGA,210913.100,4041.1864,N,07423.0382,W,2,07,1.16,129.3,M,-34.2,M,0000,0000*55
227,0,-0.96,-0.23,0.69,-1.37,-1.87,0.50,0.6852,0.0688,-0.0357,0.7242,$GPGGA,210913.200,4041.1873,N,07423.0371,W,2,07,1.16,129.2,M,-34.2,M,0000,0000*5D
228,0,-1.05,0.47,0.78,0.19,2.12,0.44,0.6853,0.0679,-0.0355,0.7242,$GPGGA,210913.300,4041.1881,N,07423.0361,W,2,07,1.29,129.1,M,-34.2,M,0000,0000*5F
229,0,-1.33,0.73,0.20,-1.12,2.25,0.25,0.6855,0.0662,-0.0338,0.7242,$GPGGA,210913.400,4041.1889,N,07423.0351,W,2,07,1.16,129.1,M,-34.2,M,0000,0000*5F
230,0,-1.00,-0.03,1.56,-2.37,-3.31,0.06,0.6855,0.0659,-0.0344,0.7242,$GPGGA,210913.500,4041.1897,N,07423.0340,W,2,07,1.16,129.0,M,-34.2,M,0000,0000*50
231,0,-1.03,0.67,1.18,1.81,-0.50,0.19,0.6855,0.0659,-0.0347,0.7242,$GPGGA,210913.500,4041.1897,N,07423.0340,W,2,07,1.16,129.0,M,-34.2,M,0000,0000*50
232,0,-1.43,1.00,-0.08,4.12,0.94,0.37,0.6855,0.0667,-0.0332,0.7243,$GPGGA,210913.600,4041.1905,N,07423.0330,W,2,07,1.16,129.0,M,-34.2,M,0000,0000*5E
233,0,-1.22,0.03,-0.30,3.25,0.50,0.62,0.6852,0.0683,-0.0307,0.7245,$GPGGA,210913.800,4041.1921,N,07423.0307,W,2,07,1.29,128.9,M,-34.2,M,0000,0000*56
234,0,-1.30,0.98,-0.43,2.75,0.37,0.69,0.6847,0.0695,-0.0283,0.7249,$GPGGA,210913.900,4041.1929,N,07423.0296,W,2,07,1.29,128.8,M,-34.2,M,0000,0000*57
235,0,-1.77,0.72,-1.91,1.12,4.25,0.37,0.6848,0.0687,-0.0239,0.7252,$GPGGA,210914.000,4041.1937,N,07423.0286,W,2,07,1.16,128.8,M,-34.2,M,0000,0000*5B
236,0,-0.98,0.11,-0.49,0.50,2.25,0.25,0.6848,0.0672,-0.0226,0.7253,$GPGGA,210914.100,4041.1944,N,07423.0275,W,2,07,1.29,128.7,M,-34.2,M,0000,0000*51
237,0,-1.20,-0.51,0.75,-0.56,-1.37,0.44,0.6848,0.0664,-0.0232,0.7253,$GPGGA,210914.200,4041.1952,N,07423.0264,W,2,07,1.29,128.7,M,-34.2,M,0000,0000*55
238,0,-1.29,-0.02,0.63,-1.44,0.13,0.94,0.6845,0.0672,-0.0247,0.7255,$GPGGA,210914.200,4041.1952,N,07423.0264,W,2,07,1.29,128.7,M,-34.2,M,0000,0000*55
239,0,-0.92,0.25,0.92,-0.88,-0.31,1.37,0.6837,0.0673,-0.0254,0.7262,$GPGGA,210914.300,4041.1960,N,07423.0254,W,2,07,1.29,128.6,M,-34.2,M,0000,0000*57
240,0,-1.07,0.47,0.71,-0.75,-2.06,1.12,0.6830,0.0667,-0.0258,0.7269,$GPGGA,210914.400,4041.1968,N,07423.0243,W,2,07,1.16,128.6,M,-34.2,M,0000,0000*52
241,0,-1.33,1.44,0.06,-0.25,3.44,0.75,0.6824,0.0660,-0.0262,0.7275,$GPGGA,210914.500,4041.1976,N,07423.0233,W,2,07,1.16,128.5,M,-34.2,M,0000,0000*58
242,0,-1.31,0.72,0.16,-0.88,2.69,0.56,0.6821,0.0645,-0.0262,0.7279,$GPGGA,210914.600,4041.1984,N,07423.0222,W,2,07,1.29,128.5,M,-34.2,M,0000,0000*5A
243,0,-1.41,0.79,-0.46,-1.31,-0.19,0.50,0.6824,0.0621,-0.0241,0.7280,$GPGGA,210914.700,4041.1992,N,07423.0212,W,2,07,1.30,128.4,M,-34.2,M,0000,0000*56
244,0,-0.98,0.17,-0.51,-3.62,0.44,0.13,0.6824,0.0609,-0.0255,0.7280,$GPGGA,210914.800,4041.2000,N,07423.0201,W,2,07,1.29,128.4,M,-34.2,M,0000,0000*52
245,0,-1.21,0.30,-0.13,-4.44,0.81,-0.25,0.6827,0.0589,-0.0280,0.7278,$GPGGA,210915.000,4041.2016,N,07423.0180,W,2,07,1.30,128.3,M,-34.2,M,0000,0000*59
246,0,-0.84,-0.16,0.87,-2.62,-0.37,-0.06,0.6828,0.0568,-0.0303,0.7277,$GPGGA,210915.100,4041.2025,N,07423.0169,W,2,07,1.29,128.2,M,-34.2,M,0000,0000*56
247,0,-0.85,0.44,0.35,0.81,1.87,0.31,0.6829,0.0555,-0.0304,0.7278,$GPGGA,210915.200,4041.2033,N,07423.0158,W,2,07,1.30,128.2,M,-34.2,M,0000,0000*58
248,0,-1.06,-0.18,-0.84,0.69,3.44,0.19,0.6830,0.0544,-0.0296,0.7278,$GPGGA,210915.300,4041.2041,N,07423.0147,W,2,07,1.29,128.2,M,-34.2,M,0000,0000*5A
249,0,-1.10,-0.38,-0.96,-1.50,-0.13,0.00,0.6830,0.0531,-0.0273,0.7280,$GPGGA,210915.400,4041.2049,N,07423.0136,W,2,07,1.16,128.1,M,-34.2,M,0000,0000*5C
250,0,-0.86,0.96,-0.48,1.50,2.12,0.06,0.6830,0.0524,-0.0259,0.7281,$GPGGA,210915.500,4041.2057,N,07423.0126,W,2,07,1.16,128.1,M,-34.2,M,0000,0000*53
251,0,-1.07,0.71,0.56,2.37,0.06,0.06,0.6830,0.0519,-0.0258,0.7281,$GPGGA,210915.500,4041.2057,N,07423.0126,W,2,07,1.16,128.1,M,-34.2,M,0000,0000*53
252,0,-0.80,0.83,-0.02,3.69,-3.69,0.19,0.6829,0.0541,-0.0253,0.7281,$GPGGA,210915.600,4041.2065,N,07423.0115,W,2,07,1.16,128.0,M,-34.2,M,0000,0000*50
253,0,-1.44,0.27,-1.90,2.87,-1.25,0.31,0.6827,0.0565,-0.0242,0.7281,$GPGGA,210915.700,4041.2073,N,07423.0104,W,2,07,1.29,128.0,M,-34.2,M,0000,0000*5A
254,0,-0.78,0.85,1.33,2.31,4.56,-0.06,0.6826,0.0584,-0.0237,0.7280,$GPGGA,210915.800,4041.2081,N,07423.0093,W,2,07,1.29,127.9,M,-34.2,M,0000,0000*51
255,0,-1.15,0.16,-0.45,-1.06,-0.88,-0.19,0.6826,0.0586,-0.0242,0.7280,$GPGGA,210915.900,4041.2089,N,07423.0082,W,2,07,1.16,127.9,M,-34.2,M,0000,0000*54
256,0,-0.64,-0.21,0.07,-2.06,-0.69,-0.25,0.6827,0.0574,-0.0245,0.7280,$GPGGA,210916.000,4041.2098,N,07423.0071,W,2,07,1.30,127.9,M,-34.2,M,0000,0000*56
257,0,-0.92,0.74,-0.71,-0.62,4.87,-0.31,0.6830,0.0535,-0.0223,0.7281,$GPGGA,210916.100,4041.2106,N,07423.0061,W,2,07,1.30,127.8,M,-34.2,M,0000,0000*51
258,0,-0.99,0.13,-0.34,-0.94,1.50,0.31,0.6831,0.0519,-0.0222,0.7281,$GPGGA,210916.200,4041.2114,N,07423.0050,W,2,07,1.30,127.8,M,-34.2,M,0000,0000*53
259,0,-1.06,0.39,-0.03,-0.50,0.25,0.88,0.6831,0.0494,-0.0174,0.7285,$GPGGA,210916.300,4041.2122,N,07423.0039,W,2,07,1.29,127.7,M,-34.2,M,0000,0000*5F
260,0,-0.71,0.31,0.18,1.81,2.62,1.62,0.6823,0.0494,-0.0159,0.7292,$GPGGA,210916.400,4041.2130,N,07423.0028,W,2,07,1.16,127.7,M,-34.2,M,0000,0000*57
261,0,-0.98,0.98,-0.09,-0.75,2.75,1.44,0.6813,0.0488,-0.0149,0.7302,$GPGGA,210916.500,4041.2139,N,07423.0016,W,2,07,1.16,127.7,M,-34.2,M,0000,0000*52
262,0,-1.29,1.23,-0.21,-2.06,-0.31,1.31,0.6805,0.0475,-0.0154,0.7310,$GPGGA,210916.600,4041.2147,N,07423.0005,W,2,07,1.29,127.6,M,-34.2,M,0000,0000*57
263,0,-0.48,0.72,0.33,-2.37,-0.06,1.12,0.6800,0.0458,-0.0174,0.7316,$GPGGA,210916.700,4041.2155,N,07422.9994,W,2,07,1.30,127.6,M,-34.2,M,0000,0000*54
264,0,-0.82,0.31,-0.41,-3.25,2.87,1.19,0.6794,0.0436,-0.0190,0.7322,$GPGGA,210916.800,4041.2163,N,07422.9983,W,2,07,1.29,127.5,M,-34.2,M,0000,0000*53
265,0,-1.01,0.87,-0.40,-3.94,1.37,1.37,0.6788,0.0413,-0.0181,0.7330,$GPGGA,210916.900,4041.2171,N,07422.9972,W,2,07,1.30,127.5,M,-34.2,M,0000,0000*57
266,0,-0.74,0.95,-0.18,-0.94,0.25,1.25,0.6780,0.0388,-0.0184,0.7338,$GPGGA,210917.000,4041.2180,N,07422.9961,W,2,07,1.30,127.4,M,-34.2,M,0000,0000*52
267,0,-0.97,0.35,-0.42,1.81,0.88,1.00,0.6774,0.0379,-0.0181,0.7344,$GPGGA,210917.100,4041.2188,N,07422.9951,W,2,07,1.29,127.4,M,-34.2,M,0000,0000*50
268,0,-1.06,0.91,0.66,3.12,-0.75,1.31,0.6766,0.0396,-0.0172,0.7350,$GPGGA,210917.200,4041.2196,N,07422.9940,W,2,07,1.29,127.3,M,-34.2,M,0000,0000*5B
269,0,-0.97,0.19,1.60,1.75,-2.94,1.06,0.6757,0.0428,-0.0167,0.7357,$GPGGA,210917.300,4041.2205,N,07422.9928,W,2,07,1.29,127.3,M,-34.2,M,0000,0000*5D
270,0,-0.89,0.58,0.36,-1.44,-1.12,-0.13,0.6755,0.0433,-0.0166,0.7360,$GPGGA,210917.400,4041.2213,N,07422.9917,W,2,07,1.16,127.2,M,-34.2,M,0000,0000*5C
271,0,-0.78,0.42,0.50,-0.81,1.44,-0.88,0.6758,0.0419,-0.0171,0.7357,$GPGGA,210917.500,4041.2221,N,07422.9906,W,2,07,1.29,127.1,M,-34.2,M,0000,0000*53
272,0,-1.01,0.57,-0.52,-4.75,2.50,-1.25,0.6767,0.0386,-0.0180,0.7350,$GPGGA,210917.600,4041.2230,N,07422.9895,W,2,07,1.29,127.1,M,-34.2,M,0000,0000*5B
273,0,-1.07,-0.11,-0.05,-3.69,-1.75,-1.06,0.6776,0.0357,-0.0197,0.7343,$GPGGA,210917.700,4041.2238,N,07422.9884,W,2,07,1.30,127.0,M,-34.2,M,0000,0000*5B
274,0,-1.17,-0.56,1.23,-1.00,-4.56,-0.88,0.6781,0.0363,-0.0217,0.7337,$GPGGA,210917.900,4041.2255,N,07422.9862,W,2,07,1.30,126.9,M,-34.2,M,0000,0000*5E
275,0,-0.59,-0.40,0.75,1.37,-1.81,-0.44,0.6783,0.0383,-0.0222,0.7334,$GPGGA,210918.000,4041.2263,N,07422.9851,W,2,07,1.30,126.8,M,-34.2,M,0000,0000*5C
276,0,-0.64,0.60,0.37,1.94,4.19,-0.62,0.6786,0.0388,-0.0212,0.7332,$GPGGA,210918.000,4041.2263,N,07422.9851,W,2,07,1.30,126.8,M,-34.2,M,0000,0000*5C
277,0,-0.60,-0.15,-0.76,1.25,1.19,-1.00,0.6791,0.0384,-0.0195,0.7328,$GPGGA,210918.200,4041.2280,N,07422.9829,W,2,07,1.29,126.7,M,-34.2,M,0000,0000*5B
278,0,-0.82,-0.73,0.23,1.12,0.13,-0.50,0.6795,0.0386,-0.0186,0.7324,$GPGGA,210918.300,4041.2288,N,07422.9818,W,2,07,1.30,126.6,M,-34.2,M,0000,0000*59
279,0,-0.78,-0.18,0.23,1.00,2.19,-0.31,0.6796,0.0390,-0.0177,0.7324,$GPGGA,210918.400,4041.2296,N,07422.9807,W,2,07,1.16,126.5,M,-34.2,M,0000,0000*58
280,0,-0.22,-0.52,0.75,2.81,2.06,-0.13,0.6796,0.0389,-0.0165,0.7324,$GPGGA,210918.500,4041.2305,N,07422.9796,W,2,07,1.16,126.5,M,-34.2,M,0000,0000*55
281,0,-0.95,-0.30,-0.14,0.44,1.44,-0.19,0.6796,0.0386,-0.0152,0.7325,$GPGGA,210918.600,4041.2313,N,07422.9784,W,2,07,1.30,126.4,M,-34.2,M,0000,0000*57
282,0,-0.84,0.00,0.18,0.62,-0.81,0.06,0.6795,0.0391,-0.0143,0.7325,$GPGGA,210918.700,4041.2322,N,07422.9773,W,2,07,1.30,126.3,M,-34.2,M,0000,0000*5B
283,0,-0.73,-0.28,-0.44,-3.12,-2.87,-0.25,0.6795,0.0393,-0.0157,0.7324,$GPGGA,210918.800,4041.2330,N,07422.9762,W,2,07,1.29,126.3,M,-34.2,M,0000,0000*5F
284,0,-0.52,0.27,0.71,-3.56,0.88,-0.56,0.6796,0.0386,-0.0176,0.7324,$GPGGA,210918.900,4041.2339,N,07422.9751,W,2,07,1.30,126.2,M,-34.2,M,0000,0000*5E
285,0,-0.47,0.44,-0.28,-0.06,-1.50,-0.13,0.6796,0.0370,-0.0181,0.7324,$GPGGA,210919.000,4041.2347,N,07422.9740,W,2,07,1.29,126.1,M,-34.2,M,0000,0000*54
286,0,-0.78,-0.70,-0.07,0.37,0.00,-0.13,0.6797,0.0361,-0.0185,0.7324,$GPGGA,210919.100,4041.2356,N,07422.9729,W,2,07,1.30,126.0,M,-34.2,M,0000,0000*53
287,0,-0.88,-0.12,-0.27,2.81,2.06,0.00,0.6797,0.0364,-0.0172,0.7324,$GPGGA,210919.100,4041.2356,N,07422.9729,W,2,07,1.30,126.0,M,-34.2,M,0000,0000*53
288,0,-0.99,-0.24,0.75,1.94,-0.62,0.13,0.6796,0.0375,-0.0157,0.7325,$GPGGA,210919.200,4041.2364,N,07422.9718,W,2,07,1.30,126.0,M,-34.2,M,0000,0000*53
289,0,-0.79,0.09,1.37,1.69,-2.94,0.06,0.6795,0.0397,-0.0143,0.7325,$GPGGA,210919.300,4041.2373,N,07422.9707,W,2,07,1.30,125.9,M,-34.2,M,0000,0000*50
290,0,-1.16,0.49,-0.52,0.31,-0.31,0.00,0.6794,0.0406,-0.0129,0.7325,$GPGGA,210919.400,4041.2381,N,07422.9695,W,2,07,1.30,125.8,M,-34.2,M,0000,0000*51
291,0,-0.86,0.00,-0.33,-1.56,1.44,-0.50,0.6794,0.0400,-0.0122,0.7325,$GPGGA,210919.500,4041.2389,N,07422.9684,W,2,07,1.16,125.7,M,-34.2,M,0000,0000*53
292,0,-0.82,0.02,0.40,-1.75,-0.31,-1.12,0.6799,0.0403,-0.0129,0.7321,$GPGGA,210919.600,4041.2398,N,07422.9672,W,2,07,1.30,125.6,M,-34.2,M,0000,0000*5C
293,0,-1.10,-0.33,-0.46,-3.56,-1.00,-1.25,0.6807,0.0387,-0.0144,0.7314,$GPGGA,210919.700,4041.2406,N,07422.9661,W,2,07,1.29,125.5,M,-34.2,M,0000,0000*54
294,0,-0.01,-1.01,0.36,-7.37,-5.75,-1.62,0.6816,0.0360,-0.0157,0.7307,$GPGGA,210919.800,4041.2415,N,07422.9649,W,2,07,1.30,125.3,M,-34.2,M,0000,0000*5D
295,0,-0.77,0.87,-1.60,0.56,-2.87,-0.94,0.6824,0.0350,-0.0175,0.7299,$GPGGA,210919.900,4041.2423,N,07422.9638,W,2,07,1.30,125.2,M,-34.2,M,0000,0000*5E
296,0,-0.72,-0.82,0.30,-0.44,-1.50,-0.31,0.6827,0.0355,-0.0184,0.7296,$GPGGA,210920.000,4041.2432,N,07422.9627,W,2,07,1.30,125.1,M,-34.2,M,0000,0000*50
297,0,-1.14,-0.87,1.41,-1.19,-1.31,-0.50,0.6829,0.0347,-0.0189,0.7295,$GPGGA,210920.100,4041.2441,N,07422.9616,W,2,07,1.30,125.0,M,-34.2,M,0000,0000*56
298,0,-0.77,-0.06,0.29,-2.62,-1.75,-0.56,0.6829,0.0352,-0.0201,0.7294,$GPGGA,210920.200,4041.2450,N,07422.9604,W,2,07,1.30,124.9,M,-34.2,M,0000,0000*5E
299,0,-1.00,0.13,-1.32,-2.44,0.19,-0.75,0.6830,0.0336,-0.0201,0.7293,$GPGGA,210920.300,4041.2459,N,07422.9593,W,2,07,1.30,124.8,M,-34.2,M,0000,0000*5A
300,0,-1.24,-0.05,0.20,-0.69,-0.50,-0.50,0.6833,0.0325,-0.0203,0.7291,$GPGGA,210920.400,4041.2468,N,07422.9582,W,2,07,1.16,125.1,M,-34.2,M,0000,0000*53
301,0,-1.14,-0.30,-0.91,-0.88,1.56,-0.62,0.6835,0.0281,-0.0183,0.7292,$GPGGA,210920.500,4041.2477,N,07422.9571,W,2,07,1.30,125.0,M,-34.2,M,0000,0000*55
302,0,-1.36,0.21,-0.17,1.37,1.94,-0.50,0.6835,0.0278,-0.0181,0.7291,$GPGGA,210920.600,4041.2485,N,07422.9559,W,2,07,1.30,124.9,M,-34.2,M,0000,0000*59
303,0,-0.82,-0.25,1.08,-0.62,-0.06,-0.69,0.6837,0.0286,-0.0175,0.7291,$GPGGA,210920.700,4041.2494,N,07422.9548,W,2,07,1.30,124.8,M,-34.2,M,0000,0000*59
304,0,-1.08,-0.49,0.09,0.13,-2.56,-0.56,0.6835,0.0308,-0.0171,0.7291,$GPGGA,210920.800,4041.2502,N,07422.9536,W,2,07,1.30,124.7,M,-34.2,M,0000,0000*5E
305,0,-1.11,0.70,-0.35,2.81,-1.06,0.00,0.6835,0.0319,-0.0165,0.7291,$GPGGA,210920.900,4041.2511,N,07422.9525,W,2,07,1.30,124.7,M,-34.2,M,0000,0000*5F
306,0,-0.73,0.01,0.49,0.81,-0.13,-0.13,0.6835,0.0332,-0.0165,0.7290,$GPGGA,210921.000,4041.2519,N,07422.9513,W,2,07,1.30,124.6,M,-34.2,M,0000,0000*5B
307,0,-1.22,0.37,-0.82,0.25,0.44,0.13,0.6835,0.0334,-0.0163,0.7290,$GPGGA,210921.100,4041.2528,N,07422.9502,W,2,07,1.30,124.5,M,-34.2,M,0000,0000*5B
308,0,-0.52,0.02,0.54,-1.94,-1.94,-0.06,0.6835,0.0326,-0.0146,0.7291,$GPGGA,210921.200,4041.2537,N,07422.9490,W,2,07,1.30,124.4,M,-34.2,M,0000,0000*5D
309,0,-1.01,0.04,0.23,2.06,-0.81,-0.06,0.6835,0.0329,-0.0138,0.7291,$GPGGA,210921.300,4041.2545,N,07422.9479,W,2,07,1.30,124.3,M,-34.2,M,0000,0000*59
310,0,-0.92,0.83,-0.28,2.62,-2.37,0.13,0.6835,0.0334,-0.0125,0.7291,$GPGGA,210921.400,4041.2554,N,07422.9468,W,2,07,1.30,124.3,M,-34.2,M,0000,0000*5E
311,0,-0.76,0.60,0.86,-0.37,0.06,-0.13,0.6835,0.0340,-0.0129,0.7291,$GPGGA,210921.500,4041.2562,N,07422.9457,W,2,07,1.30,124.2,M,-34.2,M,0000,0000*57
312,0,-0.77,-0.30,0.80,1.50,0.19,-0.37,0.6835,0.0355,-0.0121,0.7291,$GPGGA,210921.600,4041.2571,N,07422.9445,W,2,07,1.30,124.1,M,-34.2,M,0000,0000*56
313,0,-1.38,0.71,-0.53,1.19,-4.25,-0.13,0.6833,0.0374,-0.0114,0.7290,$GPGGA,210921.700,4041.2579,N,07422.9434,W,2,07,1.29,124.0,M,-34.2,M,0000,0000*50
314,0,-0.41,0.01,1.40,-0.06,-4.19,0.13,0.6834,0.0374,-0.0104,0.7290,$GPGGA,210921.800,4041.2588,N,07422.9423,W,2,07,1.16,123.9,M,-34.2,M,0000,0000*55
315,0,-1.06,0.33,0.37,-1.37,-1.37,0.00,0.6835,0.0367,-0.0092,0.7289,$GPGGA,210921.900,4041.2596,N,07422.9412,W,2,07,1.30,123.8,M,-34.2,M,0000,0000*5C
316,0,-0.41,0.00,1.08,-0.69,2.06,-0.13,0.6835,0.0370,-0.0101,0.7289,$GPGGA,210922.000,4041.2605,N,07422.9401,W,2,07,1.30,123.7,M,-34.2,M,0000,0000*52
317,0,-0.93,0.92,0.39,-2.12,-1.44,-0.06,0.6835,0.0374,-0.0120,0.7289,$GPGGA,210922.100,4041.2613,N,07422.9390,W,2,07,1.30,123.7,M,-34.2,M,0000,0000*5B
318,0,-0.98,0.65,0.75,-2.06,1.87,0.13,0.6836,0.0363,-0.0139,0.7288,$GPGGA,210922.200,4041.2622,N,07422.9378,W,2,07,1.30,123.6,M,-34.2,M,0000,0000*5D
319,0,-1.05,0.56,-0.91,2.00,2.69,0.31,0.6836,0.0360,-0.0140,0.7288,$GPGGA,210922.300,4041.2630,N,07422.9367,W,2,07,1.30,123.5,M,-34.2,M,0000,0000*52
320,0,-0.31,-0.18,1.11,-0.56,2.94,0.31,0.6836,0.0364,-0.0143,0.7288,$GPGGA,210922.400,4041.2639,N,07422.9356,W,2,07,1.16,123.4,M,-34.2,M,0000,0000*5B
321,0,-0.95,0.29,0.79,1.44,-0.56,0.25,0.6836,0.0375,-0.0147,0.7288,$GPGGA,210922.500,4041.2647,N,07422.9344,W,2,07,1.16,123.6,M,-34.2,M,0000,0000*52
322,0,-0.84,0.33,0.25,-1.62,-1.87,0.00,0.6837,0.0367,-0.0145,0.7288,$GPGGA,210922.600,4041.2655,N,07422.9333,W,2,07,1.30,123.6,M,-34.2,M,0000,0000*56
323,0,-0.97,0.15,0.11,0.44,0.06,0.00,0.6837,0.0364,-0.0147,0.7288,$GPGGA,210922.700,4041.2664,N,07422.9321,W,2,07,1.30,123.5,M,-34.2,M,0000,0000*55
324,0,-0.82,0.24,-0.44,-1.69,0.13,-0.06,0.6837,0.0353,-0.0135,0.7288,$GPGGA,210922.800,4041.2672,N,07422.9310,W,2,07,1.30,123.4,M,-34.2,M,0000,0000*5E
325,0,-0.42,0.04,0.86,-0.50,-0.13,0.19,0.6837,0.0358,-0.0131,0.7288,$GPGGA,210922.900,4041.2681,N,07422.9299,W,2,07,1.29,123.3,M,-34.2,M,0000,0000*5C
326,0,-0.94,0.22,0.22,-0.19,-2.06,0.06,0.6837,0.0363,-0.0131,0.7288,$GPGGA,210923.000,4041.2689,N,07422.9287,W,2,07,1.30,123.2,M,-34.2,M,0000,0000*5A
327,0,-0.73,0.34,-0.02,-0.44,-1.62,0.06,0.6837,0.0362,-0.0141,0.7287,$GPGGA,210923.100,4041.2697,N,07422.9276,W,2,07,1.30,123.1,M,-34.2,M,0000,0000*59
328,0,-0.82,-0.25,0.18,0.81,-1.25,0.06,0.6837,0.0365,-0.0151,0.7286,$GPGGA,210923.200,4041.2706,N,07422.9264,W,2,07,1.30,123.0,M,-34.2,M,0000,0000*51
329,0,-0.70,0.25,0.42,1.31,-3.12,0.25,0.6837,0.0374,-0.0153,0.7286,$GPGGA,210923.300,4041.2714,N,07422.9253,W,2,07,1.30,122.9,M,-34.2,M,0000,0000*5F
330,0,-0.36,0.57,0.41,0.00,-2.69,0.25,0.6837,0.0386,-0.0158,0.7286,$GPGGA,210923.400,4041.2723,N,07422.9242,W,2,07,1.16,122.9,M,-34.2,M,0000,0000*58
331,0,-0.65,0.17,0.02,-0.25,-0.62,0.19,0.6837,0.0392,-0.0159,0.7286,$GPGGA,210923.500,4041.2731,N,07422.9230,W,2,07,1.16,122.8,M,-34.2,M,0000,0000*5E
332,0,-1.24,0.17,-0.17,1.81,3.81,-0.06,0.6836,0.0395,-0.0151,0.7286,$GPGGA,210923.600,4041.2739,N,07422.9219,W,2,07,1.30,122.7,M,-34.2,M,0000,0000*55
333,0,-0.75,0.68,0.26,2.56,-0.06,0.13,0.6837,0.0394,-0.0134,0.7286,$GPGGA,210923.700,4041.2748,N,07422.9208,W,2,07,1.30,122.6,M,-34.2,M,0000,0000*53
334,0,-0.85,0.87,0.06,2.12,-1.00,0.25,0.6837,0.0403,-0.0144,0.7286,$GPGGA,210923.800,4041.2756,N,07422.9197,W,2,07,1.30,122.5,M,-34.2,M,0000,0000*55
335,0,-0.61,-0.30,-0.15,-1.50,-2.87,0.06,0.6836,0.0412,-0.0151,0.7285,$GPGGA,210923.900,4041.2765,N,07422.9185,W,2,07,1.30,122.5,M,-34.2,M,0000,0000*57
336,0,-0.39,-0.28,0.38,-0.69,-1.06,-0.19,0.6837,0.0413,-0.0154,0.7285,$GPGGA,210924.000,4041.2773,N,07422.9174,W,2,07,1.30,122.4,M,-34.2,M,0000,0000*51
337,0,-0.58,0.67,0.32,1.44,-0.75,0.31,0.6836,0.0411,-0.0146,0.7285,$GPGGA,210924.100,4041.2782,N,07422.9163,W,2,07,1.30,122.3,M,-34.2,M,0000,0000*5F
338,0,-0.99,0.19,0.00,1.62,0.81,0.19,0.6836,0.0417,-0.0141,0.7285,$GPGGA,210924.300,4041.2798,N,07422.9141,W,2,07,1.30,122.2,M,-34.2,M,0000,0000*57
339,0,-0.40,0.12,0.59,1.94,-3.50,0.25,0.6835,0.0438,-0.0134,0.7285,$GPGGA,210924.400,4041.2806,N,07422.9130,W,2,07,1.16,122.1,M,-34.2,M,0000,0000*59
340,0,-0.61,-0.42,1.67,0.56,-1.56,0.13,0.6834,0.0448,-0.0126,0.7285,$GPGGA,210924.400,4041.2806,N,07422.9130,W,2,07,1.16,122.1,M,-34.2,M,0000,0000*59
341,0,-0.69,0.21,1.18,0.88,-2.12,0.13,0.6834,0.0457,-0.0137,0.7285,$GPGGA,210924.500,4041.2815,N,07422.9119,W,2,07,1.30,122.1,M,-34.2,M,0000,0000*55
342,0,-0.63,0.13,-0.13,-1.62,0.00,-0.25,0.6835,0.0458,-0.0149,0.7284,$GPGGA,210924.600,4041.2823,N,07422.9108,W,2,07,1.30,122.0,M,-34.2,M,0000,0000*52
343,0,-0.74,-0.57,-0.15,-0.75,0.31,-0.19,0.6835,0.0453,-0.0146,0.7285,$GPGGA,210924.700,4041.2831,N,07422.9097,W,2,07,1.30,122.0,M,-34.2,M,0000,0000*57
344,0,-0.46,-0.16,0.21,1.62,-0.56,0.13,0.6835,0.0454,-0.0148,0.7285,$GPGGA,210924.800,4041.2839,N,07422.9086,W,2,07,1.30,121.9,M,-34.2,M,0000,0000*5A
345,0,-0.50,0.02,0.56,1.75,-0.25,0.13,0.6835,0.0463,-0.0159,0.7283,$GPGGA,210924.900,4041.2847,N,07422.9075,W,2,07,1.30,121.9,M,-34.2,M,0000,0000*5E
346,0,-0.97,0.20,0.70,-0.62,0.50,-0.25,0.6834,0.0471,-0.0168,0.7283,$GPGGA,210925.000,4041.2855,N,07422.9064,W,2,07,1.30,121.8,M,-34.2,M,0000,0000*54
347,0,-1.12,-0.60,0.62,-1.75,-1.37,-0.25,0.6834,0.0475,-0.0176,0.7283,$GPGGA,210925.100,4041.2863,N,07422.9053,W,2,07,1.30,121.8,M,-34.2,M,0000,0000*54
348,0,-1.01,-0.13,0.27,-1.12,-1.69,-0.19,0.6835,0.0475,-0.0176,0.7282,$GPGGA,210925.200,4041.2871,N,07422.9043,W,2,07,1.30,121.8,M,-34.2,M,0000,0000*55
349,0,-0.86,0.21,-0.06,1.00,0.00,-0.56,0.6835,0.0478,-0.0182,0.7282,$GPGGA,210925.300,4041.2880,N,07422.9032,W,2,07,1.30,121.7,M,-34.2,M,0000,0000*53
350,0,-0.96,0.43,0.27,-0.75,0.50,-0.50,0.6838,0.0457,-0.0169,0.7281,$GPGGA,210925.400,4041.2888,N,07422.9021,W,2,07,1.16,121.7,M,-34.2,M,0000,0000*5A
351,0,-0.94,-0.26,-0.05,-1.87,-1.87,-0.75,0.6840,0.0453,-0.0173,0.7278,$GPGGA,210925.500,4041.2896,N,07422.9010,W,2,07,1.30,121.6,M,-34.2,M,0000,0000*53
352,0,-0.67,0.18,-1.09,-1.56,0.00,-1.00,0.6845,0.0449,-0.0178,0.7274,$GPGGA,210925.600,4041.2904,N,07422.8999,W,2,07,1.30,121.6,M,-34.2,M,0000,0000*53
353,0,-0.95,0.25,-0.88,-1.50,1.62,-1.31,0.6854,0.0436,-0.0191,0.7266,$GPGGA,210925.700,4041.2912,N,07422.8989,W,2,07,1.30,121.6,M,-34.2,M,0000,0000*54
354,0,-1.14,-1.49,-0.56,-1.75,-0.31,-1.87,0.6865,0.0426,-0.0199,0.7256,$GPGGA,210925.800,4041.2921,N,07422.8979,W,2,07,1.30,121.6,M,-34.2,M,0000,0000*54
355,0,-1.02,-0.54,0.53,2.31,-1.12,-1.31,0.6874,0.0424,-0.0202,0.7248,$GPGGA,210925.900,4041.2929,N,07422.8969,W,2,07,1.30,121.6,M,-34.2,M,0000,0000*5C
356,0,-0.50,-0.11,0.09,4.62,0.44,-0.88,0.6879,0.0436,-0.0186,0.7242,$GPGGA,210926.000,4041.2938,N,07422.8959,W,2,07,1.30,121.6,M,-34.2,M,0000,0000*55
357,0,-0.43,-1.44,-0.68,0.06,-0.50,-1.12,0.6885,0.0444,-0.0177,0.7236,$GPGGA,210926.100,4041.2946,N,07422.8949,W,2,07,1.30,121.6,M,-34.2,M,0000,0000*5C
358,0,-0.47,-0.82,0.27,-0.19,-1.44,-1.19,0.6893,0.0448,-0.0179,0.7228,$GPGGA,210926.200,4041.2954,N,07422.8939,W,2,07,1.30,121.6,M,-34.2,M,0000,0000*5B
359,0,-0.76,-0.52,-0.24,0.06,1.81,-1.00,0.6900,0.0449,-0.0173,0.7222,$GPGGA,210926.300,4041.2963,N,07422.8929,W,2,07,1.30,121.6,M,-34.2,M,0000,0000*5F
360,0,-0.72,0.06,-0.61,2.37,0.00,-0.37,0.6902,0.0457,-0.0167,0.7220,$GPGGA,210926.400,4041.2971,N,07422.8919,W,2,07,1.16,121.6,M,-34.2,M,0000,0000*5C
361,0,-0.76,-0.99,0.90,1.87,-1.37,0.50,0.6901,0.0476,-0.0162,0.7219,$GPGGA,210926.600,4041.2988,N,07422.8898,W,2,07,1.30,121.6,M,-34.2,M,0000,0000*54
362,0,-0.42,0.60,1.28,1.44,-1.25,0.25,0.6900,0.0495,-0.0159,0.7219,$GPGGA,210926.600,4041.2988,N,07422.8898,W,2,07,1.30,121.6,M,-34.2,M,0000,0000*54
363,0,-0.82,0.45,-0.04,1.19,1.25,0.13,0.6900,0.0499,-0.0146,0.7219,$GPGGA,210926.700,4041.2996,N,07422.8887,W,2,07,1.30,121.6,M,-34.2,M,0000,0000*54
364,0,-0.31,0.26,0.93,-1.06,-1.87,-0.06,0.6901,0.0502,-0.0142,0.7219,$GPGGA,210926.800,4041.3005,N,07422.8877,W,2,07,1.30,121.6,M,-34.2,M,0000,0000*56
365,0,-0.73,0.19,1.04,-0.88,1.69,0.06,0.6901,0.0493,-0.0147,0.7219,$GPGGA,210926.900,4041.3013,N,07422.8866,W,2,07,1.30,121.6,M,-34.2,M,0000,0000*50
366,0,-1.05,0.58,-0.36,-0.75,1.44,-0.13,0.6902,0.0480,-0.0153,0.7219,$GPGGA,210927.000,4041.3021,N,07422.8856,W,2,07,1.30,121.7,M,-34.2,M,0000,0000*5B
367,0,-0.87,0.24,0.54,-3.12,-3.25,-0.06,0.6902,0.0485,-0.0175,0.7218,$GPGGA,210927.100,4041.3029,N,07422.8845,W,2,07,1.30,121.7,M,-34.2,M,0000,0000*50
368,0,-0.63,0.55,1.08,0.44,-3.56,0.50,0.6902,0.0489,-0.0189,0.7217,$GPGGA,210927.200,4041.3038,N,07422.8835,W,2,07,1.30,121.7,M,-34.2,M,0000,0000*54
369,0,-0.77,-0.54,-0.57,-0.56,0.44,0.25,0.6902,0.0480,-0.0195,0.7217,$GPGGA,210927.300,4041.3046,N,07422.8824,W,2,07,1.30,121.7,M,-34.2,M,0000,0000*5C
370,0,-0.89,0.47,-0.54,-3.50,2.25,-0.06,0.6904,0.0464,-0.0197,0.7217,$GPGGA,210927.400,4041.3054,N,07422.8813,W,2,07,1.16,121.7,M,-34.2,M,0000,0000*58
371,0,-0.44,0.23,0.00,1.44,0.62,0.13,0.6904,0.0458,-0.0193,0.7217,$GPGGA,210927.500,4041.3062,N,07422.8803,W,2,07,1.16,121.7,M,-34.2,M,0000,0000*5D
372,0,-1.32,0.50,-0.62,2.87,2.50,0.62,0.6902,0.0469,-0.0179,0.7218,$GPGGA,210927.600,4041.3070,N,07422.8792,W,2,07,1.16,121.7,M,-34.2,M,0000,0000*5A
373,0,-1.06,-0.06,-0.01,3.87,-2.06,0.69,0.6901,0.0489,-0.0161,0.7219,$GPGGA,210927.700,4041.3078,N,07422.8782,W,2,07,1.30,121.7,M,-34.2,M,0000,0000*56
374,0,-0.66,1.12,0.03,1.31,0.94,0.50,0.6899,0.0502,-0.0154,0.7220,$GPGGA,210927.800,4041.3086,N,07422.8771,W,2,07,1.30,121.7,M,-34.2,M,0000,0000*54
375,0,-1.15,-0.07,-0.18,-2.50,0.62,-0.50,0.6899,0.0501,-0.0156,0.7220,$GPGGA,210927.900,4041.3094,N,07422.8760,W,2,07,1.30,121.7,M,-34.2,M,0000,0000*56
376,0,-0.72,-0.19,0.45,-1.56,-1.37,-0.94,0.6903,0.0497,-0.0165,0.7216,$GPGGA,210928.000,4041.3103,N,07422.8749,W,2,07,1.30,121.7,M,-34.2,M,0000,0000*54
377,0,-1.14,0.89,-0.69,-0.13,3.44,-0.88,0.6907,0.0483,-0.0160,0.7213,$GPGGA,210928.100,4041.3111,N,07422.8739,W,2,07,1.30,121.8,M,-34.2,M,0000,0000*5E
378,0,-0.92,-1.20,-0.72,1.06,0.56,-0.69,0.6910,0.0471,-0.0157,0.7211,$GPGGA,210928.200,4041.3119,N,07422.8728,W,2,07,1.30,121.8,M,-34.2,M,0000,0000*55
379,0,-0.43,-1.14,0.91,4.81,0.56,-0.62,0.6912,0.0479,-0.0148,0.7209,$GPGGA,210928.300,4041.3127,N,07422.8717,W,2,07,1.30,121.8,M,-34.2,M,0000,0000*55
380,0,-1.39,1.20,-0.08,-1.62,0.00,-0.88,0.6915,0.0490,-0.0147,0.7206,$GPGGA,210928.400,4041.3135,N,07422.8706,W,2,07,1.16,121.8,M,-34.2,M,0000,0000*55
381,0,-0.68,-0.12,0.83,-0.94,-2.00,-0.81,0.6918,0.0494,-0.0143,0.7203,$GPGGA,210928.500,4041.3143,N,07422.8695,W,2,07,1.16,121.8,M,-34.2,M,0000,0000*5E
382,0,-0.38,0.27,0.07,2.12,4.25,-0.75,0.6923,0.0484,-0.0122,0.7199,$GPGGA,210928.600,4041.3150,N,07422.8684,W,2,07,1.16,121.8,M,-34.2,M,0000,0000*5F
383,0,-1.03,-0.18,-0.62,0.44,0.81,-0.81,0.6927,0.0479,-0.0111,0.7195,$GPGGA,210928.700,4041.3158,N,07422.8674,W,2,07,1.30,121.8,M,-34.2,M,0000,0000*5D
384,0,-1.03,-0.40,-0.13,3.25,0.81,-0.69,0.6931,0.0482,-0.0100,0.7192,$GPGGA,210928.800,4041.3166,N,07422.8663,W,2,07,1.30,121.8,M,-34.2,M,0000,0000*59
385,0,-0.93,0.42,0.25,1.81,1.87,-0.62,0.6935,0.0488,-0.0090,0.7187,$GPGGA,210928.900,4041.3173,N,07422.8651,W,2,07,1.30,121.8,M,-34.2,M,0000,0000*5D
386,0,-0.77,-0.33,-0.59,1.00,0.00,-0.31,0.6935,0.0496,-0.0077,0.7187,$GPGGA,210929.000,4041.3181,N,07422.8640,W,2,07,1.30,121.8,M,-34.2,M,0000,0000*58
387,0,-0.37,0.58,0.82,1.06,2.62,-0.31,0.6934,0.0504,-0.0068,0.7187,$GPGGA,210929.100,4041.3188,N,07422.8629,W,2,07,1.30,121.8,M,-34.2,M,0000,0000*5F
388,0,-0.81,0.84,-0.08,-0.62,-2.75,-0.31,0.6934,0.0511,-0.0078,0.7187,$GPGGA,210929.200,4041.3196,N,07422.8618,W,2,07,1.30,121.8,M,-34.2,M,0000,0000*51
389,0,-0.18,0.44,-0.17,1.06,-0.94,-0.06,0.6934,0.0511,-0.0074,0.7187,$GPGGA,210929.300,4041.3203,N,07422.8607,W,2,07,1.30,121.8,M,-34.2,M,0000,0000*51
390,0,-0.86,0.39,-1.30,-1.37,1.19,-0.25,0.6935,0.0496,-0.0075,0.7187,$GPGGA,210929.400,4041.3211,N,07422.8596,W,2,07,1.16,121.9,M,-34.2,M,0000,0000*5B
391,0,-0.62,0.04,0.69,0.00,0.06,-0.13,0.6935,0.0491,-0.0073,0.7187,$GPGGA,210929.500,4041.3218,N,07422.8585,W,2,07,1.16,121.9,M,-34.2,M,0000,0000*51
392,0,-0.75,-0.80,-0.43,-3.31,-0.88,-0.13,0.6935,0.0493,-0.0080,0.7187,$GPGGA,210929.600,4041.3226,N,07422.8574,W,2,07,1.30,121.9,M,-34.2,M,0000,0000*55
393,0,-0.34,-0.44,0.50,-0.44,2.50,0.19,0.6935,0.0488,-0.0081,0.7187,$GPGGA,210929.700,4041.3233,N,07422.8562,W,2,07,1.30,121.9,M,-34.2,M,0000,0000*57
394,0,-0.37,0.06,-0.24,-0.44,1.94,0.06,0.6936,0.0479,-0.0075,0.7187,$GPGGA,210929.800,4041.3241,N,07422.8551,W,2,07,1.30,122.0,M,-34.2,M,0000,0000*57
395,0,-0.86,0.20,-1.12,1.94,2.69,0.31,0.6936,0.0468,-0.0068,0.7188,$GPGGA,210929.900,4041.3248,N,07422.8540,W,2,07,1.30,122.0,M,-34.2,M,0000,0000*5F
396,0,-0.18,-0.25,-0.20,-0.69,-0.19,0.25,0.6936,0.0463,-0.0054,0.7189,$GPGGA,210930.000,4041.3255,N,07422.8529,W,2,07,1.30,122.0,M,-34.2,M,0000,0000*5D
397,0,-0.41,0.54,-0.11,1.81,0.37,0.37,0.6935,0.0464,-0.0046,0.7189,$GPGGA,210930.100,4041.3262,N,07422.8517,W,2,07,1.30,122.0,M,-34.2,M,0000,0000*55
398,0,-0.22,0.35,1.45,0.56,-1.37,0.13,0.6935,0.0472,-0.0048,0.7189,$GPGGA,210930.200,4041.3270,N,07422.8506,W,2,07,1.30,121.9,M,-34.2,M,0000,0000*5F
399,0,-0.55,-0.01,-0.63,0.13,0.37,-0.19,0.6935,0.0474,-0.0048,0.7189,$GPGGA,210930.300,4041.3277,N,07422.8494,W,2,07,1.30,121.9,M,-34.2,M,0000,0000*53
400,0,-0.63,-0.18,-0.09,-1.00,2.44,-0.13,0.6935,0.0463,-0.0048,0.7189,$GPGGA,210930.400,4041.3285,N,07422.8483,W,2,07,1.16,121.9,M,-34.2,M,0000,0000*5B
