0,0,0.30,-0.40,0.02,-2.00,5.62,3.75,-0.7590,0.0423,0.0947,0.6427,$GPGGA,205054.700,4042.0735,N,07421.8240,W,1,07,1.21,97.5,M,-34.2,M,,*64
1,0,0.03,-0.44,0.02,0.06,-1.00,3.62,-0.7613,0.0421,0.0906,0.6407,$GPGGA,205054.800,4042.0733,N,07421.8245,W,1,07,1.21,97.6,M,-34.2,M,,*6B
2,0,0.22,-0.87,0.21,11.38,-19.31,2.75,-0.7626,0.0444,0.1003,0.6375,$GPGGA,205054.900,4042.0731,N,07421.8249,W,1,07,1.21,97.6,M,-34.2,M,,*64
3,0,-0.05,-0.45,-0.35,0.06,-3.50,2.50,-0.7636,0.0469,0.1069,0.6351,$GPGGA,205055.000,4042.0729,N,07421.8253,W,1,07,1.21,97.6,M,-34.2,M,,*6E
4,0,0.41,-0.36,0.42,0.06,-1.69,2.19,-0.7647,0.0491,0.1078,0.6334,$GPGGA,205055.100,4042.0727,N,07421.8257,W,1,07,1.21,97.6,M,-34.2,M,,*65
5,0,0.12,-0.79,0.25,-0.31,-0.81,2.19,-0.7659,0.0509,0.1075,0.6318,$GPGGA,205055.200,4042.0725,N,07421.8261,W,1,07,1.21,97.7,M,-34.2,M,,*60
6,0,0.12,-0.77,0.06,0.81,0.13,2.06,-0.7671,0.0505,0.1084,0.6303,$GPGGA,205055.300,4042.0724,N,07421.8264,W,1,07,1.12,97.7,M,-34.2,M,,*65
7,0,0.06,-0.15,-0.07,-0.13,-0.13,1.94,-0.7682,0.0528,0.1083,0.6287,$GPGGA,205055.400,4042.0721,N,07421.8267,W,1,07,1.12,97.7,M,-34.2,M,,*64
8,0,-0.09,-0.71,-0.07,-0.19,0.13,1.25,-0.7692,0.0542,0.1068,0.6277,$GPGGA,205055.500,4042.0719,N,07421.8269,W,1,07,1.12,97.7,M,-34.2,M,,*60
9,0,0.00,-0.75,-0.14,1.12,1.75,0.19,-0.7700,0.0573,0.1032,0.6270,$GPGGA,205055.600,4042.0716,N,07421.8272,W,1,07,1.12,97.7,M,-34.2,M,,*66
10,0,-0.07,-0.68,0.32,-0.37,0.13,-0.13,-0.7704,0.0595,0.1002,0.6268,$GPGGA,205055.700,4042.0713,N,07421.8275,W,1,07,1.12,97.7,M,-34.2,M,,*65
11,0,-0.06,-0.96,0.30,0.69,0.44,-0.75,-0.7705,0.0602,0.0988,0.6268,$GPGGA,205055.800,4042.0710,N,07421.8279,W,1,07,1.12,97.8,M,-34.2,M,,*6A
12,0,0.19,-0.65,-0.30,0.50,-2.19,-1.12,-0.7701,0.0621,0.0974,0.6273,$GPGGA,205055.900,4042.0707,N,07421.8282,W,1,07,1.12,97.8,M,-34.2,M,,*69
13,0,-0.47,-0.84,-0.38,0.00,0.81,-1.06,-0.7693,0.0632,0.0963,0.6284,$GPGGA,205056.000,4042.0704,N,07421.8285,W,1,07,1.12,97.8,M,-34.2,M,,*67
14,0,-0.56,-0.51,-0.41,0.44,1.81,-1.06,-0.7692,0.0644,0.0929,0.6290,$GPGGA,205056.100,4042.0700,N,07421.8289,W,1,07,1.12,97.8,M,-34.2,M,,*6E
15,0,-1.00,-0.32,-0.16,-1.12,0.69,-0.62,-0.7692,0.0637,0.0887,0.6297,$GPGGA,205056.200,4042.0697,N,07421.8293,W,1,07,1.21,97.8,M,-34.2,M,,*69
16,0,-1.33,-0.28,-0.11,0.88,5.00,-0.37,-0.7700,0.0593,0.0814,0.6301,$GPGGA,205056.300,4042.0693,N,07421.8296,W,1,07,1.12,97.9,M,-34.2,M,,*68
17,0,-0.96,-0.24,0.17,0.00,1.37,-0.13,-0.7704,0.0576,0.0773,0.6303,$GPGGA,205056.400,4042.0690,N,07421.8300,W,1,07,1.12,97.9,M,-34.2,M,,*62
18,0,-0.17,-0.10,0.05,-0.37,0.00,0.19,-0.7708,0.0563,0.0728,0.6305,$GPGGA,205056.500,4042.0686,N,07421.8306,W,1,07,1.12,97.9,M,-34.2,M,,*62
19,0,-0.67,-0.04,0.07,-0.81,2.62,-0.06,-0.7709,0.0557,0.0707,0.6306,$GPGGA,205056.600,4042.0681,N,07421.8311,W,1,07,1.12,97.9,M,-34.2,M,,*60
20,0,-0.59,-0.19,-0.11,-0.19,2.00,0.13,-0.7713,0.0541,0.0646,0.6309,$GPGGA,205056.700,4042.0676,N,07421.8317,W,1,07,1.21,97.9,M,-34.2,M,,*6F
21,0,-0.89,-0.12,-0.33,-1.19,1.00,0.00,-0.7714,0.0533,0.0613,0.6311,$GPGGA,205056.800,4042.0673,N,07421.8322,W,1,07,1.12,97.9,M,-34.2,M,,*63
22,0,-0.90,-0.19,0.43,-0.37,0.62,0.19,-0.7717,0.0521,0.0565,0.6313,$GPGGA,205056.900,4042.0668,N,07421.8327,W,1,07,1.21,97.9,M,-34.2,M,,*6D
23,0,-0.25,-0.24,0.87,-0.37,-2.31,0.25,-0.7722,0.0510,0.0504,0.6313,$GPGGA,205057.000,4042.0664,N,07421.8332,W,1,07,1.12,98.0,M,-34.2,M,,*6B
24,0,0.07,-0.04,0.48,-0.44,-3.25,0.25,-0.7721,0.0520,0.0511,0.6313,$GPGGA,205057.100,4042.0659,N,07421.8338,W,1,07,1.21,98.0,M,-34.2,M,,*6E
25,0,-0.09,-0.36,0.35,-1.56,-2.69,0.19,-0.7720,0.0539,0.0512,0.6313,$GPGGA,205057.200,4042.0655,N,07421.8345,W,1,07,1.21,98.0,M,-34.2,M,,*6B
26,0,0.41,-0.36,0.11,-0.13,-1.62,0.25,-0.7719,0.0543,0.0517,0.6313,$GPGGA,205057.300,4042.0651,N,07421.8349,W,1,07,1.12,98.0,M,-34.2,M,,*62
27,0,0.07,0.19,-0.38,0.44,0.06,0.06,-0.7719,0.0549,0.0520,0.6312,$GPGGA,205057.400,4042.0647,N,07421.8354,W,1,07,1.12,98.0,M,-34.2,M,,*6E
28,0,0.46,0.03,0.05,-1.25,-0.44,0.00,-0.7719,0.0555,0.0519,0.6312,$GPGGA,205057.500,4042.0643,N,07421.8359,W,1,07,1.12,98.0,M,-34.2,M,,*66
29,0,0.65,0.13,0.31,-1.00,-1.62,0.25,-0.7717,0.0574,0.0526,0.6312,$GPGGA,205057.600,4042.0639,N,07421.8364,W,1,07,1.12,98.0,M,-34.2,M,,*66
30,0,0.20,-0.03,-0.38,0.75,0.06,0.00,-0.7716,0.0585,0.0532,0.6312,$GPGGA,205057.700,4042.0635,N,07421.8369,W,1,07,1.12,98.0,M,-34.2,M,,*66
31,0,0.32,-0.03,0.05,0.69,2.44,0.13,-0.7716,0.0593,0.0533,0.6311,$GPGGA,205057.800,4042.0630,N,07421.8374,W,1,07,1.12,98.1,M,-34.2,M,,*61
32,0,-0.08,-0.14,-0.71,0.94,2.50,0.00,-0.7717,0.0579,0.0524,0.6312,$GPGGA,205057.900,4042.0626,N,07421.8379,W,1,07,1.12,98.1,M,-34.2,M,,*6A
33,0,-0.12,-0.14,-0.06,1.75,0.94,0.44,-0.7719,0.0572,0.0521,0.6310,$GPGGA,205058.000,4042.0622,N,07421.8384,W,1,07,1.12,98.1,M,-34.2,M,,*6A
34,0,-0.18,0.07,-0.87,0.37,-0.56,0.37,-0.7720,0.0557,0.0529,0.6310,$GPGGA,205058.100,4042.0617,N,07421.8390,W,1,07,1.12,98.1,M,-34.2,M,,*68
35,0,0.15,0.18,0.20,-0.44,-1.19,0.00,-0.7720,0.0557,0.0533,0.6310,$GPGGA,205058.200,4042.0612,N,07421.8395,W,1,07,1.12,98.1,M,-34.2,M,,*6B
36,0,0.23,0.57,0.37,-2.25,-0.94,-0.06,-0.7719,0.0571,0.0535,0.6310,$GPGGA,205058.300,4042.0607,N,07421.8401,W,1,07,1.12,98.1,M,-34.2,M,,*64
37,0,-0.30,0.04,0.24,-2.81,-0.06,0.06,-0.7717,0.0593,0.0523,0.6311,$GPGGA,205058.400,4042.0601,N,07421.8407,W,1,07,1.12,98.1,M,-34.2,M,,*63
38,0,-0.11,-0.13,0.03,-1.81,-0.56,0.25,-0.7715,0.0609,0.0511,0.6312,$GPGGA,205058.500,4042.0596,N,07421.8413,W,1,07,1.12,98.1,M,-34.2,M,,*6A
39,0,-0.12,0.47,-0.32,-0.69,-0.62,0.25,-0.7715,0.0623,0.0506,0.6312,$GPGGA,205058.600,4042.0591,N,07421.8419,W,1,07,1.12,98.1,M,-34.2,M,,*64
40,0,0.12,-0.41,-0.23,-1.81,-0.06,0.44,-0.7714,0.0633,0.0500,0.6312,$GPGGA,205058.700,4042.0586,N,07421.8425,W,1,07,1.12,98.1,M,-34.2,M,,*6C
41,0,0.15,0.35,-0.96,-1.81,2.37,0.31,-0.7714,0.0632,0.0482,0.6314,$GPGGA,205058.800,4042.0580,N,07421.8432,W,1,07,1.12,98.1,M,-34.2,M,,*63
42,0,0.07,0.06,-0.43,-2.62,0.62,0.25,-0.7714,0.0636,0.0460,0.6316,$GPGGA,205058.900,4042.0575,N,07421.8439,W,1,07,1.12,98.2,M,-34.2,M,,*60
43,0,-0.17,-0.19,-0.10,-0.81,-0.06,0.06,-0.7714,0.0640,0.0441,0.6317,$GPGGA,205059.000,4042.0570,N,07421.8446,W,1,07,1.12,98.2,M,-34.2,M,,*65
44,0,-0.54,-0.14,0.18,0.25,-0.44,0.06,-0.7714,0.0645,0.0430,0.6317,$GPGGA,205059.100,4042.0565,N,07421.8453,W,1,07,1.12,98.2,M,-34.2,M,,*64
45,0,-0.18,-0.37,0.37,1.81,-1.62,0.19,-0.7715,0.0640,0.0443,0.6315,$GPGGA,205059.200,4042.0560,N,07421.8461,W,1,07,1.12,98.2,M,-34.2,M,,*63
46,0,-0.21,0.17,0.31,0.25,0.75,0.13,-0.7715,0.0638,0.0443,0.6315,$GPGGA,205059.300,4042.0555,N,07421.8467,W,1,07,1.12,98.2,M,-34.2,M,,*62
47,0,-0.32,-0.12,-0.47,-1.69,1.37,-0.25,-0.7715,0.0630,0.0428,0.6316,$GPGGA,205059.400,4042.0549,N,07421.8474,W,1,07,1.12,98.2,M,-34.2,M,,*6A
48,0,-0.55,0.06,-0.68,-5.81,2.69,-0.62,-0.7714,0.0650,0.0372,0.6320,$GPGGA,205059.500,4042.0544,N,07421.8482,W,1,07,1.12,98.2,M,-34.2,M,,*6F
49,0,-0.69,-0.30,0.00,-1.81,2.19,-0.56,-0.7714,0.0646,0.0332,0.6321,$GPGGA,205059.600,4042.0538,N,07421.8489,W,1,07,1.12,98.3,M,-34.2,M,,*6D
50,0,-0.82,0.11,-0.14,-1.00,0.62,0.00,-0.7715,0.0647,0.0314,0.6322,$GPGGA,205059.700,4042.0533,N,07421.8498,W,1,07,1.12,98.3,M,-34.2,M,,*67
51,0,-0.86,-0.10,0.39,-0.44,-1.62,-0.13,-0.7714,0.0653,0.0317,0.6321,$GPGGA,205059.800,4042.0528,N,07421.8506,W,1,07,1.12,98.3,M,-34.2,M,,*64
52,0,-0.68,0.01,0.64,0.56,-1.81,0.06,-0.7716,0.0646,0.0300,0.6321,$GPGGA,205059.900,4042.0522,N,07421.8514,W,1,07,1.12,98.3,M,-34.2,M,,*6C
53,0,-1.06,-0.15,0.16,0.25,-1.62,0.31,-0.7716,0.0653,0.0316,0.6320,$GPGGA,205100.000,4042.0516,N,07421.8523,W,1,07,1.21,98.3,M,-34.2,M,,*6B
54,0,-0.95,0.12,0.31,0.56,-1.50,0.25,-0.7719,0.0628,0.0292,0.6320,$GPGGA,205100.100,4042.0510,N,07421.8531,W,1,07,1.12,98.3,M,-34.2,M,,*6F
55,0,-0.55,-0.23,-0.23,0.06,0.69,0.37,-0.7720,0.0615,0.0286,0.6320,$GPGGA,205100.200,4042.0504,N,07421.8540,W,1,07,1.12,98.4,M,-34.2,M,,*68
56,0,-0.68,-0.20,-0.95,-0.56,0.50,0.56,-0.7723,0.0596,0.0257,0.6320,$GPGGA,205100.300,4042.0499,N,07421.8547,W,1,07,1.12,98.4,M,-34.2,M,,*6B
57,0,-0.40,0.02,-0.32,-0.19,1.00,0.62,-0.7726,0.0585,0.0251,0.6317,$GPGGA,205100.400,4042.0493,N,07421.8556,W,1,07,1.12,98.4,M,-34.2,M,,*66
58,0,-0.67,-0.32,0.03,2.19,0.25,0.44,-0.7730,0.0562,0.0233,0.6315,$GPGGA,205100.500,4042.0487,N,07421.8564,W,1,07,1.12,98.4,M,-34.2,M,,*63
59,0,-0.77,0.57,-0.13,0.62,-2.87,0.81,-0.7736,0.0528,0.0226,0.6311,$GPGGA,205100.600,4042.0481,N,07421.8572,W,1,07,1.12,98.4,M,-34.2,M,,*61
60,0,-0.40,0.20,0.37,2.37,0.50,1.12,-0.7742,0.0526,0.0236,0.6303,$GPGGA,205100.700,4042.0475,N,07421.8581,W,1,07,1.12,98.4,M,-34.2,M,,*67
61,0,-0.25,0.87,-0.36,0.00,-0.13,1.69,-0.7751,0.0486,0.0232,0.6295,$GPGGA,205100.800,4042.0469,N,07421.8590,W,1,07,1.12,98.4,M,-34.2,M,,*65
62,0,-0.34,0.07,-0.16,-0.69,0.94,1.44,-0.7759,0.0486,0.0226,0.6285,$GPGGA,205100.900,4042.0463,N,07421.8600,W,1,07,1.21,98.4,M,-34.2,M,,*64
63,0,-0.44,0.47,-0.40,-2.94,0.19,1.19,-0.7767,0.0490,0.0212,0.6277,$GPGGA,205101.000,4042.0457,N,07421.8610,W,1,07,1.12,98.4,M,-34.2,M,,*6A
64,0,-0.32,0.23,-0.23,-3.00,-2.19,1.44,-0.7773,0.0510,0.0198,0.6268,$GPGGA,205101.100,4042.0451,N,07421.8619,W,1,07,1.21,98.4,M,-34.2,M,,*64
65,0,-1.00,0.39,0.41,3.19,-3.25,2.19,-0.7783,0.0511,0.0207,0.6255,$GPGGA,205101.200,4042.0445,N,07421.8627,W,1,07,1.21,98.4,M,-34.2,M,,*6F
66,0,-0.33,0.51,0.07,-0.13,0.19,2.81,-0.7796,0.0502,0.0220,0.6238,$GPGGA,205101.300,4042.0440,N,07421.8636,W,1,07,1.12,98.5,M,-34.2,M,,*6A
67,0,-0.42,0.36,0.00,2.00,-1.50,2.75,-0.7811,0.0498,0.0230,0.6220,$GPGGA,205101.400,4042.0434,N,07421.8644,W,1,07,1.12,98.5,M,-34.2,M,,*6B
68,0,-0.34,0.94,-1.17,-1.44,1.12,3.19,-0.7827,0.0497,0.0221,0.6201,$GPGGA,205101.500,4042.0428,N,07421.8652,W,1,07,1.12,98.5,M,-34.2,M,,*60
69,0,0.00,1.20,-0.91,-1.44,1.31,3.87,-0.7845,0.0496,0.0215,0.6177,$GPGGA,205101.600,4042.0421,N,07421.8660,W,1,07,1.21,98.5,M,-34.2,M,,*6B
70,0,-0.04,1.22,-0.52,-1.12,-0.31,4.44,-0.7868,0.0499,0.0202,0.6149,$GPGGA,205101.700,4042.0415,N,07421.8668,W,1,07,1.21,98.4,M,-34.2,M,,*64
71,0,-0.50,1.52,-1.04,-3.12,0.31,4.69,-0.7891,0.0500,0.0182,0.6120,$GPGGA,205101.800,4042.0409,N,07421.8676,W,1,07,1.21,98.4,M,-34.2,M,,*69
72,0,-0.27,0.90,0.22,1.19,3.25,4.44,-0.7913,0.0506,0.0175,0.6091,$GPGGA,205101.900,4042.0402,N,07421.8684,W,1,07,1.21,98.4,M,-34.2,M,,*6E
73,0,-0.31,0.44,0.87,-0.88,1.56,4.31,-0.7935,0.0506,0.0157,0.6063,$GPGGA,205102.000,4042.0396,N,07421.8693,W,1,07,1.21,98.4,M,-34.2,M,,*68
74,0,-0.40,1.46,-2.05,2.37,4.44,4.37,-0.7958,0.0482,0.0144,0.6035,$GPGGA,205102.100,4042.0390,N,07421.8701,W,1,07,1.21,98.4,M,-34.2,M,,*65
75,0,0.23,1.29,0.22,0.50,1.44,3.94,-0.7980,0.0467,0.0134,0.6007,$GPGGA,205102.200,4042.0383,N,07421.8709,W,1,07,1.21,98.4,M,-34.2,M,,*6C
76,0,0.10,1.26,0.31,0.31,-2.87,3.50,-0.7999,0.0481,0.0135,0.5981,$GPGGA,205102.300,4042.0377,N,07421.8718,W,1,07,1.12,98.4,M,-34.2,M,,*66
77,0,-0.62,0.97,1.19,-2.31,0.13,2.87,-0.8014,0.0490,0.0146,0.5959,$GPGGA,205102.400,4042.0371,N,07421.8727,W,1,07,1.12,98.4,M,-34.2,M,,*6B
78,0,-0.28,0.72,-0.02,-2.25,0.37,2.44,-0.8026,0.0511,0.0137,0.5942,$GPGGA,205102.500,4042.0364,N,07421.8736,W,1,07,1.12,98.4,M,-34.2,M,,*6E
79,0,-0.16,0.55,-0.59,-1.44,2.12,2.56,-0.8038,0.0515,0.0127,0.5925,$GPGGA,205102.600,4042.0358,N,07421.8746,W,1,07,1.21,98.5,M,-34.2,M,,*64
80,0,-0.33,0.56,-0.26,0.69,2.62,2.75,-0.8052,0.0505,0.0114,0.5908,$GPGGA,205102.700,4042.0352,N,07421.8755,W,1,07,1.21,98.5,M,-34.2,M,,*6D
81,0,-0.53,0.90,0.01,-0.37,0.75,2.81,-0.8066,0.0491,0.0112,0.5889,$GPGGA,205102.800,4042.0345,N,07421.8764,W,1,07,1.21,98.5,M,-34.2,M,,*66
82,0,-0.54,0.78,-0.02,-0.37,-1.37,2.81,-0.8080,0.0488,0.0120,0.5870,$GPGGA,205102.900,4042.0338,N,07421.8774,W,1,07,1.21,98.5,M,-34.2,M,,*6C
83,0,-0.10,0.44,-0.07,-0.44,-2.44,2.81,-0.8093,0.0505,0.0134,0.5850,$GPGGA,205103.000,4042.0330,N,07421.8783,W,1,07,1.21,98.5,M,-34.2,M,,*64
84,0,-0.19,0.60,0.45,0.31,2.37,3.87,-0.8112,0.0492,0.0131,0.5826,$GPGGA,205103.100,4042.0323,N,07421.8792,W,1,07,1.21,98.6,M,-34.2,M,,*64
85,0,-0.78,0.99,-0.40,2.81,1.56,4.56,-0.8135,0.0468,0.0127,0.5795,$GPGGA,205103.200,4042.0315,N,07421.8800,W,1,07,1.21,98.6,M,-34.2,M,,*66
86,0,-0.33,1.21,0.17,0.19,-2.06,4.12,-0.8157,0.0464,0.0137,0.5765,$GPGGA,205103.300,4042.0308,N,07421.8809,W,1,07,1.12,98.6,M,-34.2,M,,*62
87,0,-0.53,1.14,0.00,-3.25,0.25,3.62,-0.8174,0.0481,0.0130,0.5739,$GPGGA,205103.400,4042.0300,N,07421.8818,W,1,07,1.12,98.7,M,-34.2,M,,*6C
88,0,-0.33,1.13,-0.87,-0.75,2.50,3.06,-0.8190,0.0482,0.0107,0.5717,$GPGGA,205103.500,4042.0292,N,07421.8826,W,1,07,1.12,98.7,M,-34.2,M,,*6A
89,0,-0.48,0.55,-1.15,-0.37,3.69,2.81,-0.8204,0.0470,0.0079,0.5699,$GPGGA,205103.600,4042.0284,N,07421.8834,W,1,07,1.12,98.8,M,-34.2,M,,*62
90,0,-0.33,0.50,-0.11,1.75,0.37,2.94,-0.8219,0.0441,0.0072,0.5679,$GPGGA,205103.700,4042.0277,N,07421.8842,W,1,07,1.21,98.8,M,-34.2,M,,*6E
91,0,-0.04,0.82,0.01,2.25,-0.75,3.06,-0.8235,0.0431,0.0084,0.5657,$GPGGA,205103.800,4042.0269,N,07421.8849,W,1,07,1.21,98.8,M,-34.2,M,,*65
92,0,-0.13,1.18,0.12,1.31,-0.25,2.56,-0.8248,0.0427,0.0088,0.5637,$GPGGA,205103.900,4042.0261,N,07421.8857,W,1,07,1.21,98.8,M,-34.2,M,,*63
93,0,-0.27,0.20,-0.35,0.25,0.75,2.37,-0.8261,0.0381,0.0099,0.5621,$GPGGA,205104.000,4042.0253,N,07421.8865,W,1,07,1.21,98.9,M,-34.2,M,,*6C
94,0,-0.09,0.58,0.02,-0.31,1.44,2.25,-0.8273,0.0369,0.0096,0.5605,$GPGGA,205104.100,4042.0245,N,07421.8873,W,1,07,1.21,98.9,M,-34.2,M,,*6D
95,0,0.15,0.61,-0.39,-0.13,-0.19,2.19,-0.8284,0.0366,0.0089,0.5589,$GPGGA,205104.200,4042.0237,N,07421.8881,W,1,07,1.21,98.9,M,-34.2,M,,*66
96,0,-0.20,0.47,0.45,-0.31,1.62,1.69,-0.8293,0.0349,0.0081,0.5576,$GPGGA,205104.300,4042.0230,N,07421.8889,W,1,07,1.12,98.9,M,-34.2,M,,*68
97,0,-0.56,0.15,-0.56,0.50,0.13,1.81,-0.8301,0.0344,0.0076,0.5565,$GPGGA,205104.400,4042.0222,N,07421.8897,W,1,07,1.21,98.8,M,-34.2,M,,*62
98,0,-0.50,0.77,0.29,-1.37,-3.87,1.87,-0.8309,0.0364,0.0090,0.5551,$GPGGA,205104.500,4042.0213,N,07421.8905,W,1,07,1.21,98.8,M,-34.2,M,,*6B
99,0,0.10,0.69,1.31,-0.94,-0.69,1.75,-0.8316,0.0383,0.0104,0.5539,$GPGGA,205104.600,4042.0205,N,07421.8913,W,1,07,1.21,98.8,M,-34.2,M,,*68
100,0,-0.07,0.37,-0.41,0.62,2.50,1.75,-0.8325,0.0370,0.0092,0.5527,$GPGGA,205104.700,4042.0197,N,07421.8921,W,1,07,1.21,98.8,M,-34.2,M,,*60
101,0,-0.32,-0.15,-1.97,3.31,0.88,2.06,-0.8334,0.0347,0.0077,0.5515,$GPGGA,205104.800,4042.0188,N,07421.8929,W,1,07,1.21,98.8,M,-34.2,M,,*69
102,0,-0.31,0.31,0.72,2.44,-2.12,2.00,-0.8346,0.0322,0.0101,0.5499,$GPGGA,205104.900,4042.0179,N,07421.8936,W,1,07,1.21,98.7,M,-34.2,M,,*67
103,0,-0.29,0.56,1.26,-1.69,-3.44,2.00,-0.8354,0.0341,0.0121,0.5483,$GPGGA,205105.000,4042.0171,N,07421.8944,W,1,07,1.21,98.7,M,-34.2,M,,*62
104,0,-0.31,0.29,0.61,-1.94,2.75,0.88,-0.8361,0.0345,0.0128,0.5474,$GPGGA,205105.100,4042.0162,N,07421.8952,W,1,07,1.21,98.7,M,-34.2,M,,*66
105,0,-0.14,0.11,-2.38,-0.69,3.69,0.50,-0.8362,0.0343,0.0091,0.5473,$GPGGA,205105.200,4042.0153,N,07421.8959,W,1,07,1.21,98.6,M,-34.2,M,,*6D
106,0,0.11,-0.32,-0.53,0.37,-1.44,0.81,-0.8364,0.0335,0.0080,0.5471,$GPGGA,205105.300,4042.0144,N,07421.8967,W,1,07,1.12,98.6,M,-34.2,M,,*67
107,0,-0.03,-0.22,-0.14,0.50,-0.19,1.06,-0.8369,0.0327,0.0082,0.5464,$GPGGA,205105.400,4042.0136,N,07421.8976,W,1,07,1.21,98.6,M,-34.2,M,,*65
108,0,-0.31,-0.18,0.66,1.06,1.06,1.12,-0.8375,0.0312,0.0091,0.5455,$GPGGA,205105.500,4042.0127,N,07421.8984,W,1,07,1.12,98.5,M,-34.2,M,,*6A
109,0,-0.16,0.58,-0.24,0.25,0.25,1.00,-0.8379,0.0306,0.0091,0.5449,$GPGGA,205105.600,4042.0118,N,07421.8992,W,1,07,1.21,98.5,M,-34.2,M,,*62
110,0,-0.37,0.33,0.15,-1.50,-1.06,0.75,-0.8381,0.0316,0.0087,0.5444,$GPGGA,205105.700,4042.0109,N,07421.9001,W,1,07,1.21,98.5,M,-34.2,M,,*61
111,0,-0.18,0.32,0.41,-0.25,-1.25,0.56,-0.8384,0.0328,0.0086,0.5441,$GPGGA,205105.800,4042.0101,N,07421.9010,W,1,07,1.21,98.5,M,-34.2,M,,*66
112,0,-0.04,-0.45,0.22,0.25,1.31,0.75,-0.8386,0.0328,0.0081,0.5436,$GPGGA,205105.900,4042.0091,N,07421.9017,W,1,07,1.21,98.4,M,-34.2,M,,*69
113,0,-0.40,-0.23,-0.31,1.87,2.19,0.75,-0.8391,0.0311,0.0075,0.5431,$GPGGA,205106.000,4042.0082,N,07421.9025,W,1,07,1.21,98.4,M,-34.2,M,,*60
114,0,-0.13,0.24,-0.77,1.62,-0.56,0.62,-0.8394,0.0291,0.0067,0.5427,$GPGGA,205106.100,4042.0074,N,07421.9033,W,1,07,1.21,98.3,M,-34.2,M,,*68
115,0,-0.29,-0.11,0.13,2.06,-0.62,0.44,-0.8396,0.0279,0.0074,0.5425,$GPGGA,205106.200,4042.0065,N,07421.9041,W,1,07,1.21,98.3,M,-34.2,M,,*6E
116,0,-0.05,0.26,-0.43,2.37,0.56,0.13,-0.8396,0.0269,0.0086,0.5424,$GPGGA,205106.300,4042.0056,N,07421.9049,W,1,07,1.12,98.2,M,-34.2,M,,*66
117,0,-0.43,0.10,-0.20,1.62,0.25,-0.13,-0.8397,0.0261,0.0092,0.5424,$GPGGA,205106.400,4042.0047,N,07421.9056,W,1,07,1.12,98.2,M,-34.2,M,,*6F
118,0,0.00,-0.17,0.11,0.44,-1.00,-0.31,-0.8397,0.0258,0.0093,0.5424,$GPGGA,205106.500,4042.0038,N,07421.9064,W,1,07,1.21,98.2,M,-34.2,M,,*67
119,0,-0.41,-0.01,-0.21,-0.37,0.88,-0.25,-0.8397,0.0264,0.0096,0.5424,$GPGGA,205106.600,4042.0029,N,07421.9071,W,1,07,1.21,98.1,M,-34.2,M,,*63
120,0,-0.03,-0.12,-1.04,0.00,0.19,-0.44,-0.8397,0.0267,0.0096,0.5424,$GPGGA,205106.700,4042.0020,N,07421.9079,W,1,07,1.21,98.0,M,-34.2,M,,*62
121,0,0.06,-0.40,0.00,0.50,0.19,-0.31,-0.8397,0.0258,0.0087,0.5425,$GPGGA,205106.800,4042.0011,N,07421.9086,W,1,07,1.21,98.0,M,-34.2,M,,*6F
122,0,-0.36,0.15,0.16,2.00,-0.75,-0.06,-0.8397,0.0249,0.0090,0.5424,$GPGGA,205106.900,4042.0002,N,07421.9094,W,1,07,1.21,97.9,M,-34.2,M,,*69
123,0,-0.10,0.00,0.45,1.31,-0.62,0.00,-0.8397,0.0245,0.0098,0.5424,$GPGGA,205107.000,4041.9992,N,07421.9101,W,1,07,1.21,97.8,M,-34.2,M,,*67
124,0,-0.29,0.04,0.35,-0.25,0.81,-0.31,-0.8397,0.0241,0.0099,0.5424,$GPGGA,205107.100,4041.9983,N,07421.9108,W,1,07,1.21,97.8,M,-34.2,M,,*6F
125,0,-0.38,-0.61,-0.54,0.69,0.81,-0.25,-0.8397,0.0239,0.0101,0.5424,$GPGGA,205107.200,4041.9973,N,07421.9116,W,1,07,1.21,97.7,M,-34.2,M,,*63
126,0,-0.12,-0.39,-0.06,1.81,0.50,-0.31,-0.8397,0.0229,0.0108,0.5424,$GPGGA,205107.300,4041.9964,N,07421.9123,W,1,07,1.12,97.6,M,-34.2,M,,*63
127,0,-0.60,0.01,-0.55,2.56,1.31,0.13,-0.8398,0.0208,0.0115,0.5424,$GPGGA,205107.400,4041.9955,N,07421.9131,W,1,07,1.12,97.6,M,-34.2,M,,*65
128,0,-0.15,0.15,0.42,0.62,-2.12,0.13,-0.8398,0.0193,0.0129,0.5424,$GPGGA,205107.500,4041.9946,N,07421.9138,W,1,07,1.21,97.5,M,-34.2,M,,*6C
129,0,-0.13,-0.04,1.07,-0.25,-2.62,-0.25,-0.8398,0.0198,0.0141,0.5423,$GPGGA,205107.600,4041.9936,N,07421.9146,W,1,07,1.21,97.4,M,-34.2,M,,*60
130,0,-0.35,-0.03,0.45,-1.12,-1.50,-0.31,-0.8398,0.0214,0.0154,0.5423,$GPGGA,205107.700,4041.9927,N,07421.9153,W,1,07,1.21,97.4,M,-34.2,M,,*65
131,0,-0.17,-0.38,0.18,-1.37,0.19,-0.06,-0.8398,0.0226,0.0153,0.5423,$GPGGA,205107.800,4041.9917,N,07421.9161,W,1,07,1.21,97.3,M,-34.2,M,,*6F
132,0,-0.37,-0.17,-0.43,0.44,1.19,-0.06,-0.8398,0.0223,0.0143,0.5423,$GPGGA,205107.900,4041.9907,N,07421.9168,W,1,07,1.21,97.2,M,-34.2,M,,*67
133,0,-0.35,-0.42,-0.16,0.56,-0.81,0.19,-0.8398,0.0214,0.0142,0.5423,$GPGGA,205108.000,4041.9898,N,07421.9175,W,1,07,1.21,97.2,M,-34.2,M,,*6A
134,0,-0.34,0.05,0.40,1.06,-1.75,0.50,-0.8398,0.0206,0.0145,0.5422,$GPGGA,205108.100,4041.9888,N,07421.9183,W,1,07,1.21,97.1,M,-34.2,M,,*60
135,0,-0.09,0.25,0.30,-2.19,-3.75,0.62,-0.8399,0.0212,0.0151,0.5421,$GPGGA,205108.200,4041.9878,N,07421.9190,W,1,07,1.21,97.0,M,-34.2,M,,*6F
136,0,-0.48,0.29,0.16,-3.25,-1.81,0.37,-0.8398,0.0234,0.0156,0.5421,$GPGGA,205108.300,4041.9869,N,07421.9197,W,1,07,1.12,97.0,M,-34.2,M,,*69
137,0,-0.24,0.00,0.27,-2.31,-1.19,-0.06,-0.8398,0.0261,0.0151,0.5421,$GPGGA,205108.400,4041.9859,N,07421.9204,W,1,07,1.12,97.1,M,-34.2,M,,*65
138,0,-0.38,-0.17,-0.59,-2.75,0.31,-0.13,-0.8398,0.0275,0.0131,0.5421,$GPGGA,205108.500,4041.9849,N,07421.9211,W,1,07,1.21,97.0,M,-34.2,M,,*60
139,0,-0.27,0.07,-0.87,-0.69,-0.69,0.06,-0.8397,0.0281,0.0117,0.5421,$GPGGA,205108.600,4041.9840,N,07421.9219,W,1,07,1.21,97.0,M,-34.2,M,,*62
140,0,-0.85,-0.44,0.17,-0.62,0.56,0.50,-0.8397,0.0281,0.0115,0.5421,$GPGGA,205108.700,4041.9830,N,07421.9226,W,1,07,1.21,96.9,M,-34.2,M,,*60
141,0,-0.19,0.26,-0.05,-0.44,-1.62,0.50,-0.8397,0.0281,0.0119,0.5421,$GPGGA,205108.800,4041.9821,N,07421.9233,W,1,07,1.21,96.8,M,-34.2,M,,*6A
142,0,-0.56,-0.38,0.68,-0.19,-0.31,0.44,-0.8398,0.0283,0.0125,0.5420,$GPGGA,205108.900,4041.9811,N,07421.9240,W,1,07,1.21,96.7,M,-34.2,M,,*63
143,0,-0.54,0.29,-1.36,-0.44,-1.12,0.44,-0.8398,0.0287,0.0128,0.5420,$GPGGA,205109.000,4041.9802,N,07421.9248,W,1,07,1.21,96.7,M,-34.2,M,,*61
144,0,-0.63,-0.25,-0.12,-0.88,0.69,0.37,-0.8398,0.0280,0.0124,0.5420,$GPGGA,205109.100,4041.9792,N,07421.9255,W,1,07,1.21,96.6,M,-34.2,M,,*6B
145,0,-0.55,0.33,-0.65,0.94,-1.62,0.31,-0.8398,0.0280,0.0126,0.5420,$GPGGA,205109.200,4041.9782,N,07421.9262,W,1,07,1.21,96.5,M,-34.2,M,,*6E
146,0,-0.23,-0.02,1.23,0.13,0.00,0.31,-0.8398,0.0279,0.0135,0.5420,$GPGGA,205109.300,4041.9773,N,07421.9269,W,1,07,1.12,96.5,M,-34.2,M,,*6A
147,0,-0.35,0.06,0.15,-0.75,-0.69,-0.19,-0.8398,0.0276,0.0129,0.5419,$GPGGA,205109.400,4041.9763,N,07421.9276,W,1,07,1.12,96.6,M,-34.2,M,,*61
148,0,-0.51,-0.01,0.08,-1.37,-0.25,-0.25,-0.8398,0.0273,0.0121,0.5420,$GPGGA,205109.500,4041.9753,N,07421.9284,W,1,07,1.21,96.6,M,-34.2,M,,*6E
149,0,-0.53,-0.40,-0.09,-0.75,-3.44,-0.19,-0.8398,0.0287,0.0118,0.5419,$GPGGA,205109.600,4041.9743,N,07421.9291,W,1,07,1.21,96.5,M,-34.2,M,,*6B
150,0,-0.51,-0.43,0.74,-1.62,-0.13,-0.13,-0.8398,0.0302,0.0126,0.5419,$GPGGA,205109.700,4041.9734,N,07421.9298,W,1,07,1.21,96.5,M,-34.2,M,,*63
151,0,-0.61,-0.20,-0.70,1.00,0.62,-0.13,-0.8398,0.0304,0.0130,0.5419,$GPGGA,205109.800,4041.9725,N,07421.9306,W,1,07,1.21,96.4,M,-34.2,M,,*6B
152,0,-1.03,-0.71,0.48,1.50,0.56,-0.19,-0.8398,0.0297,0.0115,0.5419,$GPGGA,205109.900,4041.9715,N,07421.9312,W,1,07,1.21,96.4,M,-34.2,M,,*6C
153,0,-0.20,0.20,1.03,1.12,-1.37,-0.13,-0.8399,0.0294,0.0120,0.5417,$GPGGA,205110.000,4041.9705,N,07421.9320,W,1,07,1.21,96.4,M,-34.2,M,,*6D
154,0,-0.70,0.12,-0.42,-2.75,-1.37,0.00,-0.8399,0.0305,0.0125,0.5417,$GPGGA,205110.100,4041.9696,N,07421.9327,W,1,07,1.21,96.3,M,-34.2,M,,*67
155,0,-0.36,-0.11,-0.68,-1.19,-0.62,-0.56,-0.8398,0.0320,0.0128,0.5417,$GPGGA,205110.200,4041.9686,N,07421.9334,W,1,07,1.21,96.3,M,-34.2,M,,*67
156,0,-0.83,-0.43,-0.50,-1.00,0.69,-0.37,-0.8398,0.0322,0.0117,0.5418,$GPGGA,205110.300,4041.9676,N,07421.9341,W,1,07,1.12,96.3,M,-34.2,M,,*6B
157,0,-0.39,-0.25,-0.32,0.44,0.88,0.00,-0.8398,0.0320,0.0110,0.5418,$GPGGA,205110.400,4041.9667,N,07421.9348,W,1,07,1.21,96.2,M,-34.2,M,,*64
158,0,-0.67,0.18,-0.81,-0.88,1.06,-0.13,-0.8398,0.0316,0.0090,0.5419,$GPGGA,205110.500,4041.9657,N,07421.9355,W,1,07,1.21,96.2,M,-34.2,M,,*6A
159,0,-0.78,-0.24,-0.91,0.50,-0.69,-0.06,-0.8399,0.0303,0.0065,0.5419,$GPGGA,205110.600,4041.9648,N,07421.9363,W,1,07,1.21,96.1,M,-34.2,M,,*61
160,0,-0.56,-0.20,1.18,0.94,-1.00,0.25,-0.8399,0.0300,0.0070,0.5418,$GPGGA,205110.700,4041.9638,N,07421.9370,W,1,07,1.21,96.1,M,-34.2,M,,*65
161,0,-0.24,0.36,0.13,1.25,-0.50,0.44,-0.8400,0.0295,0.0072,0.5418,$GPGGA,205110.800,4041.9628,N,07421.9377,W,1,07,1.21,96.1,M,-34.2,M,,*6C
162,0,-0.79,-0.26,-0.22,-1.44,-0.69,0.00,-0.8400,0.0298,0.0076,0.5417,$GPGGA,205110.900,4041.9619,N,07421.9385,W,1,07,1.21,96.0,M,-34.2,M,,*63
163,0,-1.02,0.33,-0.15,0.19,0.06,0.19,-0.8400,0.0303,0.0082,0.5417,$GPGGA,205111.000,4041.9609,N,07421.9392,W,1,07,1.21,96.0,M,-34.2,M,,*6C
164,0,-0.34,-0.34,0.99,1.50,2.06,0.06,-0.8400,0.0304,0.0084,0.5417,$GPGGA,205111.100,4041.9599,N,07421.9399,W,1,07,1.21,96.0,M,-34.2,M,,*6C
165,0,-0.23,0.33,-0.52,2.00,0.31,0.37,-0.8400,0.0284,0.0081,0.5417,$GPGGA,205111.200,4041.9589,N,07421.9407,W,1,07,1.21,96.0,M,-34.2,M,,*6E
166,0,-0.33,0.05,1.13,1.25,-3.12,0.56,-0.8400,0.0272,0.0101,0.5417,$GPGGA,205111.300,4041.9579,N,07421.9414,W,1,07,1.12,96.0,M,-34.2,M,,*62
167,0,-0.47,0.88,2.67,1.12,-4.44,0.56,-0.8401,0.0281,0.0136,0.5416,$GPGGA,205111.400,4041.9570,N,07421.9421,W,1,07,1.12,95.9,M,-34.2,M,,*60
168,0,-0.31,0.00,1.15,-1.44,-2.25,-0.06,-0.8400,0.0305,0.0159,0.5415,$GPGGA,205111.500,4041.9560,N,07421.9428,W,1,07,1.21,95.9,M,-34.2,M,,*69
169,0,-0.20,-0.05,-0.58,-0.37,0.50,-0.06,-0.8400,0.0312,0.0157,0.5415,$GPGGA,205111.600,4041.9551,N,07421.9435,W,1,07,1.21,95.9,M,-34.2,M,,*64
170,0,-0.66,-0.06,-0.76,0.56,1.81,0.31,-0.8400,0.0308,0.0145,0.5416,$GPGGA,205111.700,4041.9541,N,07421.9442,W,1,07,1.21,95.9,M,-34.2,M,,*64
171,0,-0.56,0.87,0.78,0.62,0.62,0.31,-0.8400,0.0303,0.0150,0.5415,$GPGGA,205111.800,4041.9531,N,07421.9449,W,1,07,1.21,95.9,M,-34.2,M,,*67
172,0,-0.52,0.06,0.21,-0.56,-0.37,0.31,-0.8400,0.0319,0.0149,0.5415,$GPGGA,205111.900,4041.9522,N,07421.9456,W,1,07,1.21,95.9,M,-34.2,M,,*6A
173,0,-0.77,0.20,-0.55,-1.00,1.00,0.00,-0.8399,0.0330,0.0145,0.5415,$GPGGA,205112.000,4041.9512,N,07421.9463,W,1,07,1.21,95.9,M,-34.2,M,,*65
174,0,-0.52,-0.02,-1.00,0.37,0.75,-0.06,-0.8400,0.0321,0.0132,0.5416,$GPGGA,205112.100,4041.9502,N,07421.9470,W,1,07,1.21,96.0,M,-34.2,M,,*6D
175,0,-0.74,-0.18,0.32,2.06,-0.75,0.56,-0.8400,0.0313,0.0145,0.5415,$GPGGA,205112.200,4041.9492,N,07421.9476,W,1,07,1.21,96.0,M,-34.2,M,,*60
176,0,0.04,0.62,0.66,1.50,-3.31,0.44,-0.8403,0.0303,0.0159,0.5411,$GPGGA,205112.300,4041.9483,N,07421.9483,W,1,07,1.12,96.0,M,-34.2,M,,*6B
177,0,-0.97,0.37,0.46,1.06,-1.37,0.31,-0.8403,0.0303,0.0175,0.5411,$GPGGA,205112.400,4041.9473,N,07421.9490,W,1,07,1.21,96.0,M,-34.2,M,,*61
178,0,-0.57,0.18,-0.05,-0.19,-0.44,0.06,-0.8402,0.0311,0.0179,0.5410,$GPGGA,205112.500,4041.9463,N,07421.9496,W,1,07,1.21,96.1,M,-34.2,M,,*66
179,0,-0.45,0.11,0.29,-0.25,0.75,-0.13,-0.8402,0.0311,0.0179,0.5410,$GPGGA,205112.600,4041.9454,N,07421.9504,W,1,07,1.21,96.1,M,-34.2,M,,*6B
180,0,-0.39,0.09,-0.34,-0.25,-1.12,-0.31,-0.8402,0.0311,0.0178,0.5410,$GPGGA,205112.700,4041.9444,N,07421.9511,W,1,07,1.21,96.1,M,-34.2,M,,*6F
181,0,-0.52,0.00,0.91,-0.06,-0.25,-0.25,-0.8402,0.0312,0.0176,0.5410,$GPGGA,205112.800,4041.9434,N,07421.9518,W,1,07,1.21,96.1,M,-34.2,M,,*6E
182,0,-0.21,-0.04,-0.13,0.81,-0.81,-0.19,-0.8403,0.0312,0.0168,0.5410,$GPGGA,205112.900,4041.9424,N,07421.9525,W,1,07,1.21,96.2,M,-34.2,M,,*63
183,0,-0.73,-0.06,-0.04,0.69,1.50,-0.06,-0.8403,0.0311,0.0167,0.5410,$GPGGA,205113.000,4041.9415,N,07421.9532,W,1,07,1.21,96.2,M,-34.2,M,,*6F
184,0,-0.30,0.06,-0.13,0.31,2.06,-0.06,-0.8403,0.0302,0.0152,0.5410,$GPGGA,205113.100,4041.9405,N,07421.9539,W,1,07,1.21,96.2,M,-34.2,M,,*64
185,0,-0.66,-0.19,-0.17,-0.25,-0.31,0.06,-0.8403,0.0295,0.0139,0.5411,$GPGGA,205113.200,4041.9395,N,07421.9546,W,1,07,1.21,96.2,M,-34.2,M,,*61
186,0,-0.22,0.00,0.73,0.88,-1.25,0.00,-0.8404,0.0288,0.0132,0.5410,$GPGGA,205113.300,4041.9386,N,07421.9553,W,1,07,1.21,96.2,M,-34.2,M,,*66
187,0,-0.41,0.11,0.68,0.31,-0.50,-0.06,-0.8404,0.0287,0.0132,0.5410,$GPGGA,205113.400,4041.9376,N,07421.9560,W,1,07,1.21,96.3,M,-34.2,M,,*6F
188,0,-0.71,-0.27,-0.79,-0.13,-1.56,-0.19,-0.8405,0.0284,0.0133,0.5410,$GPGGA,205113.500,4041.9367,N,07421.9567,W,1,07,1.21,96.3,M,-34.2,M,,*69
189,0,0.00,-0.16,0.57,0.13,-0.44,-0.06,-0.8405,0.0280,0.0127,0.5410,$GPGGA,205113.600,4041.9357,N,07421.9574,W,1,07,1.21,96.3,M,-34.2,M,,*6B
190,0,-0.52,0.43,-0.85,-0.75,0.25,-0.13,-0.8405,0.0283,0.0117,0.5410,$GPGGA,205113.700,4041.9348,N,07421.9581,W,1,07,1.21,96.3,M,-34.2,M,,*6E
191,0,-0.52,0.27,0.07,-0.88,0.56,-0.19,-0.8405,0.0279,0.0101,0.5411,$GPGGA,205113.800,4041.9338,N,07421.9588,W,1,07,1.21,96.4,M,-34.2,M,,*68
192,0,-0.62,0.08,-0.53,0.00,1.37,-0.19,-0.8405,0.0280,0.0091,0.5411,$GPGGA,205113.900,4041.9329,N,07421.9595,W,1,07,1.21,96.4,M,-34.2,M,,*65
193,0,-0.56,0.29,0.00,-0.37,-1.31,-0.06,-0.8405,0.0283,0.0084,0.5411,$GPGGA,205114.000,4041.9319,N,07421.9602,W,1,07,1.21,96.4,M,-34.2,M,,*65
194,0,-0.27,-0.12,-0.66,-0.31,-0.75,-0.13,-0.8405,0.0283,0.0082,0.5411,$GPGGA,205114.100,4041.9310,N,07421.9609,W,1,07,1.21,96.4,M,-34.2,M,,*66
195,0,-0.66,0.33,-0.40,-1.31,-1.87,-0.19,-0.8405,0.0287,0.0081,0.5411,$GPGGA,205114.200,4041.9301,N,07421.9616,W,1,07,1.21,96.4,M,-34.2,M,,*6B
196,0,-0.51,-0.46,-0.13,1.19,-0.06,-0.06,-0.8405,0.0283,0.0081,0.5411,$GPGGA,205114.300,4041.9291,N,07421.9624,W,1,07,1.12,96.5,M,-34.2,M,,*62
197,0,-0.39,-0.02,-0.91,0.13,-0.62,0.00,-0.8405,0.0280,0.0087,0.5411,$GPGGA,205114.400,4041.9282,N,07421.9631,W,1,07,1.12,96.5,M,-34.2,M,,*63
198,0,-0.38,0.02,0.81,0.50,-0.13,0.00,-0.8405,0.0280,0.0091,0.5411,$GPGGA,205114.500,4041.9273,N,07421.9638,W,1,07,1.21,96.5,M,-34.2,M,,*65
199,0,-0.56,0.09,0.05,-0.44,-0.37,-0.25,-0.8405,0.0281,0.0089,0.5411,$GPGGA,205114.600,4041.9264,N,07421.9645,W,1,07,1.21,96.5,M,-34.2,M,,*6A
200,0,-0.47,0.09,-0.91,0.19,0.69,-0.13,-0.8405,0.0282,0.0079,0.5411,$GPGGA,205114.700,4041.9254,N,07421.9652,W,1,07,1.21,96.5,M,-34.2,M,,*6E
201,0,-0.44,-0.54,0.47,-0.25,-0.13,0.00,-0.8405,0.0283,0.0083,0.5411,$GPGGA,205114.800,4041.9245,N,07421.9659,W,1,07,1.21,96.6,M,-34.2,M,,*69
202,0,-0.28,0.11,-0.84,0.62,0.25,-0.06,-0.8405,0.0284,0.0084,0.5411,$GPGGA,205114.900,4041.9236,N,07421.9666,W,1,07,1.21,96.6,M,-34.2,M,,*60
203,0,-0.02,-0.09,-0.81,-0.13,1.69,-0.19,-0.8405,0.0283,0.0078,0.5411,$GPGGA,205115.000,4041.9227,N,07421.9673,W,1,07,1.21,96.6,M,-34.2,M,,*6C
204,0,-0.64,-0.40,-1.01,0.94,0.56,0.06,-0.8405,0.0278,0.0078,0.5411,$GPGGA,205115.100,4041.9217,N,07421.9680,W,1,07,1.21,96.7,M,-34.2,M,,*63
205,0,0.22,0.38,0.11,0.19,2.12,0.13,-0.8405,0.0269,0.0074,0.5411,$GPGGA,205115.200,4041.9208,N,07421.9687,W,1,07,1.21,96.7,M,-34.2,M,,*69
206,0,-0.24,-0.10,-1.02,-0.25,-0.06,-0.13,-0.8405,0.0269,0.0070,0.5411,$GPGGA,205115.300,4041.9199,N,07421.9694,W,1,07,1.12,96.8,M,-34.2,M,,*6E
207,0,-0.07,0.27,-0.06,-1.25,0.06,-0.50,-0.8405,0.0274,0.0064,0.5411,$GPGGA,205115.400,4041.9190,N,07421.9701,W,1,07,1.12,96.8,M,-34.2,M,,*6D
208,0,0.03,-0.49,-0.59,-0.50,1.62,-0.25,-0.8405,0.0273,0.0057,0.5411,$GPGGA,205115.500,4041.9181,N,07421.9708,W,1,07,1.12,96.8,M,-34.2,M,,*65
209,0,-0.30,-0.24,-0.16,-1.37,0.25,-0.25,-0.8405,0.0281,0.0051,0.5411,$GPGGA,205115.600,4041.9172,N,07421.9715,W,1,07,1.21,96.8,M,-34.2,M,,*66
210,0,0.38,0.27,-0.44,-2.12,0.69,-0.56,-0.8405,0.0286,0.0042,0.5411,$GPGGA,205115.700,4041.9163,N,07421.9722,W,1,07,1.21,96.9,M,-34.2,M,,*62
211,0,0.05,0.03,0.07,-0.44,-1.56,-0.37,-0.8403,0.0297,0.0028,0.5413,$GPGGA,205115.800,4041.9154,N,07421.9729,W,1,07,1.21,96.9,M,-34.2,M,,*62
212,0,-0.11,-0.19,-0.92,-0.62,2.06,-0.37,-0.8403,0.0300,0.0020,0.5414,$GPGGA,205115.900,4041.9145,N,07421.9736,W,1,07,1.21,97.0,M,-34.2,M,,*65
213,0,-0.13,-0.31,0.27,0.81,-0.13,-0.31,-0.8402,0.0299,0.0015,0.5414,$GPGGA,205116.000,4041.9135,N,07421.9743,W,1,07,1.21,97.0,M,-34.2,M,,*6A
214,0,0.16,-0.08,-0.86,0.50,2.12,0.13,-0.8403,0.0294,0.0012,0.5414,$GPGGA,205116.100,4041.9126,N,07421.9750,W,1,07,1.21,97.1,M,-34.2,M,,*6A
215,0,-0.65,-0.46,0.06,1.69,0.19,-0.31,-0.8403,0.0286,0.0013,0.5414,$GPGGA,205116.200,4041.9116,N,07421.9757,W,1,07,1.21,97.1,M,-34.2,M,,*6D
216,0,-0.19,0.01,-0.99,-1.87,0.44,-0.44,-0.8403,0.0285,0.0010,0.5414,$GPGGA,205116.300,4041.9107,N,07421.9764,W,1,07,1.12,97.1,M,-34.2,M,,*6C
217,0,0.40,0.12,0.08,-2.06,0.69,-0.50,-0.8403,0.0289,-0.0002,0.5414,$GPGGA,205116.400,4041.9098,N,07421.9771,W,1,07,1.12,97.2,M,-34.2,M,,*6B
218,0,-0.49,-0.02,-1.39,-1.06,-1.62,-0.37,-0.8402,0.0298,-0.0009,0.5414,$GPGGA,205116.500,4041.9089,N,07421.9779,W,1,07,1.21,97.2,M,-34.2,M,,*62
219,0,-0.07,-0.83,1.23,1.75,-0.50,0.13,-0.8402,0.0299,-0.0013,0.5414,$GPGGA,205116.600,4041.9079,N,07421.9786,W,1,07,1.21,97.2,M,-34.2,M,,*6E
220,0,-0.45,0.06,0.36,-0.44,-1.37,0.25,-0.8402,0.0300,-0.0002,0.5414,$GPGGA,205116.700,4041.9070,N,07421.9793,W,1,07,1.21,97.3,M,-34.2,M,,*63
221,0,0.20,0.19,0.28,1.94,-0.44,0.25,-0.8403,0.0295,0.0015,0.5414,$GPGGA,205116.800,4041.9061,N,07421.9800,W,1,07,1.21,97.3,M,-34.2,M,,*69
222,0,-0.24,0.02,-1.80,0.94,-1.75,0.62,-0.8403,0.0285,0.0027,0.5413,$GPGGA,205116.900,4041.9051,N,07421.9808,W,1,07,1.21,97.3,M,-34.2,M,,*63
223,0,-0.15,3.12,1.28,1.19,7.19,1.12,-0.8407,0.0286,0.0021,0.5407,$GPGGA,205117.000,4041.9041,N,07421.9815,W,1,07,1.21,97.4,M,-34.2,M,,*61
224,0,-0.60,1.29,-1.26,-1.56,8.00,0.00,-0.8408,0.0284,-0.0021,0.5406,$GPGGA,205117.100,4041.9032,N,07421.9823,W,1,07,1.21,97.4,M,-34.2,M,,*61
225,0,1.28,0.59,-1.19,-0.88,1.56,0.25,-0.8406,0.0279,-0.0040,0.5409,$GPGGA,205117.200,4041.9022,N,07421.9830,W,1,07,1.21,97.4,M,-34.2,M,,*61
226,0,-0.74,0.77,-0.87,1.94,1.25,1.62,-0.8408,0.0269,-0.0036,0.5407,$GPGGA,205117.300,4041.9012,N,07421.9838,W,1,07,1.12,97.5,M,-34.2,M,,*6A
227,0,-0.23,1.04,1.72,2.56,-0.62,0.88,-0.8412,0.0275,-0.0024,0.5400,$GPGGA,205117.400,4041.9003,N,07421.9845,W,1,07,1.12,97.5,M,-34.2,M,,*67
228,0,-0.08,0.06,0.54,-0.37,1.94,0.00,-0.8412,0.0277,-0.0021,0.5399,$GPGGA,205117.500,4041.8993,N,07421.9852,W,1,07,1.21,97.5,M,-34.2,M,,*61
229,0,-0.26,0.10,-1.83,0.62,4.06,-0.31,-0.8412,0.0256,-0.0049,0.5400,$GPGGA,205117.600,4041.8983,N,07421.9860,W,1,07,1.21,97.5,M,-34.2,M,,*62
230,0,-0.27,0.01,0.64,1.19,-4.31,0.19,-0.8413,0.0256,-0.0046,0.5400,$GPGGA,205117.700,4041.8973,N,07421.9867,W,1,07,1.21,97.6,M,-34.2,M,,*68
231,0,0.32,0.30,0.65,1.44,-2.75,0.25,-0.8413,0.0264,-0.0018,0.5399,$GPGGA,205117.800,4041.8963,N,07421.9874,W,1,07,1.21,97.6,M,-34.2,M,,*64
232,0,-0.32,-0.06,0.00,0.00,2.50,0.19,-0.8414,0.0254,-0.0017,0.5399,$GPGGA,205117.900,4041.8954,N,07421.9881,W,1,07,1.21,97.7,M,-34.2,M,,*6A
233,0,-0.56,0.13,-1.14,-1.19,2.25,0.00,-0.8414,0.0245,-0.0041,0.5399,$GPGGA,205118.000,4041.8944,N,07421.9888,W,1,07,1.21,97.7,M,-34.2,M,,*64
234,0,-0.33,-0.52,-1.03,-0.75,1.75,0.06,-0.8413,0.0238,-0.0059,0.5400,$GPGGA,205118.100,4041.8934,N,07421.9895,W,1,07,1.21,97.8,M,-34.2,M,,*61
235,0,-0.28,-0.23,-0.04,0.50,-1.62,0.25,-0.8413,0.0234,-0.0060,0.5400,$GPGGA,205118.200,4041.8925,N,07421.9901,W,1,07,1.21,97.8,M,-34.2,M,,*6E
236,0,-0.03,-0.86,1.00,-0.94,-0.44,0.00,-0.8414,0.0232,-0.0052,0.5400,$GPGGA,205118.300,4041.8915,N,07421.9908,W,1,07,1.12,97.8,M,-34.2,M,,*65
237,0,-0.15,0.26,0.14,-3.50,0.25,-0.50,-0.8413,0.0247,-0.0066,0.5400,$GPGGA,205118.400,4041.8906,N,07421.9915,W,1,07,1.12,97.9,M,-34.2,M,,*6D
238,0,-0.63,-0.55,-0.25,-6.37,1.87,-1.37,-0.8408,0.0276,-0.0099,0.5406,$GPGGA,205118.500,4041.8896,N,07421.9923,W,1,07,1.21,97.9,M,-34.2,M,,*61
239,0,-0.11,0.12,-0.44,-5.00,0.13,-1.25,-0.8400,0.0307,-0.0121,0.5416,$GPGGA,205118.600,4041.8887,N,07421.9929,W,1,07,1.21,97.9,M,-34.2,M,,*68
240,0,-0.71,-0.65,-0.17,2.37,2.50,-0.75,-0.8395,0.0319,-0.0135,0.5422,$GPGGA,205118.700,4041.8877,N,07421.9937,W,1,07,1.21,98.0,M,-34.2,M,,*6F
241,0,-0.23,-1.01,-0.19,4.00,-0.50,-0.13,-0.8394,0.0309,-0.0128,0.5425,$GPGGA,205118.800,4041.8868,N,07421.9944,W,1,07,1.21,98.0,M,-34.2,M,,*6A
242,0,-0.57,-0.04,0.63,2.94,4.37,-0.13,-0.8395,0.0258,-0.0112,0.5426,$GPGGA,205118.900,4041.8859,N,07421.9951,W,1,07,1.21,98.0,M,-34.2,M,,*6D
243,0,-0.42,-0.37,-0.72,1.81,-0.56,-0.81,-0.8394,0.0230,-0.0110,0.5429,$GPGGA,205119.000,4041.8849,N,07421.9958,W,1,07,1.21,98.0,M,-34.2,M,,*6D
244,0,-0.84,0.69,1.91,0.31,-0.50,-1.31,-0.8389,0.0241,-0.0103,0.5436,$GPGGA,205119.100,4041.8840,N,07421.9966,W,1,07,1.21,98.1,M,-34.2,M,,*69
245,0,-1.06,-0.38,0.02,3.25,-1.00,-1.19,-0.8384,0.0249,-0.0092,0.5444,$GPGGA,205119.200,4041.8830,N,07421.9973,W,1,07,1.21,98.1,M,-34.2,M,,*69
246,0,-0.04,-0.16,0.22,-2.62,-0.06,-0.50,-0.8380,0.0273,-0.0089,0.5449,$GPGGA,205119.300,4041.8820,N,07421.9981,W,1,07,1.12,98.1,M,-34.2,M,,*64
247,0,-0.30,0.73,-0.93,-1.69,3.12,-0.94,-0.8376,0.0279,-0.0115,0.5453,$GPGGA,205119.400,4041.8811,N,07421.9988,W,1,07,1.12,98.2,M,-34.2,M,,*6B
248,0,-0.30,-0.69,-1.09,-2.25,3.19,-1.31,-0.8370,0.0287,-0.0163,0.5463,$GPGGA,205119.500,4041.8801,N,07421.9996,W,1,07,1.21,98.2,M,-34.2,M,,*64
249,0,-0.14,-0.20,-0.86,3.12,1.69,-0.50,-0.8367,0.0273,-0.0178,0.5468,$GPGGA,205119.600,4041.8792,N,07422.0003,W,1,07,1.21,98.2,M,-34.2,M,,*6D
250,0,-0.67,0.12,1.48,5.50,0.50,1.06,-0.8368,0.0242,-0.0170,0.5467,$GPGGA,205119.700,4041.8782,N,07422.0011,W,1,07,1.21,98.2,M,-34.2,M,,*6E
251,0,-0.41,0.43,0.81,2.19,-1.37,0.94,-0.8374,0.0224,-0.0137,0.5460,$GPGGA,205119.800,4041.8773,N,07422.0018,W,1,07,1.21,98.2,M,-34.2,M,,*66
252,0,-0.17,0.45,0.08,-1.87,-0.56,0.88,-0.8378,0.0220,-0.0130,0.5453,$GPGGA,205119.900,4041.8763,N,07422.0025,W,1,07,1.21,98.2,M,-34.2,M,,*68
253,0,-0.20,0.05,-1.08,-0.50,-1.00,0.31,-0.8379,0.0215,-0.0140,0.5453,$GPGGA,205120.000,4041.8753,N,07422.0033,W,1,07,1.21,98.2,M,-34.2,M,,*6F
254,0,-0.80,0.02,0.44,0.69,0.44,0.19,-0.8378,0.0219,-0.0146,0.5453,$GPGGA,205120.100,4041.8743,N,07422.0040,W,1,07,1.21,98.2,M,-34.2,M,,*6B
255,0,-0.39,0.18,0.35,-2.25,-0.69,-0.13,-0.8378,0.0226,-0.0146,0.5452,$GPGGA,205120.200,4041.8734,N,07422.0047,W,1,07,1.21,98.2,M,-34.2,M,,*6F
256,0,0.00,0.86,1.29,0.13,-1.56,-0.19,-0.8378,0.0231,-0.0143,0.5452,$GPGGA,205120.300,4041.8724,N,07422.0054,W,1,07,1.12,98.2,M,-34.2,M,,*6D
257,0,-0.99,-0.32,-1.37,0.69,-0.25,0.19,-0.8378,0.0226,-0.0154,0.5452,$GPGGA,205120.400,4041.8714,N,07422.0061,W,1,07,1.21,98.2,M,-34.2,M,,*6F
258,0,-0.08,-0.30,-0.11,1.44,0.88,0.31,-0.8378,0.0213,-0.0157,0.5453,$GPGGA,205120.500,4041.8705,N,07422.0068,W,1,07,1.21,98.2,M,-34.2,M,,*67
259,0,-0.31,0.29,-1.37,-1.50,-0.62,0.56,-0.8380,0.0206,-0.0166,0.5450,$GPGGA,205120.600,4041.8695,N,07422.0075,W,1,07,1.21,98.2,M,-34.2,M,,*60
260,0,-0.98,0.37,2.47,0.37,0.81,0.31,-0.8383,0.0214,-0.0159,0.5447,$GPGGA,205120.700,4041.8686,N,07422.0083,W,1,07,1.21,98.2,M,-34.2,M,,*6A
261,0,0.12,1.13,0.04,-5.62,-3.94,0.13,-0.8382,0.0242,-0.0161,0.5446,$GPGGA,205120.800,4041.8676,N,07422.0090,W,1,07,1.21,98.2,M,-34.2,M,,*68
262,0,-0.06,-1.06,1.40,-1.19,2.25,0.50,-0.8383,0.0253,-0.0173,0.5444,$GPGGA,205120.900,4041.8666,N,07422.0097,W,1,07,1.21,98.2,M,-34.2,M,,*6F
263,0,-1.81,-2.49,-3.22,3.69,4.44,-0.13,-0.8386,0.0210,-0.0172,0.5441,$GPGGA,205121.000,4041.8656,N,07422.0103,W,1,07,1.21,98.3,M,-34.2,M,,*69
264,0,-0.75,-1.10,0.79,0.37,-3.62,1.62,-0.8391,0.0176,-0.0138,0.5435,$GPGGA,205121.100,4041.8646,N,07422.0109,W,1,07,1.21,98.3,M,-34.2,M,,*63
265,0,-1.24,0.04,0.57,-7.00,0.50,1.19,-0.8397,0.0223,-0.0132,0.5424,$GPGGA,205121.200,4041.8637,N,07422.0116,W,1,07,1.21,98.4,M,-34.2,M,,*6F
266,0,-0.70,-0.25,-1.81,-4.56,3.00,-0.75,-0.8395,0.0245,-0.0161,0.5425,$GPGGA,205121.300,4041.8627,N,07422.0122,W,1,07,1.12,98.4,M,-34.2,M,,*68
267,0,-0.73,-0.57,-1.41,-1.25,1.50,-0.19,-0.8393,0.0243,-0.0200,0.5428,$GPGGA,205121.400,4041.8617,N,07422.0129,W,1,07,1.12,98.4,M,-34.2,M,,*67
268,0,-0.82,-0.32,-0.03,2.31,1.12,1.12,-0.8394,0.0229,-0.0203,0.5426,$GPGGA,205121.500,4041.8608,N,07422.0136,W,1,07,1.21,98.4,M,-34.2,M,,*66
269,0,-0.42,0.00,0.57,2.06,-1.31,0.94,-0.8400,0.0215,-0.0192,0.5418,$GPGGA,205121.600,4041.8598,N,07422.0143,W,1,07,1.21,98.4,M,-34.2,M,,*6D
270,0,-0.50,0.54,0.02,-0.56,0.06,0.62,-0.8403,0.0210,-0.0181,0.5415,$GPGGA,205121.700,4041.8588,N,07422.0149,W,1,07,1.21,98.5,M,-34.2,M,,*66
271,0,-0.23,0.67,-0.40,0.56,-0.50,0.44,-0.8403,0.0207,-0.0184,0.5415,$GPGGA,205121.800,4041.8579,N,07422.0156,W,1,07,1.21,98.5,M,-34.2,M,,*69
272,0,-0.45,0.30,-0.81,-0.44,2.44,0.37,-0.8402,0.0189,-0.0202,0.5415,$GPGGA,205121.900,4041.8569,N,07422.0162,W,1,07,1.21,98.5,M,-34.2,M,,*6E
273,0,-0.54,0.56,-1.26,1.31,1.50,0.62,-0.8402,0.0175,-0.0216,0.5415,$GPGGA,205122.000,4041.8560,N,07422.0169,W,1,07,1.21,98.6,M,-34.2,M,,*65
274,0,-0.34,0.39,0.06,0.44,0.62,0.62,-0.8405,0.0168,-0.0217,0.5412,$GPGGA,205122.100,4041.8550,N,07422.0176,W,1,07,1.21,98.6,M,-34.2,M,,*69
275,0,-0.57,0.13,-0.16,0.50,0.25,0.25,-0.8405,0.0150,-0.0229,0.5411,$GPGGA,205122.200,4041.8541,N,07422.0183,W,1,07,1.21,98.6,M,-34.2,M,,*60
276,0,-0.31,0.09,0.20,-0.31,-1.19,-0.31,-0.8406,0.0137,-0.0238,0.5410,$GPGGA,205122.300,4041.8531,N,07422.0189,W,1,07,1.12,98.6,M,-34.2,M,,*6C
277,0,-0.35,-0.75,0.03,-2.37,0.19,-0.75,-0.8403,0.0132,-0.0251,0.5413,$GPGGA,205122.400,4041.8522,N,07422.0196,W,1,07,1.21,98.6,M,-34.2,M,,*67
278,0,-0.38,0.01,0.12,-2.12,-0.44,-0.88,-0.8400,0.0136,-0.0252,0.5419,$GPGGA,205122.500,4041.8513,N,07422.0203,W,1,07,1.21,98.7,M,-34.2,M,,*6A
279,0,-0.40,-0.40,-0.01,-0.62,0.56,-1.12,-0.8394,0.0146,-0.0263,0.5427,$GPGGA,205122.600,4041.8503,N,07422.0210,W,1,07,1.21,98.7,M,-34.2,M,,*6A
280,0,-0.15,-0.27,-0.20,-0.13,0.75,-1.37,-0.8389,0.0149,-0.0270,0.5435,$GPGGA,205122.700,4041.8494,N,07422.0217,W,1,07,1.21,98.7,M,-34.2,M,,*63
281,0,-0.22,-0.11,-0.73,1.06,0.94,-1.31,-0.8383,0.0146,-0.0277,0.5444,$GPGGA,205122.800,4041.8485,N,07422.0224,W,1,07,1.21,98.7,M,-34.2,M,,*6C
282,0,-0.30,-0.02,-0.07,0.69,0.75,-1.00,-0.8377,0.0132,-0.0278,0.5452,$GPGGA,205122.900,4041.8476,N,07422.0230,W,1,07,1.21,98.7,M,-34.2,M,,*64
283,0,-0.52,-0.32,-0.10,-0.31,1.19,-1.50,-0.8371,0.0135,-0.0300,0.5461,$GPGGA,205123.000,4041.8467,N,07422.0237,W,1,07,1.21,98.7,M,-34.2,M,,*6B
284,0,-0.22,-0.34,0.07,-1.00,0.56,-1.81,-0.8363,0.0143,-0.0310,0.5472,$GPGGA,205123.100,4041.8458,N,07422.0244,W,1,07,1.21,98.7,M,-34.2,M,,*62
285,0,0.02,-0.56,-0.96,-0.81,-0.81,-2.00,-0.8353,0.0151,-0.0323,0.5486,$GPGGA,205123.200,4041.8449,N,07422.0251,W,1,07,1.21,98.7,M,-34.2,M,,*65
286,0,-0.30,-0.56,-0.47,0.88,0.94,-1.56,-0.8345,0.0150,-0.0333,0.5498,$GPGGA,205123.300,4041.8439,N,07422.0258,W,1,07,1.12,98.7,M,-34.2,M,,*6A
287,0,-0.11,0.00,-0.23,1.31,1.19,-1.56,-0.8337,0.0152,-0.0354,0.5509,$GPGGA,205123.400,4041.8430,N,07422.0265,W,1,07,1.12,98.7,M,-34.2,M,,*6A
288,0,-0.42,0.03,-0.54,1.25,0.56,-1.25,-0.8330,0.0148,-0.0355,0.5519,$GPGGA,205123.500,4041.8421,N,07422.0271,W,1,07,1.21,98.7,M,-34.2,M,,*6E
289,0,0.17,-0.26,0.22,1.50,0.37,-1.25,-0.8325,0.0142,-0.0353,0.5528,$GPGGA,205123.600,4041.8412,N,07422.0278,W,1,07,1.21,98.7,M,-34.2,M,,*64
290,0,0.16,-0.68,-0.42,-0.19,-0.50,-1.50,-0.8318,0.0142,-0.0355,0.5538,$GPGGA,205123.700,4041.8403,N,07422.0285,W,1,07,1.21,98.7,M,-34.2,M,,*67
291,0,0.12,-0.75,-0.30,0.94,-0.69,-1.56,-0.8311,0.0132,-0.0355,0.5549,$GPGGA,205123.800,4041.8394,N,07422.0292,W,1,07,1.21,98.7,M,-34.2,M,,*67
292,0,0.31,-0.30,-0.42,0.44,-0.37,-1.62,-0.8303,0.0141,-0.0366,0.5560,$GPGGA,205123.900,4041.8385,N,07422.0299,W,1,07,1.21,98.8,M,-34.2,M,,*62
293,0,-0.20,-0.09,-0.54,0.25,0.69,-1.94,-0.8293,0.0140,-0.0370,0.5574,$GPGGA,205124.000,4041.8376,N,07422.0305,W,1,07,1.21,98.8,M,-34.2,M,,*64
294,0,-0.12,-0.06,-0.08,1.12,-0.06,-2.37,-0.8282,0.0151,-0.0377,0.5588,$GPGGA,205124.100,4041.8366,N,07422.0312,W,1,07,1.21,98.9,M,-34.2,M,,*63
295,0,0.00,-0.65,0.29,0.00,0.31,-2.31,-0.8271,0.0159,-0.0381,0.5605,$GPGGA,205124.200,4041.8357,N,07422.0319,W,1,07,1.21,98.9,M,-34.2,M,,*69
296,0,-0.10,-0.60,0.19,-0.44,0.37,-2.31,-0.8259,0.0179,-0.0390,0.5621,$GPGGA,205124.300,4041.8348,N,07422.0326,W,1,07,1.12,98.9,M,-34.2,M,,*6A
297,0,0.00,-0.49,-0.04,0.56,-1.00,-2.19,-0.8248,0.0181,-0.0383,0.5638,$GPGGA,205124.400,4041.8339,N,07422.0333,W,1,07,1.12,98.8,M,-34.2,M,,*6E
298,0,0.37,-0.63,0.01,1.81,-1.37,-2.37,-0.8237,0.0188,-0.0380,0.5654,$GPGGA,205124.500,4041.8330,N,07422.0340,W,1,07,1.12,98.8,M,-34.2,M,,*62
299,0,0.27,-0.47,-0.47,3.00,-0.19,-2.12,-0.8227,0.0169,-0.0369,0.5671,$GPGGA,205124.600,4041.8321,N,07422.0348,W,1,07,1.21,98.8,M,-34.2,M,,*69
300,0,0.14,0.09,-0.48,3.00,0.81,-2.12,-0.8217,0.0148,-0.0361,0.5686,$GPGGA,205124.700,4041.8312,N,07422.0355,W,1,07,1.21,98.8,M,-34.2,M,,*64
301,0,0.36,0.23,-0.05,0.88,-0.31,-2.25,-0.8207,0.0137,-0.0359,0.5701,$GPGGA,205124.800,4041.8303,N,07422.0363,W,1,07,1.21,98.8,M,-34.2,M,,*6E
302,0,-0.12,-1.00,0.40,-0.81,0.19,-3.00,-0.8194,0.0136,-0.0356,0.5720,$GPGGA,205124.900,4041.8294,N,07422.0370,W,1,07,1.21,98.8,M,-34.2,M,,*62
303,0,-0.09,-0.88,0.28,-0.13,-1.25,-3.12,-0.8179,0.0148,-0.0358,0.5742,$GPGGA,205125.000,4041.8286,N,07422.0378,W,1,07,1.21,98.8,M,-34.2,M,,*61
304,0,0.03,-1.39,1.16,-0.75,-3.87,-3.62,-0.8161,0.0163,-0.0338,0.5767,$GPGGA,205125.100,4041.8277,N,07422.0386,W,1,07,1.21,98.8,M,-34.2,M,,*6F
305,0,0.16,-1.33,0.26,-0.06,-1.50,-4.25,-0.8141,0.0170,-0.0325,0.5795,$GPGGA,205125.200,4041.8268,N,07422.0394,W,1,07,1.21,98.8,M,-34.2,M,,*61
306,0,0.00,-0.49,-0.25,0.37,-1.37,-4.06,-0.8121,0.0189,-0.0333,0.5823,$GPGGA,205125.300,4041.8259,N,07422.0401,W,1,07,1.12,98.7,M,-34.2,M,,*66
307,0,0.00,-0.37,-0.20,0.62,-0.37,-3.94,-0.8099,0.0226,-0.0356,0.5850,$GPGGA,205125.400,4041.8250,N,07422.0409,W,1,07,1.12,98.7,M,-34.2,M,,*60
308,0,-0.07,-0.21,-0.10,2.19,0.56,-4.31,-0.8079,0.0229,-0.0353,0.5879,$GPGGA,205125.500,4041.8241,N,07422.0417,W,1,07,1.12,98.7,M,-34.2,M,,*6E
309,0,-0.32,-0.29,-0.31,2.37,-0.06,-4.50,-0.8056,0.0228,-0.0339,0.5910,$GPGGA,205125.600,4041.8232,N,07422.0425,W,1,07,1.12,98.7,M,-34.2,M,,*68
310,0,0.01,-0.36,0.40,0.69,-0.81,-4.56,-0.8032,0.0249,-0.0342,0.5942,$GPGGA,205125.700,4041.8223,N,07422.0433,W,1,07,1.21,98.6,M,-34.2,M,,*6F
311,0,-0.37,-0.81,0.08,0.62,0.19,-5.12,-0.8007,0.0280,-0.0353,0.5975,$GPGGA,205125.800,4041.8214,N,07422.0441,W,1,07,1.21,98.6,M,-34.2,M,,*61
312,0,0.22,-0.27,-0.08,0.88,-1.00,-5.19,-0.7980,0.0286,-0.0347,0.6009,$GPGGA,205125.900,4041.8205,N,07422.0450,W,1,07,1.21,98.6,M,-34.2,M,,*60
313,0,-0.06,-0.55,-0.05,-0.06,-0.25,-5.06,-0.7953,0.0314,-0.0365,0.6043,$GPGGA,205126.000,4041.8197,N,07422.0458,W,1,07,1.21,98.5,M,-34.2,M,,*69
314,0,-0.23,-0.24,0.28,0.69,-0.44,-4.94,-0.7927,0.0321,-0.0362,0.6076,$GPGGA,205126.100,4041.8188,N,07422.0466,W,1,07,1.21,98.5,M,-34.2,M,,*6B
315,0,-0.08,-0.30,0.55,-0.19,-0.31,-4.50,-0.7902,0.0327,-0.0358,0.6109,$GPGGA,205126.200,4041.8179,N,07422.0475,W,1,07,1.21,98.5,M,-34.2,M,,*64
316,0,-0.03,0.02,-0.01,-1.44,-1.94,-4.25,-0.7878,0.0334,-0.0361,0.6139,$GPGGA,205126.300,4041.8171,N,07422.0483,W,1,07,1.12,98.4,M,-34.2,M,,*65
317,0,-0.05,-0.04,-0.23,1.25,-0.50,-3.94,-0.7858,0.0338,-0.0353,0.6166,$GPGGA,205126.400,4041.8162,N,07422.0491,W,1,07,1.12,98.4,M,-34.2,M,,*63
318,0,-0.24,-0.17,-0.14,3.19,1.31,-3.94,-0.7838,0.0326,-0.0343,0.6193,$GPGGA,205126.500,4041.8154,N,07422.0500,W,1,07,1.12,98.4,M,-34.2,M,,*6E
319,0,-0.04,-0.45,-0.16,0.56,-2.00,-3.87,-0.7817,0.0325,-0.0327,0.6219,$GPGGA,205126.600,4041.8146,N,07422.0508,W,1,07,1.21,98.3,M,-34.2,M,,*61
320,0,0.04,0.16,-0.37,-0.19,-1.12,-3.94,-0.7797,0.0328,-0.0315,0.6245,$GPGGA,205126.700,4041.8137,N,07422.0517,W,1,07,1.21,98.3,M,-34.2,M,,*68
321,0,0.11,-0.35,-0.75,-1.25,-1.00,-4.12,-0.7775,0.0331,-0.0312,0.6272,$GPGGA,205126.800,4041.8130,N,07422.0526,W,1,07,1.21,98.3,M,-34.2,M,,*62
322,0,-0.14,-0.46,0.30,-1.31,1.12,-4.44,-0.7751,0.0338,-0.0322,0.6301,$GPGGA,205126.900,4041.8122,N,07422.0534,W,1,07,1.21,98.2,M,-34.2,M,,*62
323,0,-0.18,0.23,-0.66,-2.12,0.13,-4.62,-0.7726,0.0347,-0.0338,0.6330,$GPGGA,205127.000,4041.8114,N,07422.0543,W,1,07,1.21,98.2,M,-34.2,M,,*6F
324,0,-0.09,-0.31,-0.13,-2.31,-0.37,-4.87,-0.7700,0.0361,-0.0350,0.6361,$GPGGA,205127.100,4041.8106,N,07422.0553,W,1,07,1.21,98.2,M,-34.2,M,,*6C
325,0,-0.42,-0.51,0.10,0.75,-1.31,-4.12,-0.7675,0.0370,-0.0357,0.6390,$GPGGA,205127.200,4041.8098,N,07422.0562,W,1,07,1.21,98.2,M,-34.2,M,,*6B
326,0,-0.21,-0.30,-0.53,0.00,-2.25,-3.69,-0.7654,0.0378,-0.0350,0.6415,$GPGGA,205127.300,4041.8090,N,07422.0570,W,1,07,1.12,98.2,M,-34.2,M,,*61
327,0,-0.34,0.12,0.29,0.75,-1.44,-3.56,-0.7635,0.0384,-0.0338,0.6438,$GPGGA,205127.400,4041.8083,N,07422.0580,W,1,07,1.12,98.1,M,-34.2,M,,*68
328,0,-0.90,-0.06,-0.02,-1.25,-0.13,-3.94,-0.7615,0.0394,-0.0332,0.6462,$GPGGA,205127.500,4041.8075,N,07422.0589,W,1,07,1.21,98.1,M,-34.2,M,,*69
329,0,-0.46,0.22,-0.74,-1.06,0.19,-4.19,-0.7592,0.0401,-0.0333,0.6488,$GPGGA,205127.600,4041.8067,N,07422.0599,W,1,07,1.21,98.1,M,-34.2,M,,*68
330,0,-0.40,-0.94,0.33,0.37,-0.62,-4.06,-0.7569,0.0403,-0.0330,0.6515,$GPGGA,205127.700,4041.8060,N,07422.0609,W,1,07,1.21,98.1,M,-34.2,M,,*64
331,0,-0.36,-0.46,-0.28,0.13,-1.25,-3.69,-0.7548,0.0406,-0.0318,0.6540,$GPGGA,205127.800,4041.8052,N,07422.0620,W,1,07,1.21,98.0,M,-34.2,M,,*60
332,0,-0.12,0.39,-0.21,1.00,-1.69,-3.56,-0.7527,0.0408,-0.0307,0.6563,$GPGGA,205127.900,4041.8045,N,07422.0630,W,1,07,1.21,98.0,M,-34.2,M,,*66
333,0,-0.31,0.00,0.08,0.00,0.62,-3.81,-0.7507,0.0408,-0.0303,0.6588,$GPGGA,205128.000,4041.8038,N,07422.0640,W,1,07,1.21,98.0,M,-34.2,M,,*6D
334,0,-0.40,-0.02,-0.46,1.06,2.50,-3.87,-0.7485,0.0398,-0.0309,0.6612,$GPGGA,205128.100,4041.8030,N,07422.0651,W,1,07,1.21,98.0,M,-34.2,M,,*64
335,0,-0.61,0.02,-0.38,1.12,2.12,-3.37,-0.7465,0.0378,-0.0301,0.6636,$GPGGA,205128.200,4041.8022,N,07422.0661,W,1,07,1.21,98.1,M,-34.2,M,,*66
336,0,-0.49,0.13,0.35,3.69,-1.75,-3.19,-0.7447,0.0361,-0.0286,0.6658,$GPGGA,205128.300,4041.8015,N,07422.0671,W,1,07,1.12,98.1,M,-34.2,M,,*62
337,0,-0.57,0.50,0.77,1.25,-1.44,-2.87,-0.7431,0.0361,-0.0257,0.6677,$GPGGA,205128.400,4041.8007,N,07422.0681,W,1,07,1.12,98.1,M,-34.2,M,,*69
338,0,-0.06,0.68,1.55,-1.50,-4.69,-3.12,-0.7416,0.0367,-0.0229,0.6695,$GPGGA,205128.500,4041.8000,N,07422.0691,W,1,07,1.21,98.1,M,-34.2,M,,*6E
339,0,0.00,0.80,0.68,-3.19,-3.75,-3.19,-0.7397,0.0414,-0.0216,0.6713,$GPGGA,205128.600,4041.7992,N,07422.0702,W,1,07,1.12,98.1,M,-34.2,M,,*6B
340,0,-0.12,0.33,-0.93,-1.00,2.31,-3.31,-0.7378,0.0426,-0.0226,0.6733,$GPGGA,205128.700,4041.7985,N,07422.0712,W,1,07,1.21,98.1,M,-34.2,M,,*6D
341,0,-0.23,-0.05,-1.96,-0.75,2.69,-3.00,-0.7358,0.0419,-0.0253,0.6754,$GPGGA,205128.800,4041.7978,N,07422.0723,W,1,07,1.21,98.1,M,-34.2,M,,*62
342,0,-0.22,0.06,-0.18,-0.31,0.19,-2.69,-0.7341,0.0419,-0.0256,0.6772,$GPGGA,205128.900,4041.7970,N,07422.0734,W,1,07,1.21,98.1,M,-34.2,M,,*6D
343,0,-0.34,0.22,-0.12,-0.69,-0.62,-3.12,-0.7325,0.0419,-0.0256,0.6790,$GPGGA,205129.000,4041.7963,N,07422.0745,W,1,07,1.21,98.1,M,-34.2,M,,*61
344,0,-0.20,-0.03,-0.21,1.19,-0.13,-3.19,-0.7308,0.0413,-0.0246,0.6809,$GPGGA,205129.100,4041.7956,N,07422.0756,W,1,07,1.21,98.2,M,-34.2,M,,*67
345,0,-0.20,-0.05,-0.92,3.31,1.75,-2.81,-0.7291,0.0391,-0.0243,0.6829,$GPGGA,205129.200,4041.7949,N,07422.0767,W,1,07,1.21,98.2,M,-34.2,M,,*68
346,0,-0.27,0.23,-1.02,3.12,2.12,-2.50,-0.7277,0.0359,-0.0242,0.6846,$GPGGA,205129.300,4041.7942,N,07422.0777,W,1,07,1.12,98.1,M,-34.2,M,,*60
347,0,-0.25,1.13,-0.78,2.44,0.69,-2.50,-0.7263,0.0334,-0.0234,0.6862,$GPGGA,205129.400,4041.7935,N,07422.0788,W,1,07,1.12,98.1,M,-34.2,M,,*67
348,0,-0.33,0.63,1.24,1.37,-1.25,-3.12,-0.7247,0.0333,-0.0223,0.6879,$GPGGA,205129.500,4041.7928,N,07422.0799,W,1,07,1.21,98.1,M,-34.2,M,,*6A
349,0,-0.37,0.05,0.14,-0.50,-3.44,-3.50,-0.7228,0.0348,-0.0203,0.6899,$GPGGA,205129.600,4041.7921,N,07422.0810,W,1,07,1.21,98.1,M,-34.2,M,,*6E
350,0,-0.21,0.07,0.69,-0.13,-3.25,-3.75,-0.7207,0.0366,-0.0181,0.6920,$GPGGA,205129.700,4041.7914,N,07422.0821,W,1,07,1.21,98.2,M,-34.2,M,,*68
351,0,-0.35,0.46,0.19,-0.13,-3.75,-3.75,-0.7186,0.0383,-0.0159,0.6942,$GPGGA,205129.800,4041.7907,N,07422.0832,W,1,07,1.21,98.2,M,-34.2,M,,*67
352,0,-0.45,0.32,0.43,-0.94,-1.81,-3.25,-0.7166,0.0396,-0.0150,0.6963,$GPGGA,205129.900,4041.7900,N,07422.0843,W,1,07,1.21,98.2,M,-34.2,M,,*67
353,0,-0.56,0.56,0.40,-0.06,-1.87,-3.00,-0.7147,0.0394,-0.0145,0.6981,$GPGGA,205130.000,4041.7894,N,07422.0854,W,1,07,1.21,98.3,M,-34.2,M,,*6D
354,0,-0.23,0.03,0.06,1.44,-0.56,-2.87,-0.7130,0.0399,-0.0145,0.6998,$GPGGA,205130.100,4041.7887,N,07422.0865,W,1,07,1.21,98.3,M,-34.2,M,,*6C
355,0,-0.66,0.35,0.12,-1.06,1.81,-2.50,-0.7114,0.0402,-0.0150,0.7015,$GPGGA,205130.200,4041.7880,N,07422.0877,W,1,07,1.21,98.3,M,-34.2,M,,*6B
356,0,-0.26,0.15,-0.26,-1.62,-0.88,-2.44,-0.7099,0.0408,-0.0148,0.7030,$GPGGA,205130.300,4041.7874,N,07422.0888,W,1,07,1.12,98.3,M,-34.2,M,,*61
357,0,-0.38,-0.18,0.16,-0.31,-0.31,-2.81,-0.7082,0.0412,-0.0149,0.7047,$GPGGA,205130.400,4041.7867,N,07422.0899,W,1,07,1.12,98.3,M,-34.2,M,,*64
358,0,-0.44,-0.23,-0.19,-1.19,-0.06,-3.25,-0.7064,0.0417,-0.0157,0.7065,$GPGGA,205130.500,4041.7861,N,07422.0910,W,1,07,1.21,98.3,M,-34.2,M,,*63
359,0,-0.36,-0.28,-0.16,-1.56,-0.06,-3.94,-0.7041,0.0424,-0.0162,0.7087,$GPGGA,205130.600,4041.7855,N,07422.0922,W,1,07,1.12,98.4,M,-34.2,M,,*61
360,0,-0.61,-0.14,-0.14,-0.13,-0.31,-4.19,-0.7016,0.0422,-0.0176,0.7111,$GPGGA,205130.700,4041.7848,N,07422.0933,W,1,07,1.21,98.4,M,-34.2,M,,*6C
361,0,-0.35,-0.32,-0.17,0.19,-0.50,-4.00,-0.6992,0.0427,-0.0179,0.7135,$GPGGA,205130.800,4041.7842,N,07422.0945,W,1,07,1.21,98.4,M,-34.2,M,,*68
362,0,-0.39,0.03,0.23,0.25,-0.69,-3.87,-0.6968,0.0424,-0.0187,0.7158,$GPGGA,205130.900,4041.7835,N,07422.0956,W,1,07,1.21,98.5,M,-34.2,M,,*6A
363,0,-0.13,-0.06,0.10,0.62,-1.62,-3.87,-0.6946,0.0423,-0.0186,0.7180,$GPGGA,205131.000,4041.7829,N,07422.0968,W,1,07,1.21,98.5,M,-34.2,M,,*62
364,0,0.10,-0.05,-0.10,-0.37,-0.88,-3.94,-0.6922,0.0422,-0.0182,0.7202,$GPGGA,205131.100,4041.7823,N,07422.0979,W,1,07,1.21,98.5,M,-34.2,M,,*69
365,0,-0.30,0.09,-0.03,-0.69,-0.50,-4.06,-0.6898,0.0427,-0.0184,0.7225,$GPGGA,205131.200,4041.7817,N,07422.0991,W,1,07,1.21,98.5,M,-34.2,M,,*6B
366,0,-0.59,0.02,-0.17,-0.69,-0.62,-4.19,-0.6873,0.0431,-0.0189,0.7249,$GPGGA,205131.300,4041.7811,N,07422.1002,W,1,07,1.12,98.5,M,-34.2,M,,*6E
367,0,-0.28,0.06,0.20,0.00,-0.94,-4.37,-0.6846,0.0439,-0.0198,0.7273,$GPGGA,205131.400,4041.7805,N,07422.1013,W,1,07,1.12,98.5,M,-34.2,M,,*6C
368,0,-0.12,-0.23,-0.18,-0.37,-0.50,-4.50,-0.6819,0.0445,-0.0197,0.7298,$GPGGA,205131.500,4041.7799,N,07422.1024,W,1,07,1.12,98.5,M,-34.2,M,,*63
369,0,-0.35,-0.30,-0.45,0.81,-0.37,-4.25,-0.6793,0.0449,-0.0197,0.7323,$GPGGA,205131.600,4041.7793,N,07422.1036,W,1,07,1.12,98.5,M,-34.2,M,,*69
370,0,-0.16,-0.07,0.04,0.37,0.56,-4.31,-0.6765,0.0450,-0.0195,0.7348,$GPGGA,205131.700,4041.7787,N,07422.1047,W,1,07,1.12,98.5,M,-34.2,M,,*6B
371,0,0.05,0.22,0.27,-1.75,0.19,-4.00,-0.6739,0.0458,-0.0197,0.7371,$GPGGA,205131.800,4041.7781,N,07422.1058,W,1,07,1.12,98.5,M,-34.2,M,,*6C
372,0,-0.39,0.36,-0.45,-2.62,-0.62,-3.75,-0.6714,0.0474,-0.0202,0.7393,$GPGGA,205131.900,4041.7775,N,07422.1070,W,1,07,1.12,98.5,M,-34.2,M,,*6C
373,0,0.08,0.33,-0.41,-1.62,-1.00,-3.37,-0.6692,0.0485,-0.0209,0.7412,$GPGGA,205132.000,4041.7769,N,07422.1082,W,1,07,1.21,98.5,M,-34.2,M,,*66
374,0,-0.27,0.04,-0.16,-1.50,-1.56,-2.94,-0.6671,0.0499,-0.0211,0.7430,$GPGGA,205132.100,4041.7763,N,07422.1093,W,1,07,1.12,98.6,M,-34.2,M,,*6E
375,0,-0.14,0.19,0.11,0.25,-1.81,-2.62,-0.6653,0.0504,-0.0205,0.7446,$GPGGA,205132.200,4041.7758,N,07422.1105,W,1,07,1.12,98.6,M,-34.2,M,,*6B
376,0,-0.27,0.17,-0.46,0.81,-2.00,-2.19,-0.6639,0.0509,-0.0192,0.7458,$GPGGA,205132.300,4041.7752,N,07422.1117,W,1,07,1.12,98.6,M,-34.2,M,,*63
377,0,0.21,0.15,0.49,-0.06,-0.25,-2.06,-0.6627,0.0513,-0.0181,0.7469,$GPGGA,205132.400,4041.7746,N,07422.1128,W,1,07,1.12,98.6,M,-34.2,M,,*6D
378,0,-0.21,0.82,-0.54,-0.62,-0.81,-2.00,-0.6614,0.0516,-0.0177,0.7480,$GPGGA,205132.500,4041.7741,N,07422.1141,W,1,07,1.12,98.5,M,-34.2,M,,*67
379,0,0.15,0.78,-0.33,-1.37,-1.12,-2.12,-0.6600,0.0523,-0.0186,0.7492,$GPGGA,205132.600,4041.7736,N,07422.1153,W,1,07,1.12,98.5,M,-34.2,M,,*67
380,0,-0.11,0.36,-0.58,-0.75,0.81,-1.94,-0.6587,0.0507,-0.0178,0.7505,$GPGGA,205132.700,4041.7730,N,07422.1165,W,1,07,1.12,98.5,M,-34.2,M,,*65
381,0,-0.37,0.36,0.75,-0.62,-0.13,-1.44,-0.6577,0.0512,-0.0176,0.7514,$GPGGA,205132.800,4041.7725,N,07422.1178,W,1,07,1.12,98.5,M,-34.2,M,,*62
382,0,-0.43,0.80,-0.25,-0.31,0.50,-1.00,-0.6569,0.0517,-0.0173,0.7520,$GPGGA,205132.900,4041.7719,N,07422.1190,W,1,07,1.12,98.6,M,-34.2,M,,*69
383,0,-0.37,0.60,0.39,-1.19,1.06,-1.06,-0.6562,0.0526,-0.0175,0.7526,$GPGGA,205133.000,4041.7714,N,07422.1202,W,1,07,1.21,98.6,M,-34.2,M,,*64
384,0,-0.06,1.12,-0.43,-2.06,-0.94,-1.06,-0.6555,0.0533,-0.0179,0.7531,$GPGGA,205133.100,4041.7709,N,07422.1215,W,1,07,1.21,98.6,M,-34.2,M,,*6F
385,0,-0.32,1.18,-0.42,-1.19,-0.06,-1.06,-0.6548,0.0533,-0.0182,0.7537,$GPGGA,205133.200,4041.7704,N,07422.1227,W,1,07,1.21,98.6,M,-34.2,M,,*60
386,0,-0.07,0.95,-0.50,0.94,-0.50,-0.81,-0.6542,0.0543,-0.0189,0.7541,$GPGGA,205133.300,4041.7699,N,07422.1239,W,1,07,1.12,98.6,M,-34.2,M,,*6B
387,0,-0.42,1.34,-0.15,-1.94,-0.62,-0.75,-0.6539,0.0554,-0.0187,0.7543,$GPGGA,205133.400,4041.7693,N,07422.1251,W,1,07,1.12,98.7,M,-34.2,M,,*69
388,0,-0.10,0.87,-0.03,-0.75,-1.25,-1.06,-0.6533,0.0528,-0.0166,0.7551,$GPGGA,205133.500,4041.7688,N,07422.1263,W,1,07,1.12,98.7,M,-34.2,M,,*63
389,0,0.37,0.33,0.17,-2.06,-1.81,-1.44,-0.6525,0.0546,-0.0165,0.7557,$GPGGA,205133.600,4041.7683,N,07422.1276,W,1,07,1.12,98.7,M,-34.2,M,,*6F
390,0,0.11,0.56,-0.84,-0.44,-0.50,-1.06,-0.6517,0.0547,-0.0165,0.7563,$GPGGA,205133.700,4041.7677,N,07422.1288,W,1,07,1.12,98.7,M,-34.2,M,,*64
391,0,0.56,0.80,0.63,-1.00,-1.12,-1.19,-0.6509,0.0549,-0.0161,0.7570,$GPGGA,205133.800,4041.7672,N,07422.1300,W,1,07,1.12,98.7,M,-34.2,M,,*6F
392,0,-0.22,0.37,-0.19,-0.19,-0.06,-1.06,-0.6501,0.0544,-0.0148,0.7578,$GPGGA,205133.900,4041.7667,N,07422.1313,W,1,07,1.21,98.8,M,-34.2,M,,*67
393,0,-0.05,0.58,-0.25,-0.88,-0.62,-1.00,-0.6494,0.0551,-0.0148,0.7584,$GPGGA,205134.000,4041.7662,N,07422.1325,W,1,07,1.21,98.8,M,-34.2,M,,*69
394,0,-0.25,0.25,-0.25,-0.31,0.81,-1.19,-0.6486,0.0540,-0.0133,0.7591,$GPGGA,205134.100,4041.7657,N,07422.1337,W,1,07,1.21,98.8,M,-34.2,M,,*6D
395,0,-0.10,0.78,-0.27,1.19,0.44,-1.19,-0.6479,0.0533,-0.0136,0.7597,$GPGGA,205134.200,4041.7652,N,07422.1349,W,1,07,1.21,98.9,M,-34.2,M,,*63
396,0,-0.21,0.00,-0.28,-0.06,-1.62,-0.88,-0.6473,0.0538,-0.0132,0.7602,$GPGGA,205134.300,4041.7647,N,07422.1361,W,1,07,1.12,98.9,M,-34.2,M,,*6C
397,0,-0.03,0.02,-0.61,-1.25,-0.50,-1.12,-0.6467,0.0549,-0.0131,0.7606,$GPGGA,205134.400,4041.7641,N,07422.1373,W,1,07,1.12,98.9,M,-34.2,M,,*6E
398,0,0.36,1.36,0.26,-1.06,-0.81,-1.12,-0.6461,0.0557,-0.0129,0.7612,$GPGGA,205134.500,4041.7636,N,07422.1386,W,1,07,1.12,99.0,M,-34.2,M,,*6D
399,0,-0.11,0.35,-1.40,-0.44,1.19,-0.69,-0.6454,0.0554,-0.0133,0.7617,$GPGGA,205134.600,4041.7631,N,07422.1398,W,1,07,1.12,99.0,M,-34.2,M,,*66
400,0,0.00,0.83,0.35,-1.56,1.37,-0.25,-0.6453,0.0548,-0.0137,0.7618,$GPGGA,205134.700,4041.7626,N,07422.1410,W,1,07,1.21,99.0,M,-34.2,M,,*66
401,0,0.30,1.13,1.04,0.75,-2.12,-0.25,-0.6453,0.0560,-0.0134,0.7618,$GPGGA,205134.800,4041.7620,N,07422.1422,W,1,07,1.12,99.0,M,-34.2,M,,*6E
402,0,-0.03,0.79,-0.88,-1.00,-0.75,0.06,-0.6453,0.0571,-0.0125,0.7617,$GPGGA,205134.900,4041.7615,N,07422.1434,W,1,07,1.12,99.1,M,-34.2,M,,*6F
403,0,0.03,1.32,-0.50,0.94,0.69,0.00,-0.6454,0.0559,-0.0099,0.7617,$GPGGA,205135.000,4041.7610,N,07422.1446,W,1,07,1.21,99.1,M,-34.2,M,,*67
404,0,-0.35,1.15,-0.11,0.88,0.31,0.06,-0.6454,0.0552,-0.0104,0.7617,$GPGGA,205135.100,4041.7605,N,07422.1459,W,1,07,1.12,99.1,M,-34.2,M,,*6C
405,0,-0.24,1.20,-0.47,-1.00,-0.81,0.13,-0.6455,0.0541,-0.0087,0.7618,$GPGGA,205135.200,4041.7599,N,07422.1471,W,1,07,1.12,99.1,M,-34.2,M,,*63
406,0,0.05,1.00,0.02,0.31,-0.19,-0.06,-0.6455,0.0545,-0.0086,0.7618,$GPGGA,205135.300,4041.7594,N,07422.1483,W,1,07,1.12,99.2,M,-34.2,M,,*61
407,0,0.26,0.61,-1.01,0.06,0.25,0.25,-0.6454,0.0539,-0.0076,0.7618,$GPGGA,205135.400,4041.7589,N,07422.1495,W,1,07,1.12,99.2,M,-34.2,M,,*6D
408,0,-0.26,0.93,-0.23,-0.88,-0.44,0.19,-0.6454,0.0543,-0.0079,0.7618,$GPGGA,205135.500,4041.7583,N,07422.1508,W,1,07,1.12,99.2,M,-34.2,M,,*63
409,0,0.03,1.13,0.91,-1.25,-0.69,-0.25,-0.6454,0.0554,-0.0085,0.7618,$GPGGA,205135.600,4041.7578,N,07422.1520,W,1,07,1.12,99.2,M,-34.2,M,,*6E
410,0,-0.20,0.88,0.84,0.44,-0.69,0.31,-0.6453,0.0562,-0.0087,0.7618,$GPGGA,205135.700,4041.7574,N,07422.1533,W,1,07,1.12,99.2,M,-34.2,M,,*61
411,0,0.12,1.07,0.26,0.25,0.44,0.19,-0.6454,0.0547,-0.0072,0.7619,$GPGGA,205135.800,4041.7569,N,07422.1546,W,1,07,1.12,99.3,M,-34.2,M,,*61
412,0,-0.32,0.48,-0.92,0.00,0.75,0.13,-0.6454,0.0543,-0.0068,0.7619,$GPGGA,205135.900,4041.7564,N,07422.1560,W,1,07,1.12,99.3,M,-34.2,M,,*69
413,0,0.00,0.64,-0.47,0.50,0.94,0.06,-0.6454,0.0535,-0.0057,0.7620,$GPGGA,205136.000,4041.7559,N,07422.1573,W,1,07,1.21,99.3,M,-34.2,M,,*6F
414,0,-0.12,0.55,-1.16,0.37,0.88,0.00,-0.6454,0.0500,-0.0023,0.7622,$GPGGA,205136.100,4041.7554,N,07422.1586,W,1,07,1.21,99.4,M,-34.2,M,,*6E
415,0,-0.09,0.46,-0.70,-0.50,-0.19,0.19,-0.6454,0.0476,0.0004,0.7623,$GPGGA,205136.200,4041.7549,N,07422.1598,W,1,07,1.21,99.4,M,-34.2,M,,*6E
416,0,-0.40,0.43,0.40,0.50,0.50,0.25,-0.6454,0.0477,0.0007,0.7623,$GPGGA,205136.300,4041.7544,N,07422.1611,W,1,07,1.12,99.5,M,-34.2,M,,*61
417,0,0.14,1.29,0.70,0.88,-0.69,0.25,-0.6454,0.0471,0.0023,0.7623,$GPGGA,205136.400,4041.7538,N,07422.1624,W,1,07,1.12,99.5,M,-34.2,M,,*6B
418,0,-0.15,0.74,0.37,1.50,-1.00,0.44,-0.6454,0.0457,0.0042,0.7625,$GPGGA,205136.500,4041.7533,N,07422.1637,W,1,07,1.12,99.6,M,-34.2,M,,*60
419,0,0.19,1.29,0.19,0.44,-0.13,0.37,-0.6454,0.0451,0.0044,0.7625,$GPGGA,205136.600,4041.7528,N,07422.1650,W,1,07,1.12,99.6,M,-34.2,M,,*68
