0,0,-0.66,0.55,0.17,-4.06,6.19,0.06,0.6887,-0.0583,-0.0845,-0.7178,$GPGGA,210309.500,4042.0584,N,07421.8421,W,2,07,1.14,101.4,M,-34.2,M,0000,0000*5A
1,0,-0.72,-0.10,-0.35,-1.69,-0.31,0.00,0.6884,-0.0615,-0.0814,-0.7181,$GPGGA,210309.700,4042.0573,N,07421.8434,W,2,07,1.26,101.4,M,-34.2,M,0000,0000*55
2,0,-0.66,-0.21,-0.55,10.44,-10.56,0.69,0.6885,-0.0618,-0.0880,-0.7172,$GPGGA,210309.800,4042.0567,N,07421.8441,W,2,07,1.26,101.4,M,-34.2,M,0000,0000*5D
3,0,-0.55,0.25,0.67,-1.69,-5.25,-0.06,0.6884,-0.0624,-0.0902,-0.7169,$GPGGA,210309.900,4042.0562,N,07421.8447,W,2,07,1.26,101.5,M,-34.2,M,0000,0000*5E
4,0,-0.97,-0.71,-0.41,-11.38,5.87,-0.75,0.6877,-0.0674,-0.0908,-0.7171,$GPGGA,210310.000,4042.0556,N,07421.8454,W,2,07,1.26,101.5,M,-34.2,M,0000,0000*5A
5,0,-0.97,-0.56,-0.27,-2.37,6.06,-0.50,0.6874,-0.0685,-0.0900,-0.7173,$GPGGA,210310.100,4042.0550,N,07421.8461,W,2,07,1.26,101.5,M,-34.2,M,0000,0000*5B
6,0,-0.92,-0.34,0.25,-1.87,2.75,-0.75,0.6870,-0.0690,-0.0883,-0.7180,$GPGGA,210310.200,4042.0544,N,07421.8468,W,2,07,1.26,101.5,M,-34.2,M,0000,0000*54
7,0,-1.13,0.22,-0.16,-0.94,-0.44,-0.62,0.6866,-0.0681,-0.0868,-0.7186,$GPGGA,210310.300,4042.0539,N,07421.8475,W,2,07,1.26,101.5,M,-34.2,M,0000,0000*53
8,0,-0.68,-0.56,1.28,-0.13,-1.69,-0.13,0.6870,-0.0660,-0.0836,-0.7189,$GPGGA,210310.400,4042.0533,N,07421.8481,W,2,07,1.14,101.5,M,-34.2,M,0000,0000*54
9,0,-0.68,0.24,0.25,0.56,-5.19,0.44,0.6868,-0.0660,-0.0894,-0.7183,$GPGGA,210310.500,4042.0527,N,07421.8488,W,2,07,1.26,101.5,M,-34.2,M,0000,0000*58
10,0,-0.57,0.49,0.36,-0.44,-0.69,0.25,0.6869,-0.0665,-0.0854,-0.7186,$GPGGA,210310.600,4042.0521,N,07421.8495,W,2,07,1.26,101.5,M,-34.2,M,0000,0000*51
11,0,-1.05,0.17,-0.71,-1.62,1.56,0.13,0.6870,-0.0656,-0.0839,-0.7187,$GPGGA,210310.700,4042.0515,N,07421.8503,W,2,07,1.26,101.6,M,-34.2,M,0000,0000*5A
12,0,-0.65,0.19,-0.32,-1.50,1.12,0.13,0.6871,-0.0651,-0.0821,-0.7190,$GPGGA,210310.800,4042.0509,N,07421.8510,W,2,07,1.26,101.6,M,-34.2,M,0000,0000*5A
13,0,-1.12,-0.51,0.12,-1.50,3.25,0.25,0.6872,-0.0640,-0.0800,-0.7192,$GPGGA,210310.900,4042.0503,N,07421.8518,W,2,07,1.26,101.6,M,-34.2,M,0000,0000*59
14,0,-0.95,0.36,0.38,0.75,-0.25,0.56,0.6873,-0.0641,-0.0793,-0.7192,$GPGGA,210311.000,4042.0497,N,07421.8526,W,2,07,1.26,101.6,M,-34.2,M,0000,0000*50
15,0,-0.71,0.38,1.00,-0.31,-2.00,0.62,0.6874,-0.0632,-0.0795,-0.7191,$GPGGA,210311.100,4042.0491,N,07421.8533,W,2,07,1.26,101.6,M,-34.2,M,0000,0000*53
16,0,-0.99,0.36,0.40,3.06,-0.81,0.81,0.6878,-0.0626,-0.0805,-0.7187,$GPGGA,210311.200,4042.0485,N,07421.8541,W,2,07,1.26,101.6,M,-34.2,M,0000,0000*50
17,0,-0.46,0.37,0.68,-0.13,-1.94,1.37,0.6884,-0.0629,-0.0811,-0.7181,$GPGGA,210311.300,4042.0479,N,07421.8549,W,2,07,1.26,101.7,M,-34.2,M,0000,0000*5B
18,0,-0.72,-0.01,0.45,-1.25,2.44,1.12,0.6891,-0.0627,-0.0816,-0.7173,$GPGGA,210311.400,4042.0473,N,07421.8557,W,2,07,1.14,101.7,M,-34.2,M,0000,0000*58
19,0,-0.70,0.30,-0.55,-0.06,1.56,0.94,0.6898,-0.0595,-0.0807,-0.7170,$GPGGA,210311.500,4042.0467,N,07421.8564,W,2,07,1.14,101.7,M,-34.2,M,0000,0000*5C
20,0,-0.57,0.20,0.68,1.94,2.37,1.06,0.6907,-0.0576,-0.0797,-0.7164,$GPGGA,210311.600,4042.0461,N,07421.8572,W,2,07,1.14,101.7,M,-34.2,M,0000,0000*5E
21,0,0.04,0.40,0.09,1.37,-5.87,2.31,0.6916,-0.0574,-0.0834,-0.7151,$GPGGA,210311.700,4042.0455,N,07421.8580,W,2,07,1.26,101.7,M,-34.2,M,0000,0000*54
22,0,-0.61,-0.13,0.10,1.81,0.69,1.56,0.6927,-0.0560,-0.0845,-0.7141,$GPGGA,210311.800,4042.0449,N,07421.8588,W,2,07,1.26,101.7,M,-34.2,M,0000,0000*5E
23,0,-0.58,0.63,1.32,-1.25,2.37,1.62,0.6937,-0.0541,-0.0834,-0.7134,$GPGGA,210311.900,4042.0443,N,07421.8596,W,2,07,1.26,101.7,M,-34.2,M,0000,0000*5A
24,0,-0.56,0.23,-0.10,1.94,0.94,2.50,0.6948,-0.0568,-0.0803,-0.7125,$GPGGA,210312.000,4042.0437,N,07421.8604,W,2,07,1.26,101.7,M,-34.2,M,0000,0000*5B
25,0,-0.42,1.10,0.37,-2.94,-0.50,2.44,0.6959,-0.0605,-0.0793,-0.7112,$GPGGA,210312.100,4042.0431,N,07421.8612,W,2,07,1.26,101.7,M,-34.2,M,0000,0000*5B
26,0,-0.47,0.74,0.11,-3.12,-2.00,2.81,0.6973,-0.0626,-0.0769,-0.7099,$GPGGA,210312.200,4042.0424,N,07421.8621,W,2,07,1.26,101.7,M,-34.2,M,0000,0000*5C
27,0,-0.73,0.92,0.00,-1.12,2.00,3.06,0.6988,-0.0583,-0.0759,-0.7089,$GPGGA,210312.300,4042.0418,N,07421.8630,W,2,07,1.26,101.7,M,-34.2,M,0000,0000*52
28,0,-0.72,1.54,2.30,27.19,-4.94,5.12,0.7019,-0.0506,-0.0765,-0.7064,$GPGGA,210312.400,4042.0411,N,07421.8638,W,2,07,1.14,101.8,M,-34.2,M,0000,0000*5A
29,0,-1.37,1.25,-0.57,-4.50,-9.19,3.06,0.7037,-0.0554,-0.0769,-0.7042,$GPGGA,210312.500,4042.0405,N,07421.8647,W,2,07,1.14,101.8,M,-34.2,M,0000,0000*56
30,0,-0.80,0.92,0.53,-0.44,1.19,4.12,0.7054,-0.0610,-0.0792,-0.7017,$GPGGA,210312.600,4042.0399,N,07421.8655,W,2,07,1.14,101.8,M,-34.2,M,0000,0000*54
31,0,-0.59,1.12,-0.42,3.19,0.88,4.12,0.7077,-0.0604,-0.0786,-0.6995,$GPGGA,210312.700,4042.0392,N,07421.8664,W,2,07,1.26,101.8,M,-34.2,M,0000,0000*5D
32,0,-0.66,1.02,-0.84,-1.94,0.37,4.25,0.7100,-0.0524,-0.0794,-0.6978,$GPGGA,210312.800,4042.0385,N,07421.8672,W,2,07,1.14,101.8,M,-34.2,M,0000,0000*52
33,0,-0.86,2.18,-0.35,-2.75,-0.37,4.31,0.7126,-0.0523,-0.0781,-0.6953,$GPGGA,210312.900,4042.0379,N,07421.8681,W,2,07,1.26,101.8,M,-34.2,M,0000,0000*5D
34,0,-0.70,0.97,-0.52,3.50,3.12,4.25,0.7153,-0.0512,-0.0775,-0.6926,$GPGGA,210313.000,4042.0372,N,07421.8690,W,2,07,1.26,101.8,M,-34.2,M,0000,0000*5E
35,0,-0.99,0.23,0.30,-4.37,5.31,4.25,0.7183,-0.0494,-0.0774,-0.6896,$GPGGA,210313.100,4042.0365,N,07421.8699,W,2,07,1.26,101.8,M,-34.2,M,0000,0000*50
36,0,-1.26,0.53,-0.44,1.31,2.31,4.69,0.7213,-0.0475,-0.0757,-0.6869,$GPGGA,210313.200,4042.0358,N,07421.8708,W,2,07,1.26,101.8,M,-34.2,M,0000,0000*54
37,0,-0.57,1.04,0.60,1.19,0.94,3.87,0.7238,-0.0472,-0.0737,-0.6844,$GPGGA,210313.300,4042.0350,N,07421.8716,W,2,07,1.26,101.8,M,-34.2,M,0000,0000*52
38,0,-1.16,0.63,0.59,-1.94,-4.37,3.19,0.7257,-0.0467,-0.0736,-0.6824,$GPGGA,210313.400,4042.0343,N,07421.8725,W,2,07,1.14,101.8,M,-34.2,M,0000,0000*56
39,0,-1.19,0.23,1.23,-0.81,-1.87,2.19,0.7270,-0.0494,-0.0740,-0.6808,$GPGGA,210313.500,4042.0336,N,07421.8733,W,2,07,1.14,101.8,M,-34.2,M,0000,0000*52
40,0,-1.35,0.18,0.21,0.19,0.62,2.69,0.7283,-0.0505,-0.0735,-0.6794,$GPGGA,210313.600,4042.0329,N,07421.8742,W,2,07,1.14,101.8,M,-34.2,M,0000,0000*59
41,0,-1.20,0.75,-0.96,-0.75,2.25,3.31,0.7301,-0.0507,-0.0724,-0.6776,$GPGGA,210313.700,4042.0321,N,07421.8751,W,2,07,1.14,101.8,M,-34.2,M,0000,0000*52
42,0,-0.94,0.92,0.02,2.94,2.56,3.31,0.7322,-0.0491,-0.0718,-0.6755,$GPGGA,210313.800,4042.0314,N,07421.8760,W,2,07,1.26,101.8,M,-34.2,M,0000,0000*58
43,0,-0.89,0.73,0.09,-2.62,-0.56,3.06,0.7340,-0.0492,-0.0715,-0.6736,$GPGGA,210313.900,4042.0306,N,07421.8768,W,2,07,1.26,101.8,M,-34.2,M,0000,0000*52
44,0,-1.10,1.08,0.68,-1.75,-2.44,2.87,0.7357,-0.0508,-0.0721,-0.6716,$GPGGA,210314.000,4042.0298,N,07421.8777,W,2,07,1.26,101.8,M,-34.2,M,0000,0000*54
45,0,-0.59,0.77,0.79,1.75,0.37,3.12,0.7373,-0.0524,-0.0732,-0.6696,$GPGGA,210314.100,4042.0291,N,07421.8786,W,2,07,1.26,101.8,M,-34.2,M,0000,0000*52
46,0,-1.13,0.72,0.05,1.62,2.06,4.19,0.7396,-0.0510,-0.0724,-0.6672,$GPGGA,210314.200,4042.0283,N,07421.8795,W,2,07,1.26,101.8,M,-34.2,M,0000,0000*50
47,0,-1.23,0.99,0.00,1.31,-0.56,5.06,0.7424,-0.0496,-0.0729,-0.6641,$GPGGA,210314.300,4042.0275,N,07421.8803,W,2,07,1.26,101.7,M,-34.2,M,0000,0000*57
48,0,-0.98,1.10,-0.38,-0.88,-0.31,4.50,0.7451,-0.0500,-0.0738,-0.6610,$GPGGA,210314.400,4042.0267,N,07421.8812,W,2,07,1.14,101.7,M,-34.2,M,0000,0000*52
49,0,-0.87,1.85,0.08,-2.06,2.00,3.81,0.7474,-0.0511,-0.0723,-0.6584,$GPGGA,210314.500,4042.0259,N,07421.8820,W,2,07,1.14,101.7,M,-34.2,M,0000,0000*5F
50,0,-1.00,1.29,-0.71,-1.25,3.37,3.56,0.7496,-0.0500,-0.0696,-0.6562,$GPGGA,210314.600,4042.0251,N,07421.8828,W,2,07,1.26,101.7,M,-34.2,M,0000,0000*5D
51,0,-1.04,0.38,-0.39,1.00,0.75,3.37,0.7517,-0.0488,-0.0681,-0.6542,$GPGGA,210314.700,4042.0243,N,07421.8837,W,2,07,1.26,101.7,M,-34.2,M,0000,0000*51
52,0,-0.82,0.62,0.46,0.37,-1.25,3.12,0.7536,-0.0485,-0.0692,-0.6519,$GPGGA,210314.800,4042.0235,N,07421.8845,W,2,07,1.26,101.7,M,-34.2,M,0000,0000*5A
53,0,-1.06,0.56,0.11,2.00,-0.69,2.56,0.7552,-0.0476,-0.0703,-0.6499,$GPGGA,210314.900,4042.0227,N,07421.8853,W,2,07,1.26,101.6,M,-34.2,M,0000,0000*5E
54,0,-0.87,0.56,0.15,1.69,0.50,2.25,0.7566,-0.0448,-0.0700,-0.6486,$GPGGA,210315.000,4042.0219,N,07421.8861,W,2,07,1.26,101.6,M,-34.2,M,0000,0000*5A
55,0,-1.07,0.81,-0.79,0.81,0.56,2.12,0.7578,-0.0445,-0.0698,-0.6472,$GPGGA,210315.100,4042.0211,N,07421.8870,W,2,07,1.26,101.6,M,-34.2,M,0000,0000*53
56,0,-0.81,0.23,0.04,-0.31,0.62,2.06,0.7590,-0.0443,-0.0692,-0.6459,$GPGGA,210315.200,4042.0203,N,07421.8878,W,2,07,1.26,101.6,M,-34.2,M,0000,0000*5B
57,0,-0.74,-0.23,0.30,1.37,2.25,1.81,0.7601,-0.0432,-0.0683,-0.6447,$GPGGA,210315.300,4042.0195,N,07421.8887,W,2,07,1.26,101.6,M,-34.2,M,0000,0000*56
58,0,-1.05,0.04,0.02,1.75,-1.06,1.69,0.7612,-0.0385,-0.0662,-0.6440,$GPGGA,210315.400,4042.0187,N,07421.8895,W,2,07,1.14,101.6,M,-34.2,M,0000,0000*50
59,0,-1.06,1.10,1.05,-1.56,-3.44,1.87,0.7620,-0.0401,-0.0671,-0.6428,$GPGGA,210315.500,4042.0179,N,07421.8903,W,2,07,1.14,101.5,M,-34.2,M,0000,0000*5D
60,0,-0.66,0.60,1.42,-0.37,-0.37,1.62,0.7628,-0.0421,-0.0683,-0.6416,$GPGGA,210315.600,4042.0170,N,07421.8912,W,2,07,1.14,101.5,M,-34.2,M,0000,0000*57
61,0,-0.56,0.55,-0.70,-1.25,3.06,1.12,0.7636,-0.0410,-0.0673,-0.6409,$GPGGA,210315.700,4042.0162,N,07421.8920,W,2,07,1.14,101.5,M,-34.2,M,0000,0000*54
62,0,-0.86,-0.89,-1.23,1.06,0.88,1.44,0.7646,-0.0387,-0.0665,-0.6399,$GPGGA,210315.800,4042.0153,N,07421.8928,W,2,07,1.26,101.4,M,-34.2,M,0000,0000*51
63,0,-1.12,0.56,0.83,2.00,-1.62,1.56,0.7656,-0.0369,-0.0682,-0.6386,$GPGGA,210315.900,4042.0145,N,07421.8936,W,2,07,1.26,101.4,M,-34.2,M,0000,0000*58
64,0,-0.92,1.24,1.31,-0.13,-3.12,1.50,0.7663,-0.0388,-0.0702,-0.6375,$GPGGA,210316.000,4042.0136,N,07421.8944,W,2,07,1.26,101.4,M,-34.2,M,0000,0000*53
65,0,-0.47,0.75,0.79,-1.87,1.56,0.88,0.7668,-0.0376,-0.0696,-0.6369,$GPGGA,210316.100,4042.0127,N,07421.8952,W,2,07,1.26,101.4,M,-34.2,M,0000,0000*55
66,0,-0.48,-0.33,-0.65,-1.25,3.25,0.69,0.7675,-0.0354,-0.0659,-0.6367,$GPGGA,210316.200,4042.0118,N,07421.8960,W,2,07,1.26,101.3,M,-34.2,M,0000,0000*5C
67,0,-0.77,0.30,-0.40,1.81,1.50,1.00,0.7680,-0.0341,-0.0648,-0.6362,$GPGGA,210316.300,4042.0110,N,07421.8968,W,2,07,1.26,101.3,M,-34.2,M,0000,0000*5D
68,0,-0.62,0.28,-0.07,-0.13,-1.44,0.81,0.7686,-0.0336,-0.0654,-0.6355,$GPGGA,210316.400,4042.0101,N,07421.8976,W,2,07,1.14,101.3,M,-34.2,M,0000,0000*54
69,0,-0.65,0.37,0.31,0.25,-0.06,0.88,0.7692,-0.0326,-0.0660,-0.6348,$GPGGA,210316.500,4042.0092,N,07421.8984,W,2,07,1.14,101.2,M,-34.2,M,0000,0000*52
70,0,-0.78,0.60,-0.03,0.50,0.62,0.94,0.7697,-0.0322,-0.0657,-0.6342,$GPGGA,210316.600,4042.0083,N,07421.8991,W,2,07,1.14,101.2,M,-34.2,M,0000,0000*55
71,0,-0.77,0.36,0.57,-1.06,0.75,0.69,0.7700,-0.0328,-0.0654,-0.6339,$GPGGA,210316.700,4042.0074,N,07421.8999,W,2,07,1.14,101.2,M,-34.2,M,0000,0000*54
72,0,-0.55,-0.43,0.56,-1.94,-1.19,0.50,0.7700,-0.0332,-0.0646,-0.6339,$GPGGA,210316.800,4042.0065,N,07421.9007,W,2,07,1.14,101.1,M,-34.2,M,0000,0000*57
73,0,-0.59,0.23,-0.32,1.87,0.50,0.56,0.7702,-0.0325,-0.0648,-0.6337,$GPGGA,210316.900,4042.0056,N,07421.9014,W,2,07,1.26,101.1,M,-34.2,M,0000,0000*55
74,0,-0.57,0.09,-0.41,1.44,1.69,0.62,0.7706,-0.0309,-0.0647,-0.6333,$GPGGA,210317.000,4042.0047,N,07421.9021,W,2,07,1.26,101.0,M,-34.2,M,0000,0000*5A
75,0,-0.54,0.14,0.06,2.37,-0.25,0.19,0.7708,-0.0288,-0.0652,-0.6331,$GPGGA,210317.100,4042.0037,N,07421.9029,W,2,07,1.26,101.0,M,-34.2,M,0000,0000*54
76,0,-0.54,0.42,-0.02,3.69,0.56,0.44,0.7708,-0.0273,-0.0662,-0.6330,$GPGGA,210317.200,4042.0028,N,07421.9036,W,2,07,1.26,101.0,M,-34.2,M,0000,0000*57
77,0,-0.58,-0.61,0.22,1.06,-0.81,0.06,0.7709,-0.0261,-0.0668,-0.6329,$GPGGA,210317.300,4042.0019,N,07421.9044,W,2,07,1.26,100.9,M,-34.2,M,0000,0000*59
78,0,-0.71,-0.08,0.31,1.94,0.31,0.13,0.7709,-0.0251,-0.0674,-0.6329,$GPGGA,210317.400,4042.0010,N,07421.9051,W,2,07,1.14,100.9,M,-34.2,M,0000,0000*52
79,0,-0.29,-0.11,0.24,-0.44,-0.88,0.06,0.7709,-0.0251,-0.0678,-0.6329,$GPGGA,210317.500,4042.0001,N,07421.9059,W,2,07,1.14,100.8,M,-34.2,M,0000,0000*5A
80,0,-0.49,0.23,0.06,-0.13,-1.00,-0.25,0.7708,-0.0259,-0.0679,-0.6329,$GPGGA,210317.600,4041.9992,N,07421.9067,W,2,07,1.14,100.8,M,-34.2,M,0000,0000*5D
81,0,-0.47,-0.32,0.29,1.56,1.19,-0.31,0.7709,-0.0256,-0.0675,-0.6329,$GPGGA,210317.700,4041.9982,N,07421.9074,W,2,07,1.14,100.7,M,-34.2,M,0000,0000*50
82,0,-0.34,-0.43,0.00,1.75,-1.62,0.06,0.7710,-0.0242,-0.0671,-0.6329,$GPGGA,210317.800,4041.9972,N,07421.9080,W,2,07,1.26,100.7,M,-34.2,M,0000,0000*5A
83,0,-0.59,0.38,0.48,1.69,0.06,0.37,0.7711,-0.0236,-0.0669,-0.6328,$GPGGA,210317.900,4041.9962,N,07421.9087,W,2,07,1.26,100.6,M,-34.2,M,0000,0000*5C
84,0,-0.47,-0.36,0.19,1.31,-0.13,0.06,0.7711,-0.0226,-0.0668,-0.6328,$GPGGA,210318.000,4041.9953,N,07421.9094,W,2,07,1.26,100.6,M,-34.2,M,0000,0000*5A
85,0,-0.57,0.32,0.14,2.44,0.19,0.19,0.7711,-0.0223,-0.0673,-0.6328,$GPGGA,210318.100,4041.9943,N,07421.9101,W,2,07,1.26,100.5,M,-34.2,M,0000,0000*54
86,0,-0.45,-0.52,-0.06,1.25,0.13,0.19,0.7711,-0.0213,-0.0681,-0.6327,$GPGGA,210318.200,4041.9933,N,07421.9108,W,2,07,1.26,100.5,M,-34.2,M,0000,0000*59
87,0,-0.62,0.17,-0.11,1.69,0.75,0.19,0.7712,-0.0196,-0.0688,-0.6326,$GPGGA,210318.300,4041.9923,N,07421.9115,W,2,07,1.26,100.4,M,-34.2,M,0000,0000*54
88,0,-0.83,-0.06,0.31,2.00,-1.62,0.44,0.7712,-0.0179,-0.0698,-0.6324,$GPGGA,210318.400,4041.9914,N,07421.9122,W,2,07,1.14,100.3,M,-34.2,M,0000,0000*55
89,0,-0.63,-0.03,0.94,-0.56,-1.50,0.31,0.7711,-0.0190,-0.0711,-0.6324,$GPGGA,210318.500,4041.9904,N,07421.9129,W,2,07,1.14,100.3,M,-34.2,M,0000,0000*5E
90,0,-0.65,-0.05,0.89,-0.88,-3.00,-0.06,0.7711,-0.0190,-0.0703,-0.6326,$GPGGA,210318.600,4041.9894,N,07421.9136,W,2,07,1.14,100.2,M,-34.2,M,0000,0000*5A
91,0,-0.61,0.15,0.04,0.06,-0.75,0.06,0.7709,-0.0203,-0.0707,-0.6326,$GPGGA,210318.700,4041.9885,N,07421.9143,W,2,07,1.26,100.1,M,-34.2,M,0000,0000*5B
92,0,-0.87,0.06,-0.10,0.37,0.06,0.13,0.7710,-0.0201,-0.0703,-0.6327,$GPGGA,210318.800,4041.9876,N,07421.9151,W,2,07,1.26,100.1,M,-34.2,M,0000,0000*5B
93,0,-0.82,-0.59,0.17,-0.31,-0.25,0.25,0.7710,-0.0194,-0.0706,-0.6326,$GPGGA,210318.900,4041.9866,N,07421.9158,W,2,07,1.26,100.0,M,-34.2,M,0000,0000*53
94,0,-0.72,0.57,0.54,1.44,-0.25,0.37,0.7711,-0.0186,-0.0698,-0.6327,$GPGGA,210319.000,4041.9857,N,07421.9165,W,2,07,1.26,99.9,M,-34.2,M,0000,0000*6F
95,0,-0.95,-0.33,0.47,-2.87,-2.50,0.19,0.7709,-0.0200,-0.0703,-0.6327,$GPGGA,210319.100,4041.9847,N,07421.9173,W,2,07,1.26,99.9,M,-34.2,M,0000,0000*68
96,0,-0.79,0.69,0.24,-1.56,-1.62,0.13,0.7708,-0.0226,-0.0705,-0.6328,$GPGGA,210319.200,4041.9837,N,07421.9180,W,2,07,1.26,99.8,M,-34.2,M,0000,0000*61
97,0,-0.65,-0.10,0.44,-2.31,0.25,-0.13,0.7707,-0.0240,-0.0688,-0.6330,$GPGGA,210319.300,4041.9828,N,07421.9187,W,2,07,1.26,99.8,M,-34.2,M,0000,0000*69
98,0,-0.60,-0.82,0.67,-1.75,0.31,0.00,0.7708,-0.0242,-0.0659,-0.6332,$GPGGA,210319.400,4041.9818,N,07421.9195,W,2,07,1.14,99.7,M,-34.2,M,0000,0000*60
99,0,-0.87,-0.27,-0.18,0.31,0.37,0.13,0.7711,-0.0229,-0.0611,-0.6334,$GPGGA,210319.500,4041.9809,N,07421.9202,W,2,07,1.14,99.6,M,-34.2,M,0000,0000*6D
100,0,-0.46,-0.18,0.79,-1.31,-0.37,-0.19,0.7712,-0.0218,-0.0577,-0.6335,$GPGGA,210319.600,4041.9800,N,07421.9210,W,2,07,1.26,99.6,M,-34.2,M,0000,0000*65
101,0,-0.09,-0.16,0.71,0.62,-2.37,0.13,0.7712,-0.0217,-0.0580,-0.6335,$GPGGA,210319.700,4041.9790,N,07421.9217,W,2,07,1.14,99.5,M,-34.2,M,0000,0000*67
102,0,-0.64,0.36,0.62,-0.31,-1.56,-0.06,0.7712,-0.0220,-0.0586,-0.6335,$GPGGA,210319.800,4041.9780,N,07421.9225,W,2,07,1.26,99.4,M,-34.2,M,0000,0000*68
103,0,-0.60,-0.10,0.73,0.19,0.37,-0.13,0.7712,-0.0222,-0.0585,-0.6335,$GPGGA,210319.900,4041.9771,N,07421.9233,W,2,07,1.26,99.4,M,-34.2,M,0000,0000*60
104,0,-0.40,0.23,0.06,0.06,0.13,0.00,0.7712,-0.0215,-0.0585,-0.6335,$GPGGA,210320.000,4041.9761,N,07421.9240,W,2,07,1.26,99.3,M,-34.2,M,0000,0000*61
105,0,-0.82,-0.24,-0.26,0.88,-0.50,0.06,0.7712,-0.0212,-0.0593,-0.6335,$GPGGA,210320.100,4041.9751,N,07421.9248,W,2,07,1.26,99.2,M,-34.2,M,0000,0000*6A
106,0,-0.45,-0.11,0.80,0.44,0.37,0.00,0.7712,-0.0210,-0.0593,-0.6335,$GPGGA,210320.200,4041.9742,N,07421.9255,W,2,07,1.26,99.2,M,-34.2,M,0000,0000*67
107,0,-0.82,0.45,-0.26,1.12,1.19,0.06,0.7712,-0.0199,-0.0579,-0.6335,$GPGGA,210320.300,4041.9732,N,07421.9263,W,2,07,1.26,99.1,M,-34.2,M,0000,0000*67
108,0,-0.87,-0.42,-0.23,-2.12,-1.69,0.06,0.7712,-0.0206,-0.0577,-0.6336,$GPGGA,210320.400,4041.9723,N,07421.9270,W,2,07,1.14,99.0,M,-34.2,M,0000,0000*62
109,0,-0.64,0.07,1.08,-0.69,-1.12,0.06,0.7711,-0.0228,-0.0590,-0.6336,$GPGGA,210320.500,4041.9713,N,07421.9278,W,2,07,1.14,99.0,M,-34.2,M,0000,0000*68
110,0,-0.83,0.31,0.40,1.81,-0.62,0.37,0.7710,-0.0236,-0.0597,-0.6336,$GPGGA,210320.600,4041.9703,N,07421.9286,W,2,07,1.14,98.9,M,-34.2,M,0000,0000*63
111,0,-0.75,0.42,0.15,1.00,-1.44,0.19,0.7710,-0.0236,-0.0603,-0.6335,$GPGGA,210320.700,4041.9694,N,07421.9294,W,2,07,1.14,98.8,M,-34.2,M,0000,0000*6F
112,0,-0.77,-0.06,0.06,0.13,-1.00,0.37,0.7709,-0.0233,-0.0614,-0.6335,$GPGGA,210320.800,4041.9684,N,07421.9302,W,2,07,1.14,98.7,M,-34.2,M,0000,0000*60
113,0,-0.78,0.45,0.83,-0.50,-2.81,0.37,0.7709,-0.0239,-0.0624,-0.6335,$GPGGA,210320.900,4041.9675,N,07421.9311,W,2,07,1.26,98.7,M,-34.2,M,0000,0000*6C
114,0,-0.96,-0.19,0.20,-0.94,-0.88,-0.06,0.7708,-0.0255,-0.0626,-0.6335,$GPGGA,210321.000,4041.9665,N,07421.9319,W,2,07,1.26,98.6,M,-34.2,M,0000,0000*6C
115,0,-0.78,-0.17,-0.42,0.37,1.44,0.00,0.7708,-0.0258,-0.0622,-0.6335,$GPGGA,210321.100,4041.9655,N,07421.9328,W,2,07,1.26,98.5,M,-34.2,M,0000,0000*6F
116,0,-0.52,0.29,-0.35,1.94,1.62,-0.06,0.7708,-0.0255,-0.0615,-0.6336,$GPGGA,210321.200,4041.9645,N,07421.9336,W,2,07,1.26,98.5,M,-34.2,M,0000,0000*62
117,0,-0.77,-0.65,-0.55,-0.75,2.37,-0.13,0.7709,-0.0247,-0.0604,-0.6336,$GPGGA,210321.300,4041.9636,N,07421.9344,W,2,07,1.26,98.4,M,-34.2,M,0000,0000*63
118,0,-0.87,-0.37,0.11,0.50,-0.25,-0.13,0.7709,-0.0238,-0.0599,-0.6336,$GPGGA,210321.400,4041.9626,N,07421.9352,W,2,07,1.14,98.4,M,-34.2,M,0000,0000*63
119,0,-0.65,0.33,1.29,0.81,-1.00,0.25,0.7709,-0.0238,-0.0610,-0.6335,$GPGGA,210321.500,4041.9616,N,07421.9360,W,2,07,1.14,98.3,M,-34.2,M,0000,0000*67
120,0,-0.84,-0.16,0.18,0.56,-1.06,0.25,0.7709,-0.0241,-0.0619,-0.6335,$GPGGA,210321.600,4041.9606,N,07421.9368,W,2,07,1.14,98.2,M,-34.2,M,0000,0000*6C
121,0,-0.94,-0.01,0.15,-1.50,0.19,-0.06,0.7709,-0.0245,-0.0616,-0.6335,$GPGGA,210321.700,4041.9597,N,07421.9377,W,2,07,1.26,98.2,M,-34.2,M,0000,0000*69
122,0,-0.81,-0.28,0.28,0.13,-0.13,-0.19,0.7708,-0.0250,-0.0620,-0.6335,$GPGGA,210321.800,4041.9587,N,07421.9385,W,2,07,1.26,98.1,M,-34.2,M,0000,0000*69
123,0,-0.73,0.61,-0.58,3.00,1.87,0.06,0.7708,-0.0247,-0.0622,-0.6335,$GPGGA,210321.900,4041.9577,N,07421.9394,W,2,07,1.14,98.1,M,-34.2,M,0000,0000*66
124,0,-0.62,-0.43,-0.76,1.44,-1.19,0.00,0.7709,-0.0231,-0.0626,-0.6334,$GPGGA,210322.000,4041.9567,N,07421.9402,W,2,07,1.26,98.0,M,-34.2,M,0000,0000*65
125,0,-0.96,-0.15,1.02,2.12,-2.56,-0.06,0.7709,-0.0226,-0.0650,-0.6333,$GPGGA,210322.100,4041.9558,N,07421.9410,W,2,07,1.26,97.9,M,-34.2,M,0000,0000*6D
126,0,-0.70,0.38,1.22,-0.56,-3.87,-0.56,0.7706,-0.0253,-0.0680,-0.6332,$GPGGA,210322.200,4041.9548,N,07421.9418,W,2,07,1.26,97.9,M,-34.2,M,0000,0000*67
127,0,-0.68,-0.29,0.04,-1.19,-2.44,-0.75,0.7700,-0.0276,-0.0691,-0.6337,$GPGGA,210322.300,4041.9538,N,07421.9427,W,2,07,1.26,97.8,M,-34.2,M,0000,0000*6C
128,0,-0.58,0.00,-0.42,-0.19,0.69,-0.44,0.7698,-0.0269,-0.0687,-0.6340,$GPGGA,210322.400,4041.9528,N,07421.9434,W,2,07,1.14,97.8,M,-34.2,M,0000,0000*69
129,0,-1.03,-0.07,0.01,2.87,2.62,0.25,0.7699,-0.0258,-0.0681,-0.6340,$GPGGA,210322.500,4041.9519,N,07421.9442,W,2,07,1.26,97.7,M,-34.2,M,0000,0000*65
130,0,-0.45,-0.64,-0.13,-3.12,-3.87,-0.37,0.7698,-0.0267,-0.0685,-0.6340,$GPGGA,210322.600,4041.9509,N,07421.9450,W,2,07,1.14,97.7,M,-34.2,M,0000,0000*65
131,0,-0.37,-0.59,1.03,-2.37,1.37,-0.44,0.7698,-0.0278,-0.0683,-0.6340,$GPGGA,210322.700,4041.9499,N,07421.9458,W,2,07,1.26,97.6,M,-34.2,M,0000,0000*64
132,0,-0.69,-0.45,0.30,2.06,1.69,-0.37,0.7698,-0.0267,-0.0667,-0.6342,$GPGGA,210322.800,4041.9489,N,07421.9467,W,2,07,1.26,97.6,M,-34.2,M,0000,0000*66
133,0,-1.04,-0.26,0.55,2.31,-1.31,0.25,0.7699,-0.0261,-0.0674,-0.6341,$GPGGA,210322.900,4041.9479,N,07421.9474,W,2,07,1.26,97.5,M,-34.2,M,0000,0000*69
134,0,-0.54,-0.54,1.79,1.19,-3.37,0.31,0.7698,-0.0258,-0.0700,-0.6339,$GPGGA,210323.000,4041.9469,N,07421.9483,W,2,07,1.26,97.5,M,-34.2,M,0000,0000*68
135,0,-0.54,0.53,0.90,1.75,-1.62,0.44,0.7698,-0.0246,-0.0715,-0.6338,$GPGGA,210323.100,4041.9459,N,07421.9491,W,2,07,1.26,97.4,M,-34.2,M,0000,0000*68
136,0,-0.65,-0.05,0.61,0.62,-1.87,0.00,0.7697,-0.0244,-0.0718,-0.6339,$GPGGA,210323.200,4041.9449,N,07421.9499,W,2,07,1.26,97.4,M,-34.2,M,0000,0000*62
137,0,-1.01,-0.21,-0.32,-1.62,0.56,0.13,0.7698,-0.0239,-0.0707,-0.6340,$GPGGA,210323.300,4041.9439,N,07421.9507,W,2,07,1.26,97.3,M,-34.2,M,0000,0000*65
138,0,-1.10,-0.10,-0.14,-0.56,0.19,0.44,0.7698,-0.0236,-0.0709,-0.6339,$GPGGA,210323.400,4041.9430,N,07421.9515,W,2,07,1.14,97.3,M,-34.2,M,0000,0000*69
139,0,-0.98,0.69,0.22,1.25,-0.25,0.69,0.7699,-0.0237,-0.0713,-0.6337,$GPGGA,210323.500,4041.9420,N,07421.9523,W,2,07,1.14,97.2,M,-34.2,M,0000,0000*6D
140,0,-0.42,0.34,0.91,-0.56,-0.81,0.25,0.7699,-0.0237,-0.0707,-0.6338,$GPGGA,210323.600,4041.9410,N,07421.9532,W,2,07,1.14,97.2,M,-34.2,M,0000,0000*6D
141,0,-0.39,0.10,-0.65,0.25,0.56,0.31,0.7700,-0.0227,-0.0701,-0.6339,$GPGGA,210323.700,4041.9401,N,07421.9540,W,2,07,1.14,97.1,M,-34.2,M,0000,0000*6A
142,0,-0.83,0.26,-0.70,0.94,1.50,0.50,0.7701,-0.0213,-0.0688,-0.6339,$GPGGA,210323.800,4041.9391,N,07421.9548,W,2,07,1.26,97.1,M,-34.2,M,0000,0000*62
143,0,-0.92,0.53,-0.94,-0.44,-0.75,0.31,0.7702,-0.0201,-0.0677,-0.6339,$GPGGA,210323.900,4041.9382,N,07421.9558,W,2,07,1.26,97.0,M,-34.2,M,0000,0000*61
144,0,-1.06,0.14,0.31,-0.62,-1.31,0.19,0.7701,-0.0208,-0.0682,-0.6339,$GPGGA,210324.000,4041.9372,N,07421.9567,W,2,07,1.26,96.9,M,-34.2,M,0000,0000*64
145,0,-0.61,0.17,0.88,1.19,-0.37,0.37,0.7701,-0.0208,-0.0688,-0.6339,$GPGGA,210324.100,4041.9363,N,07421.9575,W,2,07,1.26,96.9,M,-34.2,M,0000,0000*66
146,0,-0.85,0.02,-0.11,0.19,1.00,0.56,0.7701,-0.0206,-0.0688,-0.6338,$GPGGA,210324.200,4041.9353,N,07421.9584,W,2,07,1.26,96.9,M,-34.2,M,0000,0000*68
147,0,-0.79,0.13,-0.94,-1.00,1.75,0.25,0.7701,-0.0206,-0.0683,-0.6339,$GPGGA,210324.300,4041.9343,N,07421.9593,W,2,07,1.26,96.8,M,-34.2,M,0000,0000*6F
148,0,-0.79,-0.19,-0.41,-2.00,1.56,0.13,0.7701,-0.0209,-0.0676,-0.6339,$GPGGA,210324.400,4041.9334,N,07421.9601,W,2,07,1.14,96.8,M,-34.2,M,0000,0000*61
149,0,-0.54,0.60,0.68,0.44,0.62,0.06,0.7701,-0.0214,-0.0670,-0.6340,$GPGGA,210324.500,4041.9324,N,07421.9609,W,2,07,1.14,96.8,M,-34.2,M,0000,0000*69
150,0,-0.45,-0.09,0.47,0.31,0.69,0.44,0.7702,-0.0213,-0.0656,-0.6341,$GPGGA,210324.600,4041.9314,N,07421.9617,W,2,07,1.26,96.8,M,-34.2,M,0000,0000*67
151,0,-0.60,-0.65,0.57,-2.06,-0.19,0.25,0.7703,-0.0209,-0.0649,-0.6341,$GPGGA,210324.700,4041.9304,N,07421.9625,W,2,07,1.26,96.7,M,-34.2,M,0000,0000*69
152,0,-0.27,-0.30,0.64,-1.00,-0.37,0.25,0.7702,-0.0214,-0.0648,-0.6341,$GPGGA,210324.800,4041.9294,N,07421.9633,W,2,07,1.26,96.7,M,-34.2,M,0000,0000*69
153,0,-0.75,-0.20,-0.39,0.94,0.19,0.25,0.7702,-0.0211,-0.0650,-0.6341,$GPGGA,210324.900,4041.9284,N,07421.9641,W,2,07,1.26,96.7,M,-34.2,M,0000,0000*6C
154,0,-0.51,-0.33,0.65,-0.19,-0.06,0.06,0.7702,-0.0211,-0.0657,-0.6340,$GPGGA,210325.000,4041.9274,N,07421.9649,W,2,07,1.26,96.6,M,-34.2,M,0000,0000*62
155,0,-0.37,-0.08,1.42,-0.75,0.44,0.00,0.7702,-0.0212,-0.0660,-0.6340,$GPGGA,210325.100,4041.9264,N,07421.9657,W,2,07,1.26,96.6,M,-34.2,M,0000,0000*6D
156,0,-0.52,0.22,0.86,0.62,-0.37,-0.19,0.7702,-0.0206,-0.0652,-0.6341,$GPGGA,210325.200,4041.9254,N,07421.9665,W,2,07,1.26,96.6,M,-34.2,M,0000,0000*6C
157,0,-0.01,0.05,1.06,0.31,-0.37,-0.06,0.7703,-0.0203,-0.0644,-0.6342,$GPGGA,210325.300,4041.9244,N,07421.9673,W,2,07,1.26,96.5,M,-34.2,M,0000,0000*68
158,0,-0.58,-0.51,-0.09,-0.94,-1.31,-0.06,0.7702,-0.0209,-0.0646,-0.6342,$GPGGA,210325.400,4041.9234,N,07421.9681,W,2,07,1.14,96.5,M,-34.2,M,0000,0000*64
159,0,-0.77,0.68,-0.60,0.37,0.50,-0.13,0.7703,-0.0203,-0.0636,-0.6342,$GPGGA,210325.500,4041.9224,N,07421.9688,W,2,07,1.26,96.5,M,-34.2,M,0000,0000*6C
160,0,-0.78,0.10,-0.28,1.25,0.19,-0.06,0.7703,-0.0196,-0.0637,-0.6342,$GPGGA,210325.600,4041.9214,N,07421.9696,W,2,07,1.14,96.5,M,-34.2,M,0000,0000*62
161,0,-0.79,0.17,0.39,-0.31,-0.19,0.06,0.7704,-0.0186,-0.0629,-0.6342,$GPGGA,210325.700,4041.9204,N,07421.9704,W,2,07,1.26,96.5,M,-34.2,M,0000,0000*69
162,0,-0.72,-0.37,-0.77,-0.62,0.31,-0.19,0.7704,-0.0182,-0.0621,-0.6342,$GPGGA,210325.800,4041.9194,N,07421.9712,W,2,07,1.26,96.4,M,-34.2,M,0000,0000*6A
163,0,-0.81,0.38,-0.77,-0.37,-0.44,-0.75,0.7704,-0.0185,-0.0615,-0.6344,$GPGGA,210325.900,4041.9184,N,07421.9719,W,2,07,1.26,96.4,M,-34.2,M,0000,0000*61
164,0,-0.72,-0.20,-0.20,-1.06,-0.94,-0.81,0.7700,-0.0184,-0.0600,-0.6349,$GPGGA,210326.000,4041.9174,N,07421.9727,W,2,07,1.26,96.4,M,-34.2,M,0000,0000*69
165,0,-0.88,-0.42,-0.19,-3.19,0.44,-0.75,0.7697,-0.0193,-0.0591,-0.6354,$GPGGA,210326.100,4041.9164,N,07421.9735,W,2,07,1.26,96.4,M,-34.2,M,0000,0000*6A
166,0,-0.45,-0.30,-0.33,-1.56,2.06,-0.44,0.7697,-0.0196,-0.0576,-0.6356,$GPGGA,210326.200,4041.9154,N,07421.9743,W,2,07,1.26,96.3,M,-34.2,M,0000,0000*6C
167,0,-0.57,-0.03,-0.33,0.31,0.00,-0.25,0.7697,-0.0198,-0.0571,-0.6356,$GPGGA,210326.300,4041.9144,N,07421.9750,W,2,07,1.26,96.3,M,-34.2,M,0000,0000*6E
168,0,-0.29,-0.32,-0.07,-0.81,1.87,0.00,0.7697,-0.0201,-0.0563,-0.6356,$GPGGA,210326.400,4041.9134,N,07421.9758,W,2,07,1.14,96.3,M,-34.2,M,0000,0000*67
169,0,-0.41,-0.37,-0.62,2.12,-0.19,0.25,0.7698,-0.0189,-0.0561,-0.6356,$GPGGA,210326.500,4041.9124,N,07421.9766,W,2,07,1.26,96.3,M,-34.2,M,0000,0000*6B
170,0,-0.19,0.06,0.36,0.50,0.56,0.25,0.7698,-0.0180,-0.0563,-0.6356,$GPGGA,210326.600,4041.9114,N,07421.9774,W,2,07,1.26,96.3,M,-34.2,M,0000,0000*68
171,0,-0.21,-0.44,0.24,0.00,0.88,0.25,0.7698,-0.0174,-0.0563,-0.6356,$GPGGA,210326.700,4041.9104,N,07421.9782,W,2,07,1.26,96.2,M,-34.2,M,0000,0000*60
172,0,-0.74,0.11,0.37,-1.06,0.94,0.19,0.7699,-0.0164,-0.0546,-0.6356,$GPGGA,210326.800,4041.9094,N,07421.9790,W,2,07,1.26,96.2,M,-34.2,M,0000,0000*64
173,0,-0.80,-0.17,0.47,-0.44,0.81,0.25,0.7699,-0.0154,-0.0523,-0.6358,$GPGGA,210326.900,4041.9084,N,07421.9798,W,2,07,1.26,96.2,M,-34.2,M,0000,0000*6C
174,0,-1.05,0.16,-0.02,0.44,0.19,0.00,0.7699,-0.0160,-0.0516,-0.6359,$GPGGA,210327.000,4041.9074,N,07421.9806,W,2,07,1.26,96.2,M,-34.2,M,0000,0000*63
175,0,-0.66,-0.57,0.66,-2.06,-2.75,0.13,0.7700,-0.0146,-0.0492,-0.6360,$GPGGA,210327.100,4041.9064,N,07421.9814,W,2,07,1.26,96.1,M,-34.2,M,0000,0000*63
176,0,-0.82,0.12,1.11,2.25,-0.31,0.25,0.7700,-0.0141,-0.0491,-0.6360,$GPGGA,210327.200,4041.9054,N,07421.9822,W,2,07,1.26,96.1,M,-34.2,M,0000,0000*66
177,0,-0.64,0.87,0.00,3.37,0.81,0.37,0.7700,-0.0136,-0.0510,-0.6359,$GPGGA,210327.300,4041.9044,N,07421.9830,W,2,07,1.26,96.1,M,-34.2,M,0000,0000*65
178,0,-1.11,0.15,0.73,-4.62,-0.62,0.25,0.7701,-0.0139,-0.0494,-0.6357,$GPGGA,210327.400,4041.9034,N,07421.9837,W,2,07,1.14,96.1,M,-34.2,M,0000,0000*63
179,0,-0.41,1.19,-0.46,0.13,6.37,-0.88,0.7704,-0.0112,-0.0450,-0.6359,$GPGGA,210327.500,4041.9024,N,07421.9845,W,2,07,1.26,96.0,M,-34.2,M,0000,0000*66
180,0,-1.34,0.00,-0.70,1.37,-1.25,0.00,0.7703,-0.0093,-0.0434,-0.6361,$GPGGA,210327.600,4041.9014,N,07421.9853,W,2,07,1.26,96.0,M,-34.2,M,0000,0000*61
181,0,-1.06,-0.89,2.04,1.31,-0.31,0.75,0.7705,-0.0100,-0.0447,-0.6358,$GPGGA,210327.700,4041.9004,N,07421.9861,W,2,07,1.26,96.0,M,-34.2,M,0000,0000*60
182,0,-0.06,-0.99,1.08,-1.69,-5.37,0.37,0.7704,-0.0123,-0.0460,-0.6357,$GPGGA,210327.800,4041.8994,N,07421.9869,W,2,07,1.26,95.9,M,-34.2,M,0000,0000*6C
183,0,-0.82,-0.06,-1.05,2.25,7.37,-0.56,0.7705,-0.0105,-0.0438,-0.6359,$GPGGA,210327.900,4041.8984,N,07421.9878,W,2,07,1.26,95.9,M,-34.2,M,0000,0000*6C
184,0,-0.80,-0.06,-0.73,0.94,-1.00,-0.69,0.7703,-0.0088,-0.0419,-0.6362,$GPGGA,210328.000,4041.8975,N,07421.9886,W,2,07,1.26,95.9,M,-34.2,M,0000,0000*65
185,0,-0.70,-0.85,1.33,-0.81,-3.81,-0.88,0.7698,-0.0106,-0.0444,-0.6366,$GPGGA,210328.100,4041.8965,N,07421.9894,W,2,07,1.26,95.8,M,-34.2,M,0000,0000*67
186,0,-0.69,-0.50,0.12,1.12,0.50,-0.81,0.7695,-0.0115,-0.0449,-0.6370,$GPGGA,210328.200,4041.8955,N,07421.9902,W,2,07,1.26,95.8,M,-34.2,M,0000,0000*69
187,0,-0.38,0.14,-0.45,1.25,3.31,-0.62,0.7691,-0.0099,-0.0433,-0.6376,$GPGGA,210328.300,4041.8945,N,07421.9909,W,2,07,1.26,95.8,M,-34.2,M,0000,0000*62
188,0,-0.68,-0.44,-0.54,0.94,1.44,-0.94,0.7687,-0.0083,-0.0417,-0.6382,$GPGGA,210328.400,4041.8935,N,07421.9917,W,2,07,1.26,95.7,M,-34.2,M,0000,0000*62
189,0,-0.24,-0.48,0.20,0.37,-1.06,-0.62,0.7683,-0.0075,-0.0411,-0.6387,$GPGGA,210328.500,4041.8925,N,07421.9925,W,2,07,1.26,95.7,M,-34.2,M,0000,0000*63
190,0,-0.54,-0.58,1.80,-0.81,-0.44,-0.56,0.7681,-0.0073,-0.0424,-0.6389,$GPGGA,210328.600,4041.8915,N,07421.9933,W,2,07,1.26,95.7,M,-34.2,M,0000,0000*64
191,0,-0.97,0.24,0.21,-1.44,2.31,-0.31,0.7681,-0.0081,-0.0419,-0.6390,$GPGGA,210328.700,4041.8905,N,07421.9941,W,2,07,1.26,95.6,M,-34.2,M,0000,0000*60
192,0,-1.03,1.72,-0.20,-5.62,-0.44,-1.00,0.7679,-0.0098,-0.0392,-0.6393,$GPGGA,210328.800,4041.8895,N,07421.9949,W,2,07,1.26,95.6,M,-34.2,M,0000,0000*6F
193,0,-1.41,-0.01,-1.22,-2.44,4.19,-0.06,0.7676,-0.0112,-0.0367,-0.6397,$GPGGA,210328.900,4041.8884,N,07421.9957,W,2,07,1.26,95.5,M,-34.2,M,0000,0000*62
194,0,-0.41,-0.72,-0.05,3.19,0.19,0.13,0.7676,-0.0114,-0.0361,-0.6398,$GPGGA,210329.000,4041.8875,N,07421.9965,W,2,07,1.26,95.5,M,-34.2,M,0000,0000*65
195,0,-0.79,-0.15,0.63,6.62,2.31,0.69,0.7678,-0.0092,-0.0380,-0.6395,$GPGGA,210329.100,4041.8865,N,07421.9973,W,2,07,1.26,95.5,M,-34.2,M,0000,0000*62
196,0,-0.81,-0.09,-0.60,1.12,2.31,1.19,0.7686,-0.0049,-0.0391,-0.6386,$GPGGA,210329.200,4041.8855,N,07421.9980,W,2,07,1.26,95.4,M,-34.2,M,0000,0000*6F
197,0,-0.86,0.19,0.73,1.00,-1.19,0.94,0.7691,-0.0025,-0.0404,-0.6379,$GPGGA,210329.300,4041.8845,N,07421.9988,W,2,07,1.26,95.4,M,-34.2,M,0000,0000*67
198,0,-0.69,0.38,-0.28,-1.75,-5.31,0.13,0.7690,-0.0046,-0.0418,-0.6379,$GPGGA,210329.400,4041.8835,N,07421.9996,W,2,07,1.14,95.4,M,-34.2,M,0000,0000*69
199,0,-1.28,0.31,1.47,0.81,-0.62,-0.13,0.7689,-0.0051,-0.0440,-0.6378,$GPGGA,210329.500,4041.8825,N,07422.0004,W,2,07,1.14,95.3,M,-34.2,M,0000,0000*66
200,0,-0.80,0.81,-0.69,-1.87,0.56,0.19,0.7689,-0.0079,-0.0427,-0.6379,$GPGGA,210329.600,4041.8815,N,07422.0012,W,2,07,1.26,95.3,M,-34.2,M,0000,0000*60
201,0,-0.83,0.28,-2.12,-5.44,5.37,-0.13,0.7691,-0.0072,-0.0392,-0.6379,$GPGGA,210329.700,4041.8805,N,07422.0019,W,2,07,1.26,95.3,M,-34.2,M,0000,0000*6B
202,0,-1.33,-0.86,-1.29,1.25,3.50,0.31,0.7692,-0.0065,-0.0349,-0.6380,$GPGGA,210329.800,4041.8795,N,07422.0027,W,2,07,1.27,95.2,M,-34.2,M,0000,0000*6F
203,0,-1.30,-0.59,-0.68,0.50,-0.56,0.44,0.7693,-0.0052,-0.0336,-0.6380,$GPGGA,210329.900,4041.8786,N,07422.0035,W,2,07,1.26,95.2,M,-34.2,M,0000,0000*6E
204,0,0.06,0.52,-1.30,0.06,-7.94,0.50,0.7694,-0.0047,-0.0359,-0.6378,$GPGGA,210330.000,4041.8776,N,07422.0043,W,2,07,1.26,95.2,M,-34.2,M,0000,0000*61
205,0,-1.14,0.71,1.25,1.75,1.19,0.81,0.7697,-0.0047,-0.0378,-0.6373,$GPGGA,210330.100,4041.8766,N,07422.0051,W,2,07,1.26,95.1,M,-34.2,M,0000,0000*61
206,0,-1.03,-0.28,-1.53,-1.12,0.00,0.44,0.7699,-0.0039,-0.0370,-0.6371,$GPGGA,210330.200,4041.8756,N,07422.0059,W,2,07,1.26,95.0,M,-34.2,M,0000,0000*68
207,0,-1.30,-0.32,0.23,0.00,1.56,0.13,0.7700,-0.0029,-0.0366,-0.6371,$GPGGA,210330.300,4041.8746,N,07422.0067,W,2,07,1.26,95.0,M,-34.2,M,0000,0000*65
208,0,-1.30,0.45,0.04,-0.88,0.13,0.25,0.7700,-0.0030,-0.0364,-0.6371,$GPGGA,210330.400,4041.8736,N,07422.0075,W,2,07,1.26,94.9,M,-34.2,M,0000,0000*6E
209,0,-1.49,0.02,0.20,0.94,1.12,0.13,0.7699,-0.0034,-0.0364,-0.6371,$GPGGA,210330.500,4041.8726,N,07422.0082,W,2,07,1.14,94.9,M,-34.2,M,0000,0000*67
210,0,-1.43,0.05,1.21,-1.19,1.62,0.13,0.7700,-0.0033,-0.0355,-0.6371,$GPGGA,210330.600,4041.8717,N,07422.0090,W,2,07,1.26,94.8,M,-34.2,M,0000,0000*65
211,0,-2.20,0.08,-0.50,-0.06,2.94,0.25,0.7700,-0.0022,-0.0347,-0.6371,$GPGGA,210330.700,4041.8707,N,07422.0098,W,2,07,1.26,94.8,M,-34.2,M,0000,0000*6D
212,0,-1.85,0.12,-0.13,0.37,0.31,0.06,0.7701,-0.0003,-0.0333,-0.6371,$GPGGA,210330.800,4041.8698,N,07422.0106,W,2,07,1.27,94.7,M,-34.2,M,0000,0000*6D
213,0,-2.43,0.78,-0.03,-0.25,-2.12,-0.37,0.7700,-0.0012,-0.0336,-0.6372,$GPGGA,210330.900,4041.8688,N,07422.0113,W,2,07,1.26,94.7,M,-34.2,M,0000,0000*68
214,0,-2.62,-0.61,1.97,-1.87,0.62,-0.31,0.7698,-0.0026,-0.0343,-0.6373,$GPGGA,210331.000,4041.8679,N,07422.0121,W,2,07,1.27,94.6,M,-34.2,M,0000,0000*6F
215,0,-2.46,-2.53,-1.27,-4.94,-2.69,-0.44,0.7698,-0.0056,-0.0334,-0.6373,$GPGGA,210331.100,4041.8669,N,07422.0128,W,2,07,1.27,94.5,M,-34.2,M,0000,0000*65
216,0,-1.99,-0.95,-1.32,4.06,1.06,0.19,0.7701,-0.0013,-0.0329,-0.6370,$GPGGA,210331.200,4041.8660,N,07422.0135,W,2,07,1.26,94.5,M,-34.2,M,0000,0000*62
217,0,-3.39,-2.36,0.27,8.69,-1.69,0.62,0.7704,0.0048,-0.0362,-0.6365,$GPGGA,210331.300,4041.8651,N,07422.0143,W,2,07,1.26,94.4,M,-34.2,M,0000,0000*61
218,0,-2.41,1.12,1.90,-8.50,-1.00,1.62,0.7709,0.0010,-0.0383,-0.6357,$GPGGA,210331.400,4041.8642,N,07422.0150,W,2,07,1.26,94.4,M,-34.2,M,0000,0000*66
219,0,-3.04,0.05,-0.86,-3.81,3.12,-0.13,0.7713,-0.0027,-0.0366,-0.6354,$GPGGA,210331.500,4041.8633,N,07422.0157,W,2,07,1.26,94.3,M,-34.2,M,0000,0000*61
220,0,-2.42,-0.15,-0.31,-0.19,6.69,-0.88,0.7710,-0.0012,-0.0323,-0.6360,$GPGGA,210331.600,4041.8624,N,07422.0164,W,2,07,1.26,94.2,M,-34.2,M,0000,0000*65
221,0,-2.66,-0.47,-1.31,1.44,1.81,0.44,0.7710,0.0004,-0.0300,-0.6361,$GPGGA,210331.700,4041.8615,N,07422.0171,W,2,07,1.14,94.1,M,-34.2,M,0000,0000*60
222,0,-2.17,-0.27,0.11,-0.13,-2.44,0.88,0.7714,0.0012,-0.0312,-0.6357,$GPGGA,210331.800,4041.8606,N,07422.0178,W,2,07,1.26,94.0,M,-34.2,M,0000,0000*64
223,0,-2.41,0.16,0.25,1.44,-0.94,0.88,0.7719,0.0015,-0.0332,-0.6349,$GPGGA,210331.900,4041.8597,N,07422.0185,W,2,07,1.26,94.0,M,-34.2,M,0000,0000*6C
224,0,-2.46,0.78,0.43,0.06,0.13,0.25,0.7720,0.0013,-0.0338,-0.6347,$GPGGA,210332.000,4041.8589,N,07422.0192,W,2,07,1.27,93.9,M,-34.2,M,0000,0000*60
225,0,-2.30,0.12,-0.66,0.37,2.69,0.37,0.7720,0.0038,-0.0306,-0.6348,$GPGGA,210332.100,4041.8580,N,07422.0199,W,2,07,1.27,93.8,M,-34.2,M,0000,0000*62
226,0,-1.56,0.18,-0.14,-0.19,1.44,0.31,0.7720,0.0176,-0.0134,-0.6353,$GPGGA,210332.200,4041.8571,N,07422.0205,W,2,07,1.26,93.8,M,-34.2,M,0000,0000*68
227,0,-1.40,-0.35,-0.18,0.00,1.12,0.56,0.7719,0.0220,-0.0086,-0.6353,$GPGGA,210332.300,4041.8563,N,07422.0212,W,2,07,1.26,93.7,M,-34.2,M,0000,0000*63
228,0,-1.49,-0.26,-0.14,-0.19,-0.13,0.50,0.7719,0.0298,0.0002,-0.6351,$GPGGA,210332.400,4041.8554,N,07422.0219,W,2,07,1.14,93.7,M,-34.2,M,0000,0000*6A
229,0,-0.72,0.30,0.20,-0.44,-0.75,0.25,0.7714,0.0396,0.0095,-0.6351,$GPGGA,210332.500,4041.8546,N,07422.0225,W,2,07,1.14,93.6,M,-34.2,M,0000,0000*66
230,0,-0.90,0.33,0.15,-1.06,-1.00,0.37,0.7714,0.0395,0.0094,-0.6351,$GPGGA,210332.600,4041.8537,N,07422.0232,W,2,07,1.14,93.5,M,-34.2,M,0000,0000*66
231,0,-0.75,-0.30,0.50,-0.75,-0.13,0.06,0.7713,0.0407,0.0118,-0.6351,$GPGGA,210332.700,4041.8529,N,07422.0238,W,2,07,1.26,93.5,M,-34.2,M,0000,0000*63
232,0,-0.59,-0.89,-0.09,0.06,0.50,0.00,0.7713,0.0403,0.0123,-0.6351,$GPGGA,210332.800,4041.8521,N,07422.0244,W,2,07,1.26,93.4,M,-34.2,M,0000,0000*6E
233,0,-0.64,0.23,0.08,-0.94,-1.19,-0.13,0.7713,0.0404,0.0132,-0.6351,$GPGGA,210332.900,4041.8514,N,07422.0250,W,2,07,1.26,93.4,M,-34.2,M,0000,0000*6C
234,0,-0.14,-0.25,0.40,0.31,0.19,-0.31,0.7714,0.0389,0.0134,-0.6351,$GPGGA,210333.000,4041.8506,N,07422.0257,W,2,07,1.26,93.3,M,-34.2,M,0000,0000*67
235,0,-0.20,-0.73,-0.10,-1.50,0.25,-0.81,0.7712,0.0380,0.0137,-0.6353,$GPGGA,210333.100,4041.8498,N,07422.0262,W,2,07,1.26,93.3,M,-34.2,M,0000,0000*66
236,0,-0.24,-0.61,0.10,0.00,1.25,-0.56,0.7710,0.0378,0.0145,-0.6356,$GPGGA,210333.200,4041.8490,N,07422.0268,W,2,07,1.26,93.2,M,-34.2,M,0000,0000*66
237,0,-0.15,-0.87,0.08,1.75,1.06,-0.56,0.7708,0.0385,0.0150,-0.6358,$GPGGA,210333.300,4041.8482,N,07422.0274,W,2,07,1.26,93.2,M,-34.2,M,0000,0000*69
238,0,-0.22,-0.41,0.03,0.00,-0.69,-0.75,0.7704,0.0397,0.0151,-0.6361,$GPGGA,210333.400,4041.8474,N,07422.0280,W,2,07,1.14,93.4,M,-34.2,M,0000,0000*6B
239,0,-0.14,-0.08,0.28,-0.50,-0.75,-0.75,0.7700,0.0394,0.0166,-0.6366,$GPGGA,210333.500,4041.8466,N,07422.0285,W,2,07,1.14,93.4,M,-34.2,M,0000,0000*6C
240,0,-0.19,-0.57,0.09,-0.62,0.00,-1.00,0.7695,0.0392,0.0176,-0.6373,$GPGGA,210333.600,4041.8458,N,07422.0291,W,2,07,1.14,93.3,M,-34.2,M,0000,0000*60
241,0,-0.09,-0.19,0.22,0.88,1.19,-0.94,0.7689,0.0388,0.0191,-0.6379,$GPGGA,210333.700,4041.8450,N,07422.0296,W,2,07,1.14,93.5,M,-34.2,M,0000,0000*68
242,0,-0.11,-0.45,-0.15,0.44,1.25,-0.94,0.7683,0.0390,0.0206,-0.6385,$GPGGA,210333.800,4041.8442,N,07422.0301,W,2,07,1.26,93.5,M,-34.2,M,0000,0000*6A
243,0,-0.19,-0.57,-0.30,0.94,1.06,-0.94,0.7678,0.0396,0.0210,-0.6392,$GPGGA,210333.900,4041.8435,N,07422.0306,W,2,07,1.27,93.4,M,-34.2,M,0000,0000*6C
244,0,-0.15,-0.42,0.24,-0.37,0.25,-1.31,0.7671,0.0399,0.0211,-0.6400,$GPGGA,210334.000,4041.8428,N,07422.0311,W,2,07,1.26,93.4,M,-34.2,M,0000,0000*69
245,0,-0.25,0.03,0.09,2.00,0.81,-1.12,0.7664,0.0398,0.0215,-0.6409,$GPGGA,210334.100,4041.8421,N,07422.0316,W,2,07,1.26,93.4,M,-34.2,M,0000,0000*66
246,0,-0.09,-0.17,0.13,-0.81,-0.44,-1.37,0.7656,0.0392,0.0222,-0.6418,$GPGGA,210334.200,4041.8413,N,07422.0321,W,2,07,1.26,93.3,M,-34.2,M,0000,0000*67
247,0,0.04,-0.24,-0.05,-1.25,-0.31,-1.69,0.7647,0.0387,0.0233,-0.6428,$GPGGA,210334.300,4041.8406,N,07422.0325,W,2,07,1.26,93.2,M,-34.2,M,0000,0000*67
248,0,-0.15,-0.53,-0.02,0.50,1.00,-1.81,0.7637,0.0387,0.0240,-0.6439,$GPGGA,210334.400,4041.8398,N,07422.0330,W,2,07,1.14,93.4,M,-34.2,M,0000,0000*63
249,0,-0.11,-0.11,-0.14,0.88,1.12,-1.75,0.7627,0.0388,0.0256,-0.6451,$GPGGA,210334.500,4041.8391,N,07422.0334,W,2,07,1.14,93.4,M,-34.2,M,0000,0000*6F
250,0,-0.10,-0.29,-0.36,1.19,0.06,-1.75,0.7617,0.0395,0.0254,-0.6462,$GPGGA,210334.600,4041.8383,N,07422.0339,W,2,07,1.26,93.3,M,-34.2,M,0000,0000*64
251,0,-0.21,-0.36,-0.30,1.25,0.25,-1.69,0.7607,0.0399,0.0261,-0.6473,$GPGGA,210334.700,4041.8376,N,07422.0343,W,2,07,1.26,93.3,M,-34.2,M,0000,0000*62
252,0,-0.08,-0.38,0.17,0.44,-0.50,-1.62,0.7596,0.0395,0.0287,-0.6485,$GPGGA,210334.800,4041.8369,N,07422.0348,W,2,07,1.27,93.2,M,-34.2,M,0000,0000*68
253,0,-0.28,-0.16,0.46,1.06,-0.56,-1.87,0.7585,0.0397,0.0289,-0.6498,$GPGGA,210334.900,4041.8363,N,07422.0353,W,2,07,1.26,93.2,M,-34.2,M,0000,0000*68
254,0,-0.26,-0.17,0.10,0.88,0.44,-2.12,0.7573,0.0394,0.0298,-0.6512,$GPGGA,210335.000,4041.8356,N,07422.0359,W,2,07,1.27,93.1,M,-34.2,M,0000,0000*6E
255,0,-0.15,-0.35,0.11,0.25,-1.44,-2.00,0.7560,0.0394,0.0320,-0.6526,$GPGGA,210335.100,4041.8350,N,07422.0364,W,2,07,1.26,93.1,M,-34.2,M,0000,0000*66
256,0,-0.35,-0.17,0.22,0.94,-0.81,-2.12,0.7546,0.0397,0.0345,-0.6541,$GPGGA,210335.200,4041.8344,N,07422.0370,W,2,07,1.26,93.1,M,-34.2,M,0000,0000*65
257,0,-0.29,-0.03,0.03,1.69,-0.69,-1.75,0.7535,0.0400,0.0345,-0.6553,$GPGGA,210335.300,4041.8337,N,07422.0376,W,2,07,1.26,93.0,M,-34.2,M,0000,0000*67
258,0,-0.46,-0.21,0.27,0.56,-0.75,-1.81,0.7523,0.0406,0.0364,-0.6566,$GPGGA,210335.400,4041.8330,N,07422.0381,W,2,07,1.14,93.0,M,-34.2,M,0000,0000*6E
259,0,-0.33,-0.33,-0.26,2.31,-0.56,-1.94,0.7511,0.0419,0.0378,-0.6578,$GPGGA,210335.500,4041.8323,N,07422.0386,W,2,07,1.27,92.9,M,-34.2,M,0000,0000*62
260,0,-0.16,0.00,-0.47,2.94,-0.25,-1.87,0.7498,0.0447,0.0398,-0.6590,$GPGGA,210335.600,4041.8317,N,07422.0391,W,2,07,1.27,92.9,M,-34.2,M,0000,0000*60
261,0,-0.43,-0.08,0.13,1.31,0.44,-2.00,0.7486,0.0463,0.0390,-0.6603,$GPGGA,210335.700,4041.8311,N,07422.0397,W,2,07,1.27,92.8,M,-34.2,M,0000,0000*60
262,0,-0.42,-0.11,0.52,2.62,1.62,-1.62,0.7474,0.0485,0.0399,-0.6614,$GPGGA,210335.800,4041.8305,N,07422.0401,W,1,07,1.27,92.8,M,-34.2,M,,*61
263,0,-0.76,-0.28,-0.09,-0.06,0.31,-1.81,0.7463,0.0505,0.0425,-0.6624,$GPGGA,210335.900,4041.8298,N,07422.0406,W,1,07,1.26,92.7,M,-34.2,M,,*6C
264,0,-0.48,-0.49,0.13,1.00,-0.88,-2.12,0.7451,0.0521,0.0439,-0.6635,$GPGGA,210336.000,4041.8292,N,07422.0411,W,1,07,1.27,92.7,M,-34.2,M,,*6B
265,0,-0.56,-0.26,0.31,-0.25,-0.31,-2.06,0.7438,0.0530,0.0445,-0.6647,$GPGGA,210336.100,4041.8286,N,07422.0416,W,1,07,1.26,92.6,M,-34.2,M,,*68
266,0,-0.84,-0.18,0.23,0.25,-0.94,-1.94,0.7428,0.0525,0.0447,-0.6660,$GPGGA,210336.200,4041.8280,N,07422.0421,W,1,07,1.26,92.6,M,-34.2,M,,*69
267,0,-0.65,0.12,0.00,1.75,-2.19,-1.87,0.7418,0.0521,0.0433,-0.6672,$GPGGA,210336.300,4041.8274,N,07422.0425,W,1,07,1.27,92.5,M,-34.2,M,,*65
268,0,-0.63,-0.31,0.23,-0.75,-1.56,-2.06,0.7407,0.0514,0.0418,-0.6686,$GPGGA,210336.400,4041.8267,N,07422.0430,W,1,07,1.14,92.5,M,-34.2,M,,*64
269,0,-0.73,0.19,0.11,1.81,1.19,-2.37,0.7393,0.0516,0.0422,-0.6700,$GPGGA,210336.500,4041.8261,N,07422.0435,W,1,07,1.14,92.4,M,-34.2,M,,*67
270,0,-0.49,-0.04,0.44,0.00,-1.12,-2.50,0.7378,0.0526,0.0446,-0.6715,$GPGGA,210336.600,4041.8256,N,07422.0440,W,1,07,1.26,92.4,M,-34.2,M,,*63
271,0,-0.43,0.03,-0.05,0.25,-1.19,-2.44,0.7362,0.0530,0.0455,-0.6731,$GPGGA,210336.700,4041.8250,N,07422.0444,W,1,07,1.26,92.3,M,-34.2,M,,*67
272,0,-0.53,-0.05,0.18,0.88,-1.69,-2.69,0.7346,0.0531,0.0469,-0.6748,$GPGGA,210336.800,4041.8244,N,07422.0449,W,1,07,1.26,92.3,M,-34.2,M,,*60
273,0,-0.20,-0.01,0.53,2.69,-1.00,-2.25,0.7329,0.0543,0.0490,-0.6763,$GPGGA,210336.900,4041.8239,N,07422.0454,W,1,07,1.26,92.2,M,-34.2,M,,*66
274,0,-0.68,-0.14,0.28,1.94,-0.19,-2.31,0.7314,0.0557,0.0492,-0.6779,$GPGGA,210337.000,4041.8234,N,07422.0459,W,1,07,1.26,92.2,M,-34.2,M,,*6E
275,0,-0.61,-0.10,0.29,2.75,-1.12,-1.81,0.7300,0.0575,0.0496,-0.6793,$GPGGA,210337.100,4041.8229,N,07422.0463,W,1,07,1.26,92.1,M,-34.2,M,,*69
276,0,-0.64,0.04,0.02,1.06,0.50,-1.62,0.7289,0.0579,0.0483,-0.6805,$GPGGA,210337.200,4041.8224,N,07422.0468,W,1,07,1.26,92.1,M,-34.2,M,,*6C
277,0,-0.22,0.32,0.17,2.81,-0.13,-1.75,0.7278,0.0597,0.0471,-0.6815,$GPGGA,210337.300,4041.8219,N,07422.0473,W,1,07,1.26,92.1,M,-34.2,M,,*69
278,0,-0.13,-0.08,0.58,4.12,1.94,-1.25,0.7266,0.0636,0.0455,-0.6826,$GPGGA,210337.400,4041.8214,N,07422.0477,W,1,07,1.14,92.0,M,-34.2,M,,*67
279,0,-0.14,0.03,0.07,1.31,-1.37,-1.50,0.7256,0.0649,0.0463,-0.6834,$GPGGA,210337.500,4041.8208,N,07422.0481,W,1,07,1.14,92.3,M,-34.2,M,,*61
280,0,-0.09,0.00,0.10,0.69,-0.25,-1.37,0.7247,0.0651,0.0459,-0.6844,$GPGGA,210337.600,4041.8203,N,07422.0485,W,1,07,1.27,92.3,M,-34.2,M,,*6D
281,0,0.00,0.09,0.33,-0.13,-0.06,-1.50,0.7239,0.0649,0.0455,-0.6854,$GPGGA,210337.700,4041.8198,N,07422.0490,W,1,07,1.26,92.3,M,-34.2,M,,*68
282,0,-0.32,-0.37,-0.02,-1.37,0.13,-1.69,0.7230,0.0649,0.0452,-0.6863,$GPGGA,210337.800,4041.8194,N,07422.0494,W,1,07,1.27,92.2,M,-34.2,M,,*6F
283,0,0.00,-0.21,0.52,1.25,0.81,-1.44,0.7220,0.0651,0.0446,-0.6873,$GPGGA,210337.900,4041.8189,N,07422.0498,W,1,07,1.26,92.2,M,-34.2,M,,*6F
284,0,0.08,0.57,0.25,1.00,-0.81,-1.37,0.7211,0.0652,0.0441,-0.6883,$GPGGA,210338.000,4041.8185,N,07422.0502,W,1,07,1.27,92.1,M,-34.2,M,,*65
285,0,0.11,0.24,0.65,-0.44,-2.19,-1.50,0.7202,0.0650,0.0437,-0.6893,$GPGGA,210338.100,4041.8180,N,07422.0506,W,1,07,1.27,92.1,M,-34.2,M,,*65
286,0,-0.13,0.03,0.38,-0.94,-0.50,-1.69,0.7194,0.0647,0.0432,-0.6903,$GPGGA,210338.200,4041.8176,N,07422.0510,W,1,07,1.26,92.1,M,-34.2,M,,*69
287,0,-0.15,-0.04,0.03,0.75,-0.06,-1.56,0.7186,0.0648,0.0420,-0.6912,$GPGGA,210338.300,4041.8173,N,07422.0514,W,1,07,1.26,92.0,M,-34.2,M,,*68
288,0,0.14,0.03,0.79,-0.31,0.88,-1.62,0.7177,0.0650,0.0415,-0.6921,$GPGGA,210338.400,4041.8168,N,07422.0518,W,1,07,1.14,92.0,M,-34.2,M,,*68
289,0,-0.03,0.12,0.08,-0.37,1.50,-1.56,0.7168,0.0656,0.0420,-0.6929,$GPGGA,210338.500,4041.8164,N,07422.0522,W,1,07,1.14,91.9,M,-34.2,M,,*66
290,0,0.13,0.16,0.40,-2.81,-2.00,-1.69,0.7159,0.0657,0.0419,-0.6938,$GPGGA,210338.600,4041.8160,N,07422.0526,W,1,07,1.26,91.9,M,-34.2,M,,*64
291,0,-0.38,0.07,-0.24,-0.62,-0.75,-1.25,0.7151,0.0655,0.0416,-0.6947,$GPGGA,210338.700,4041.8157,N,07422.0530,W,1,07,1.27,91.8,M,-34.2,M,,*66
292,0,-0.37,0.28,-0.06,-0.75,-0.37,-1.12,0.7145,0.0651,0.0412,-0.6954,$GPGGA,210338.800,4041.8153,N,07422.0534,W,1,07,1.27,91.8,M,-34.2,M,,*69
293,0,-0.14,0.02,0.57,1.81,-1.12,-1.25,0.7137,0.0659,0.0409,-0.6962,$GPGGA,210338.900,4041.8149,N,07422.0538,W,1,07,1.27,91.8,M,-34.2,M,,*6F
294,0,-0.20,0.39,0.32,0.62,-1.25,-1.37,0.7129,0.0665,0.0408,-0.6969,$GPGGA,210339.000,4041.8146,N,07422.0543,W,1,07,1.26,91.8,M,-34.2,M,,*65
295,0,-0.29,0.12,0.34,-0.25,1.19,-1.37,0.7119,0.0691,0.0415,-0.6976,$GPGGA,210339.100,4041.8143,N,07422.0547,W,1,07,1.26,91.7,M,-34.2,M,,*6A
296,0,-0.51,0.30,-0.11,0.31,-1.19,-1.37,0.7109,0.0720,0.0422,-0.6983,$GPGGA,210339.200,4041.8140,N,07422.0551,W,1,07,1.26,91.7,M,-34.2,M,,*6D
297,0,-0.51,0.21,0.08,0.31,0.19,-1.12,0.7101,0.0722,0.0419,-0.6991,$GPGGA,210339.300,4041.8137,N,07422.0555,W,1,07,1.27,91.7,M,-34.2,M,,*69
298,0,-0.45,0.42,-0.02,0.94,-0.31,-1.19,0.7094,0.0735,0.0426,-0.6997,$GPGGA,210339.400,4041.8134,N,07422.0561,W,1,07,1.27,91.7,M,-34.2,M,,*6A
299,0,-0.25,0.16,-0.20,0.13,-1.81,-1.00,0.7085,0.0765,0.0428,-0.7003,$GPGGA,210339.500,4041.8131,N,07422.0566,W,1,07,1.26,91.8,M,-34.2,M,,*67
300,0,-0.54,-0.08,0.24,0.13,0.25,-1.19,0.7076,0.0789,0.0432,-0.7008,$GPGGA,210339.600,4041.8129,N,07422.0571,W,1,07,1.27,91.8,M,-34.2,M,,*6A
301,0,-0.41,0.10,-0.11,0.06,-1.06,-1.25,0.7070,0.0789,0.0432,-0.7015,$GPGGA,210339.700,4041.8125,N,07422.0575,W,1,07,1.27,91.8,M,-34.2,M,,*63
302,0,-0.65,0.13,0.22,0.25,0.19,-1.12,0.7062,0.0797,0.0433,-0.7022,$GPGGA,210339.800,4041.8122,N,07422.0581,W,1,07,1.27,91.8,M,-34.2,M,,*60
303,0,-0.50,0.27,-0.05,0.94,-0.50,-1.06,0.7053,0.0814,0.0438,-0.7028,$GPGGA,210339.900,4041.8119,N,07422.0585,W,1,07,1.27,91.8,M,-34.2,M,,*6D
304,0,-0.26,0.09,0.21,-0.44,0.56,-1.25,0.7045,0.0827,0.0445,-0.7034,$GPGGA,210340.000,4041.8117,N,07422.0588,W,1,07,1.27,91.8,M,-34.2,M,,*69
305,0,-0.15,0.18,0.30,0.06,-0.56,-1.12,0.7037,0.0839,0.0448,-0.7040,$GPGGA,210340.100,4041.8115,N,07422.0592,W,1,07,1.27,91.8,M,-34.2,M,,*61
306,0,-0.21,-0.04,0.06,0.06,-0.50,-0.94,0.7031,0.0847,0.0444,-0.7046,$GPGGA,210340.200,4041.8113,N,07422.0595,W,1,07,1.27,91.9,M,-34.2,M,,*62
307,0,-0.25,0.04,0.34,-0.06,1.12,-1.00,0.7025,0.0853,0.0447,-0.7052,$GPGGA,210340.300,4041.8110,N,07422.0599,W,1,07,1.26,91.9,M,-34.2,M,,*6D
308,0,-0.08,0.29,0.17,0.19,-1.06,-1.06,0.7018,0.0859,0.0450,-0.7057,$GPGGA,210340.400,4041.8108,N,07422.0603,W,1,07,1.14,91.9,M,-34.2,M,,*62
309,0,-0.34,-0.08,-0.34,-0.31,-0.31,-1.00,0.7010,0.0870,0.0452,-0.7063,$GPGGA,210340.500,4041.8105,N,07422.0607,W,1,07,1.14,91.9,M,-34.2,M,,*6A
310,0,-0.38,0.41,0.29,0.37,-0.06,-0.62,0.7006,0.0878,0.0455,-0.7067,$GPGGA,210340.600,4041.8102,N,07422.0611,W,1,07,1.27,91.9,M,-34.2,M,,*69
311,0,-0.33,-0.10,-0.20,-0.25,-1.50,-0.81,0.7000,0.0892,0.0459,-0.7070,$GPGGA,210340.700,4041.8100,N,07422.0614,W,1,07,1.27,91.9,M,-34.2,M,,*6F
312,0,-0.06,0.19,0.04,-1.44,-0.06,-0.75,0.6996,0.0890,0.0461,-0.7075,$GPGGA,210340.800,4041.8097,N,07422.0618,W,1,07,1.27,91.9,M,-34.2,M,,*63
313,0,0.37,0.01,0.17,0.06,-1.06,-0.81,0.6993,0.0882,0.0460,-0.7078,$GPGGA,210340.900,4041.8095,N,07422.0621,W,1,07,1.27,91.9,M,-34.2,M,,*6A
314,0,0.53,0.31,0.26,3.44,-1.81,-0.50,0.6995,0.0856,0.0412,-0.7084,$GPGGA,210341.000,4041.8092,N,07422.0624,W,1,07,1.27,91.9,M,-34.2,M,,*60
315,0,0.67,0.00,0.06,0.88,-0.19,-0.56,0.6995,0.0837,0.0369,-0.7087,$GPGGA,210341.100,4041.8090,N,07422.0627,W,1,07,1.27,91.8,M,-34.2,M,,*61
316,0,0.94,0.07,0.28,0.56,-0.88,-0.62,0.6998,0.0805,0.0319,-0.7091,$GPGGA,210341.200,4041.8088,N,07422.0630,W,1,07,1.27,91.8,M,-34.2,M,,*6D
317,0,0.82,0.22,0.13,-0.44,0.56,-0.44,0.7003,0.0759,0.0258,-0.7094,$GPGGA,210341.300,4041.8086,N,07422.0632,W,1,07,1.27,91.8,M,-34.2,M,,*60
318,0,0.63,0.40,0.26,-0.81,0.06,-0.62,0.7004,0.0726,0.0222,-0.7097,$GPGGA,210341.400,4041.8084,N,07422.0635,W,1,07,1.14,91.8,M,-34.2,M,,*62
319,0,0.48,0.05,-0.20,0.19,0.37,-0.75,0.7003,0.0697,0.0192,-0.7102,$GPGGA,210341.500,4041.8082,N,07422.0637,W,1,07,1.14,91.8,M,-34.2,M,,*67
320,0,0.49,-0.02,0.18,-0.44,-0.13,-0.62,0.7002,0.0677,0.0168,-0.7106,$GPGGA,210341.600,4041.8081,N,07422.0639,W,1,07,1.26,91.8,M,-34.2,M,,*68
321,0,0.48,0.06,0.00,-0.06,-0.25,-0.69,0.7003,0.0659,0.0142,-0.7107,$GPGGA,210341.700,4041.8080,N,07422.0640,W,1,07,1.27,91.7,M,-34.2,M,,*68
322,0,0.31,0.29,0.28,-0.19,-0.31,-0.69,0.7000,0.0643,0.0128,-0.7112,$GPGGA,210341.800,4041.8079,N,07422.0642,W,1,07,1.27,91.7,M,-34.2,M,,*63
323,0,0.28,0.01,0.12,0.62,0.13,-0.44,0.6998,0.0630,0.0115,-0.7115,$GPGGA,210341.900,4041.8078,N,07422.0643,W,1,07,1.27,91.7,M,-34.2,M,,*62
324,0,0.38,0.31,0.20,-0.50,-0.50,-0.62,0.6998,0.0621,0.0099,-0.7115,$GPGGA,210342.000,4041.8077,N,07422.0645,W,1,07,1.27,91.7,M,-34.2,M,,*61
325,0,0.34,0.16,0.50,0.31,-0.37,-0.81,0.6995,0.0611,0.0084,-0.7120,$GPGGA,210342.100,4041.8076,N,07422.0646,W,1,07,1.27,91.7,M,-34.2,M,,*62
326,0,0.27,0.20,0.36,0.50,-1.25,-0.44,0.6993,0.0602,0.0076,-0.7122,$GPGGA,210342.200,4041.8075,N,07422.0648,W,1,07,1.27,91.7,M,-34.2,M,,*6C
327,0,0.39,0.20,0.37,0.00,-2.50,-0.69,0.6993,0.0594,0.0063,-0.7123,$GPGGA,210342.300,4041.8074,N,07422.0650,W,1,07,1.27,91.7,M,-34.2,M,,*65
328,0,0.20,0.13,-0.14,-0.25,-0.13,-0.69,0.6990,0.0590,0.0055,-0.7126,$GPGGA,210342.400,4041.8072,N,07422.0650,W,1,07,1.14,91.7,M,-34.2,M,,*64
329,0,0.16,-0.15,-0.12,-0.13,0.62,-0.50,0.6988,0.0583,0.0049,-0.7130,$GPGGA,210342.500,4041.8071,N,07422.0650,W,1,07,1.14,91.7,M,-34.2,M,,*66
330,0,0.29,0.26,0.33,-0.56,-0.69,-0.62,0.6987,0.0580,0.0045,-0.7131,$GPGGA,210342.600,4041.8070,N,07422.0650,W,1,07,1.27,91.7,M,-34.2,M,,*64
331,0,0.18,-0.13,-0.08,0.44,-0.75,-0.69,0.6984,0.0573,0.0039,-0.7134,$GPGGA,210342.700,4041.8068,N,07422.0649,W,1,07,1.27,91.7,M,-34.2,M,,*64
332,0,0.11,0.12,0.02,-0.25,0.19,-0.50,0.6983,0.0570,0.0031,-0.7136,$GPGGA,210342.800,4041.8067,N,07422.0650,W,1,07,1.27,91.8,M,-34.2,M,,*63
333,0,0.16,-0.01,-0.15,0.62,-1.25,-0.62,0.6982,0.0565,0.0027,-0.7136,$GPGGA,210342.900,4041.8066,N,07422.0651,W,1,07,1.27,91.8,M,-34.2,M,,*62
334,0,0.04,0.00,0.31,-0.88,0.31,-0.50,0.6983,0.0563,0.0019,-0.7136,$GPGGA,210343.000,4041.8065,N,07422.0652,W,1,07,1.27,91.8,M,-34.2,M,,*6A
335,0,0.07,0.09,0.00,0.31,0.06,-0.62,0.6982,0.0558,0.0016,-0.7137,$GPGGA,210343.100,4041.8064,N,07422.0653,W,1,07,1.27,91.8,M,-34.2,M,,*6B
336,0,0.25,0.37,-0.02,0.13,-1.31,-0.62,0.6980,0.0553,0.0014,-0.7139,$GPGGA,210343.200,4041.8063,N,07422.0654,W,1,07,1.27,91.8,M,-34.2,M,,*68
337,0,0.16,-0.37,0.13,0.19,1.75,-0.25,0.6981,0.0551,0.0009,-0.7139,$GPGGA,210343.300,4041.8062,N,07422.0654,W,1,07,1.27,91.9,M,-34.2,M,,*69
338,0,0.10,0.31,0.00,0.19,-1.56,-0.56,0.6980,0.0549,0.0005,-0.7140,$GPGGA,210343.400,4041.8060,N,07422.0655,W,1,07,1.14,91.9,M,-34.2,M,,*6D
339,0,0.37,-0.08,0.34,0.13,-1.75,-0.62,0.6977,0.0548,0.0004,-0.7143,$GPGGA,210343.500,4041.8059,N,07422.0656,W,1,07,1.27,91.9,M,-34.2,M,,*65
340,0,0.08,-0.51,0.14,0.00,2.12,-0.44,0.6976,0.0552,-0.0001,-0.7143,$GPGGA,210343.600,4041.8058,N,07422.0657,W,1,07,1.27,91.9,M,-34.2,M,,*66
341,0,-0.03,0.23,0.14,1.44,-0.06,-0.13,0.6976,0.0551,-0.0005,-0.7144,$GPGGA,210343.700,4041.8058,N,07422.0658,W,1,07,1.27,91.9,M,-34.2,M,,*68
342,0,0.41,0.44,0.45,-0.50,-1.37,-0.62,0.6976,0.0546,-0.0005,-0.7144,$GPGGA,210343.800,4041.8058,N,07422.0658,W,1,07,1.27,91.9,M,-34.2,M,,*67
343,0,0.27,-0.40,0.10,-1.44,1.31,-0.44,0.6975,0.0536,-0.0001,-0.7145,$GPGGA,210343.900,4041.8058,N,07422.0657,W,1,07,1.14,91.9,M,-34.2,M,,*69
344,0,0.43,-0.69,0.40,1.12,-0.88,-0.19,0.6976,0.0535,-0.0002,-0.7145,$GPGGA,210344.000,4041.8058,N,07422.0656,W,1,07,1.14,92.0,M,-34.2,M,,*6C
345,0,0.68,0.60,0.09,0.56,-2.06,-0.44,0.6976,0.0530,-0.0005,-0.7145,$GPGGA,210344.100,4041.8058,N,07422.0655,W,1,07,1.14,92.0,M,-34.2,M,,*6E
346,0,0.66,0.21,0.20,-0.19,1.75,-0.44,0.6974,0.0532,-0.0009,-0.7147,$GPGGA,210344.200,4041.8057,N,07422.0653,W,1,07,1.14,92.1,M,-34.2,M,,*65
347,0,0.56,0.44,0.05,0.62,-0.88,-0.06,0.6974,0.0529,-0.0013,-0.7147,$GPGGA,210344.300,4041.8056,N,07422.0650,W,1,07,1.14,92.1,M,-34.2,M,,*66
348,0,0.67,-0.11,0.38,0.13,-1.31,-0.44,0.6974,0.0529,-0.0016,-0.7147,$GPGGA,210344.400,4041.8055,N,07422.0648,W,1,07,1.14,92.2,M,-34.2,M,,*68
349,0,0.58,-0.43,0.06,-1.00,2.19,-0.62,0.6973,0.0527,-0.0018,-0.7148,$GPGGA,210344.500,4041.8054,N,07422.0646,W,1,07,1.14,92.2,M,-34.2,M,,*66
350,0,0.54,0.47,0.25,0.88,-2.37,-0.31,0.6973,0.0525,-0.0020,-0.7148,$GPGGA,210344.600,4041.8053,N,07422.0643,W,1,07,1.14,92.3,M,-34.2,M,,*66
351,0,0.79,-0.11,0.30,-0.31,-1.19,-0.31,0.6973,0.0525,-0.0024,-0.7149,$GPGGA,210344.700,4041.8052,N,07422.0642,W,1,07,1.14,92.3,M,-34.2,M,,*67
352,0,0.20,-0.13,-0.26,-1.12,2.00,-0.37,0.6973,0.0518,-0.0021,-0.7149,$GPGGA,210344.800,4041.8051,N,07422.0640,W,1,07,1.14,92.3,M,-34.2,M,,*69
353,0,0.41,0.23,0.11,1.44,-1.44,-0.19,0.6973,0.0516,-0.0024,-0.7149,$GPGGA,210344.900,4041.8050,N,07422.0639,W,1,07,1.14,92.3,M,-34.2,M,,*67
354,0,0.73,0.60,0.02,-0.31,0.00,-0.25,0.6974,0.0505,-0.0041,-0.7149,$GPGGA,210345.000,4041.8049,N,07422.0638,W,1,07,1.14,92.4,M,-34.2,M,,*61
355,0,0.31,-0.11,-0.21,-0.25,1.37,-0.37,0.6975,0.0486,-0.0056,-0.7149,$GPGGA,210345.100,4041.8049,N,07422.0637,W,1,07,1.14,92.4,M,-34.2,M,,*6F
356,0,0.32,-0.23,-0.19,0.81,-3.12,-0.31,0.6975,0.0484,-0.0065,-0.7149,$GPGGA,210345.200,4041.8048,N,07422.0635,W,1,07,1.14,92.4,M,-34.2,M,,*6F
357,0,0.70,0.72,0.16,-0.88,2.19,-0.37,0.6976,0.0480,-0.0066,-0.7149,$GPGGA,210345.300,4041.8048,N,07422.0635,W,1,07,1.14,92.4,M,-34.2,M,,*6E
358,0,0.06,-0.05,-0.07,0.44,2.06,-0.31,0.6976,0.0479,-0.0070,-0.7148,$GPGGA,210345.400,4041.8047,N,07422.0634,W,1,07,1.14,92.5,M,-34.2,M,,*66
359,0,0.28,0.37,-0.02,0.13,-2.19,-0.37,0.6976,0.0474,-0.0076,-0.7148,$GPGGA,210345.500,4041.8048,N,07422.0628,W,1,07,1.14,92.5,M,-34.2,M,,*65
360,0,0.55,0.51,0.03,-1.50,1.06,-0.50,0.6976,0.0472,-0.0071,-0.7148,$GPGGA,210345.600,4041.8049,N,07422.0624,W,1,07,1.14,92.5,M,-34.2,M,,*6B
361,0,0.36,-0.58,0.22,0.56,-0.69,-0.31,0.6976,0.0470,-0.0069,-0.7148,$GPGGA,210345.700,4041.8049,N,07422.0621,W,1,07,1.14,92.5,M,-34.2,M,,*6F
362,0,0.62,0.45,0.14,0.75,-2.94,-0.19,0.6976,0.0469,-0.0077,-0.7149,$GPGGA,210345.800,4041.8049,N,07422.0618,W,1,07,1.14,92.5,M,-34.2,M,,*6A
363,0,0.56,-0.04,0.42,-0.37,2.06,-0.31,0.6976,0.0472,-0.0081,-0.7149,$GPGGA,210345.900,4041.8048,N,07422.0616,W,1,07,1.14,92.5,M,-34.2,M,,*64
364,0,-0.12,-0.32,0.12,0.37,-0.44,-0.25,0.6976,0.0474,-0.0085,-0.7148,$GPGGA,210346.000,4041.8048,N,07422.0614,W,1,07,1.14,92.5,M,-34.2,M,,*6C
365,0,-0.07,0.29,0.12,-0.13,-1.44,-0.31,0.6976,0.0470,-0.0089,-0.7149,$GPGGA,210346.100,4041.8047,N,07422.0613,W,1,07,1.14,92.6,M,-34.2,M,,*66
366,0,-0.30,0.01,0.25,-1.25,1.25,-0.37,0.6976,0.0471,-0.0089,-0.7149,$GPGGA,210346.200,4041.8046,N,07422.0612,W,1,07,1.14,92.6,M,-34.2,M,,*65
367,0,-0.88,-0.28,-0.17,0.44,-0.62,-0.31,0.6976,0.0472,-0.0084,-0.7148,$GPGGA,210346.300,4041.8045,N,07422.0611,W,1,07,1.14,92.6,M,-34.2,M,,*64
368,0,-0.85,0.13,-0.03,-0.37,-0.13,-0.19,0.6976,0.0475,-0.0082,-0.7148,$GPGGA,210346.400,4041.8044,N,07422.0610,W,1,07,1.14,92.6,M,-34.2,M,,*63
369,0,-0.63,-0.15,0.17,-0.37,1.56,-0.19,0.6974,0.0501,-0.0052,-0.7149,$GPGGA,210346.500,4041.8043,N,07422.0609,W,1,07,1.14,92.7,M,-34.2,M,,*6C
370,0,-0.20,0.28,0.18,0.50,-1.56,-0.37,0.6974,0.0505,-0.0051,-0.7149,$GPGGA,210346.600,4041.8042,N,07422.0609,W,1,07,1.14,92.7,M,-34.2,M,,*6E
371,0,-0.22,-0.05,0.31,-0.69,1.62,-0.31,0.6973,0.0512,-0.0042,-0.7149,$GPGGA,210346.700,4041.8042,N,07422.0609,W,1,07,1.14,92.7,M,-34.2,M,,*6F
372,0,-0.30,-0.32,0.00,0.00,-2.06,-0.06,0.6973,0.0520,-0.0038,-0.7149,$GPGGA,210346.800,4041.8041,N,07422.0610,W,1,07,1.14,92.8,M,-34.2,M,,*64
373,0,-0.03,0.27,0.11,-0.19,1.25,-0.06,0.6973,0.0522,-0.0035,-0.7149,$GPGGA,210346.900,4041.8040,N,07422.0610,W,1,07,1.14,92.8,M,-34.2,M,,*64
374,0,-0.22,-0.35,-0.11,0.88,-0.94,-0.19,0.6972,0.0526,-0.0031,-0.7150,$GPGGA,210347.000,4041.8040,N,07422.0610,W,1,07,1.14,92.8,M,-34.2,M,,*6C
375,0,0.03,0.35,0.05,-0.13,-0.19,0.06,0.6971,0.0527,-0.0033,-0.7150,$GPGGA,210347.100,4041.8040,N,07422.0610,W,1,07,1.14,92.8,M,-34.2,M,,*6D
376,0,0.03,-0.07,0.25,0.56,2.44,0.06,0.6971,0.0534,-0.0030,-0.7150,$GPGGA,210347.200,4041.8039,N,07422.0611,W,1,07,1.14,92.9,M,-34.2,M,,*60
377,0,-0.01,0.32,0.14,0.31,-2.37,0.00,0.6971,0.0532,-0.0032,-0.7150,$GPGGA,210347.300,4041.8039,N,07422.0611,W,1,07,1.14,92.9,M,-34.2,M,,*61
378,0,-0.30,-0.28,0.04,-0.56,2.25,-0.13,0.6971,0.0535,-0.0027,-0.7150,$GPGGA,210347.400,4041.8039,N,07422.0612,W,1,07,1.14,92.9,M,-34.2,M,,*65
379,0,-0.68,0.13,-0.16,0.00,-1.94,0.06,0.6970,0.0548,-0.0012,-0.7150,$GPGGA,210347.500,4041.8038,N,07422.0611,W,1,07,1.14,92.9,M,-34.2,M,,*66
380,0,-0.28,0.27,0.17,-2.37,1.75,-0.19,0.6970,0.0554,0.0002,-0.7150,$GPGGA,210347.600,4041.8038,N,07422.0611,W,1,07,1.14,93.0,M,-34.2,M,,*6D
381,0,1.17,-0.15,0.03,0.19,-1.37,-0.06,0.6970,0.0544,0.0002,-0.7150,$GPGGA,210347.700,4041.8037,N,07422.0611,W,1,07,1.14,93.0,M,-34.2,M,,*63
382,0,1.47,0.09,0.22,0.56,-0.88,0.19,0.6974,0.0480,-0.0068,-0.7150,$GPGGA,210347.800,4041.8037,N,07422.0611,W,1,07,1.14,93.0,M,-34.2,M,,*6C
383,0,0.22,-0.30,-0.17,0.06,-0.06,0.00,0.6975,0.0464,-0.0084,-0.7150,$GPGGA,210347.900,4041.8037,N,07422.0611,W,1,07,1.14,93.0,M,-34.2,M,,*6D
384,0,0.08,-0.12,-0.34,0.75,0.37,0.13,0.6975,0.0469,-0.0085,-0.7150,$GPGGA,210348.000,4041.8037,N,07422.0611,W,1,07,1.14,93.0,M,-34.2,M,,*6B
385,0,0.83,0.33,0.30,0.00,-1.50,0.13,0.6976,0.0471,-0.0081,-0.7150,$GPGGA,210348.100,4041.8038,N,07422.0611,W,1,07,1.14,93.2,M,-34.2,M,,*67
386,0,0.49,-0.05,0.12,0.00,-1.37,0.06,0.6976,0.0451,-0.0098,-0.7150,$GPGGA,210348.200,4041.8038,N,07422.0611,W,1,07,1.14,93.2,M,-34.2,M,,*64
387,0,0.43,0.13,0.26,-0.75,1.06,-0.13,0.6978,0.0428,-0.0120,-0.7149,$GPGGA,210348.300,4041.8039,N,07422.0611,W,1,07,1.14,93.4,M,-34.2,M,,*62
388,0,0.38,-0.30,-0.10,0.75,-1.19,0.13,0.6979,0.0419,-0.0129,-0.7149,$GPGGA,210348.400,4041.8040,N,07422.0611,W,1,07,1.14,93.4,M,-34.2,M,,*6B
389,0,0.54,0.23,0.05,-0.94,1.12,0.06,0.6980,0.0400,-0.0150,-0.7148,$GPGGA,210348.500,4041.8040,N,07422.0611,W,1,07,1.14,93.4,M,-34.2,M,,*6A
390,0,0.37,-0.35,0.19,-0.37,1.94,0.00,0.6981,0.0389,-0.0167,-0.7148,$GPGGA,210348.600,4041.8040,N,07422.0612,W,1,07,1.14,93.5,M,-34.2,M,,*6B
391,0,0.18,0.27,-0.11,-1.12,-1.37,0.06,0.6981,0.0383,-0.0174,-0.7148,$GPGGA,210348.700,4041.8041,N,07422.0611,W,1,07,1.14,93.5,M,-34.2,M,,*68
392,0,0.41,-0.01,0.26,-0.06,1.31,0.06,0.6981,0.0378,-0.0176,-0.7148,$GPGGA,210348.800,4041.8041,N,07422.0611,W,1,07,1.14,93.5,M,-34.2,M,,*67
393,0,0.06,0.02,-0.17,0.94,-3.00,-0.06,0.6981,0.0370,-0.0187,-0.7148,$GPGGA,210348.900,4041.8041,N,07422.0611,W,1,07,1.14,93.6,M,-34.2,M,,*65
394,0,0.50,0.27,0.19,0.19,-2.75,0.13,0.6982,0.0363,-0.0190,-0.7147,$GPGGA,210349.000,4041.8041,N,07422.0611,W,1,07,1.14,93.7,M,-34.2,M,,*6C
395,0,0.03,-0.10,-0.04,-0.69,2.62,-0.06,0.6982,0.0360,-0.0191,-0.7147,$GPGGA,210349.100,4041.8041,N,07422.0611,W,1,07,1.14,93.8,M,-34.2,M,,*62
396,0,0.39,0.19,0.11,0.62,-1.37,0.06,0.6982,0.0355,-0.0196,-0.7147,$GPGGA,210349.200,4041.8041,N,07422.0611,W,1,07,1.14,93.8,M,-34.2,M,,*61
397,0,0.46,-0.10,0.33,0.50,2.25,0.06,0.6982,0.0355,-0.0197,-0.7147,$GPGGA,210349.300,4041.8041,N,07422.0611,W,1,07,1.15,93.9,M,-34.2,M,,*60
398,0,0.11,-0.24,-0.08,-0.44,1.94,-0.13,0.6982,0.0349,-0.0204,-0.7147,$GPGGA,210349.400,4041.8041,N,07422.0611,W,1,07,1.14,94.0,M,-34.2,M,,*68
399,0,0.46,0.37,0.06,1.25,-2.56,0.13,0.6982,0.0348,-0.0203,-0.7147,$GPGGA,210349.500,4041.8041,N,07422.0611,W,1,07,1.14,94.0,M,-34.2,M,,*69
400,0,0.15,-0.50,0.06,-1.94,-0.25,0.00,0.6982,0.0345,-0.0201,-0.7147,$GPGGA,210349.600,4041.8041,N,07422.0611,W,1,07,1.14,94.1,M,-34.2,M,,*6B
401,0,0.03,-0.14,0.00,0.69,2.56,-0.06,0.6982,0.0345,-0.0207,-0.7147,$GPGGA,210349.700,4041.8042,N,07422.0611,W,1,07,1.14,94.2,M,-34.2,M,,*6A
402,0,0.33,0.38,0.20,0.31,-2.31,0.13,0.6983,0.0341,-0.0208,-0.7147,$GPGGA,210349.800,4041.8042,N,07422.0610,W,1,07,1.14,94.2,M,-34.2,M,,*64
403,0,0.00,-0.26,0.19,-1.25,1.50,0.00,0.6983,0.0339,-0.0208,-0.7147,$GPGGA,210349.900,4041.8042,N,07422.0610,W,1,07,1.14,94.3,M,-34.2,M,,*64
