1700,3,-0.01,-0.01,-0.01,-0.06,-0.06,-0.06,-0.0001,-0.0001,-0.0001,-0.0001,$GPGGA,153233.300,3850.1092,N,07730.3794,W,1,09,0.93,61.8,M,-33.4,M,,*63
1701,3,-0.01,-0.01,-0.01,-0.06,-0.06,-0.06,-0.0001,-0.0001,-0.0001,-0.0001,$GPGGA,153233.400,3850.1092,N,07730.3794,W,1,09,0.90,61.8,M,-33.4,M,,*67
1702,3,-0.01,-0.01,-0.01,-0.06,-0.06,-0.06,-0.0001,-0.0001,-0.0001,-0.0001,$GPGGA,153233.500,3850.1092,N,07730.3794,W,1,09,0.90,61.8,M,-33.4,M,,*66
1703,3,-0.01,-0.01,-0.01,-0.06,-0.06,-0.06,-0.0001,-0.0001,-0.0001,-0.0001,$GPGGA,153233.600,3850.1092,N,07730.3794,W,1,09,0.90,61.8,M,-33.4,M,,*65
1704,3,-0.01,-0.01,-0.01,-0.06,-0.06,-0.06,-0.0001,-0.0001,-0.0001,-0.0001,$GPGGA,153233.700,3850.1092,N,07730.3794,W,1,09,0.90,61.8,M,-33.4,M,,*64
1705,3,-0.01,-0.01,-0.01,-0.06,-0.06,-0.06,-0.0001,-0.0001,-0.0001,-0.0001,$GPGGA,153233.800,3850.1092,N,07730.3794,W,1,09,0.90,61.8,M,-33.4,M,,*6B
1706,3,-0.01,-0.01,-0.01,-0.06,-0.06,-0.06,-0.0001,-0.0001,-0.0001,-0.0001,$GPGGA,153233.900,3850.1092,N,07730.3794,W,1,09,0.90,61.8,M,-33.4,M,,*6A
1707,3,-0.01,-0.01,-0.01,-0.06,-0.06,-0.06,-0.0001,-0.0001,-0.0001,-0.0001,$GPGGA,153234.000,3850.1092,N,07730.3794,W,1,09,0.90,61.8,M,-33.4,M,,*64
1708,3,-0.01,-0.01,-0.01,-0.06,-0.06,-0.06,-0.0001,-0.0001,-0.0001,-0.0001,$GPGGA,153234.100,3850.1092,N,07730.3794,W,1,09,0.90,61.8,M,-33.4,M,,*65
1709,3,-0.01,-0.01,-0.01,-0.06,-0.06,-0.06,-0.0001,-0.0001,-0.0001,-0.0001,$GPGGA,153234.200,3850.1092,N,07730.3794,W,1,09,0.90,61.8,M,-33.4,M,,*66
1710,3,-0.01,-0.01,-0.01,-0.06,-0.06,-0.06,-0.0001,-0.0001,-0.0001,-0.0001,$GPGGA,153234.300,3850.1092,N,07730.3794,W,1,09,0.90,61.8,M,-33.4,M,,*67
1711,3,-0.01,-0.01,-0.01,-0.06,-0.06,-0.06,-0.0001,-0.0001,-0.0001,-0.0001,$GPGGA,153234.400,3850.1092,N,07730.3794,W,1,09,0.90,61.8,M,-33.4,M,,*60
1712,3,-0.01,-0.01,-0.01,-0.06,-0.06,-0.06,-0.0001,-0.0001,-0.0001,-0.0001,$GPGGA,153234.500,3850.1092,N,07730.3794,W,1,09,0.90,61.8,M,-33.4,M,,*61
1713,3,-0.01,-0.01,-0.01,-0.06,-0.06,-0.06,-0.0001,-0.0001,-0.0001,-0.0001,$GPGGA,153234.600,3850.1092,N,07730.3794,W,1,09,0.90,61.8,M,-33.4,M,,*62
1714,3,-0.01,-0.01,-0.01,-0.06,-0.06,-0.06,-0.0001,-0.0001,-0.0001,-0.0001,$GPGGA,153234.700,3850.1092,N,07730.3794,W,1,09,0.90,61.8,M,-33.4,M,,*63
1715,3,-0.01,-0.01,-0.01,-0.06,-0.06,-0.06,-0.0001,-0.0001,-0.0001,-0.0001,$GPGGA,153234.800,3850.1092,N,07730.3794,W,1,09,0.90,61.8,M,-33.4,M,,*6C
1716,3,-0.01,-0.01,-0.01,-0.06,-0.06,-0.06,-0.0001,-0.0001,-0.0001,-0.0001,$GPGGA,153234.900,3850.1092,N,07730.3794,W,1,09,0.90,61.8,M,-33.4,M,,*6D
1717,3,-0.01,-0.01,-0.01,-0.06,-0.06,-0.06,-0.0001,-0.0001,-0.0001,-0.0001,$GPGGA,153235.000,3850.1092,N,07730.3794,W,1,09,0.90,61.8,M,-33.4,M,,*65
1718,3,-0.01,-0.01,-0.01,-0.06,-0.06,-0.06,-0.0001,-0.0001,-0.0001,-0.0001,$GPGGA,153235.100,3850.1092,N,07730.3794,W,1,09,0.90,61.8,M,-33.4,M,,*64
1719,3,-0.01,-0.01,-0.01,-0.06,-0.06,-0.06,-0.0001,-0.0001,-0.0001,-0.0001,$GPGGA,153235.200,3850.1092,N,07730.3794,W,1,09,0.90,61.8,M,-33.4,M,,*67
1720,3,-0.01,-0.01,-0.01,-0.06,-0.06,-0.06,-0.0001,-0.0001,-0.0001,-0.0001,$GPGGA,153235.300,3850.1092,N,07730.3794,W,1,09,0.90,61.8,M,-33.4,M,,*66
1721,3,-0.01,-0.01,-0.01,-0.06,-0.06,-0.06,-0.0001,-0.0001,-0.0001,-0.0001,$GPGGA,153235.400,3850.1092,N,07730.3794,W,1,09,0.90,61.8,M,-33.4,M,,*61
1722,3,-0.01,-0.01,-0.01,-0.06,-0.06,-0.06,-0.0001,-0.0001,-0.0001,-0.0001,$GPGGA,153235.500,3850.1092,N,07730.3794,W,1,09,0.90,61.8,M,-33.4,M,,*60
1723,3,-0.01,-0.01,-0.01,-0.06,-0.06,-0.06,-0.0001,-0.0001,-0.0001,-0.0001,$GPGGA,153235.600,3850.1092,N,07730.3794,W,1,09,0.90,61.8,M,-33.4,M,,*63
1724,3,-0.01,-0.01,-0.01,-0.06,-0.06,-0.06,-0.0001,-0.0001,-0.0001,-0.0001,$GPGGA,153235.700,3850.1092,N,07730.3794,W,1,09,0.90,61.8,M,-33.4,M,,*62
1725,3,-0.01,-0.01,-0.01,-0.06,-0.06,-0.06,-0.0001,-0.0001,-0.0001,-0.0001,$GPGGA,153235.800,3850.1092,N,07730.3794,W,1,09,0.90,61.8,M,-33.4,M,,*6D
1726,3,-0.01,-0.01,-0.01,-0.06,-0.06,-0.06,-0.0001,-0.0001,-0.0001,-0.0001,$GPGGA,153235.900,3850.1092,N,07730.3794,W,1,09,0.90,61.8,M,-33.4,M,,*6C
1727,3,-0.01,-0.01,-0.01,-0.06,-0.06,-0.06,-0.0001,-0.0001,-0.0001,-0.0001,$GPGGA,153236.000,3850.1092,N,07730.3794,W,1,09,0.90,61.8,M,-33.4,M,,*66
1728,3,-0.01,-0.01,-0.01,-0.06,-0.06,-0.06,-0.0001,-0.0001,-0.0001,-0.0001,$GPGGA,153236.100,3850.1092,N,07730.3794,W,1,09,0.90,61.8,M,-33.4,M,,*67
1729,3,-0.01,-0.01,-0.01,-0.06,-0.06,-0.06,-0.0001,-0.0001,-0.0001,-0.0001,$GPGGA,153236.200,3850.1092,N,07730.3794,W,1,09,0.90,61.8,M,-33.4,M,,*64
1730,3,-0.01,-0.01,-0.01,-0.06,-0.06,-0.06,-0.0001,-0.0001,-0.0001,-0.0001,$GPGGA,153236.300,3850.1092,N,07730.3794,W,1,09,0.90,61.8,M,-33.4,M,,*65
1731,3,-0.01,-0.01,-0.01,-0.06,-0.06,-0.06,-0.0001,-0.0001,-0.0001,-0.0001,$GPGGA,153236.400,3850.1092,N,07730.3794,W,1,09,0.90,61.8,M,-33.4,M,,*62
1732,3,-0.01,-0.01,-0.01,-0.06,-0.06,-0.06,-0.0001,-0.0001,-0.0001,-0.0001,$GPGGA,153236.500,3850.1092,N,07730.3794,W,1,09,0.93,61.8,M,-33.4,M,,*60
1733,3,-0.01,-0.01,-0.01,-0.06,-0.06,-0.06,-0.0001,-0.0001,-0.0001,-0.0001,$GPGGA,153236.600,3850.1092,N,07730.3794,W,1,09,0.90,61.8,M,-33.4,M,,*60
1734,3,-0.01,-0.01,-0.01,-0.06,-0.06,-0.06,-0.0001,-0.0001,-0.0001,-0.0001,$GPGGA,153236.700,3850.1092,N,07730.3794,W,1,09,0.90,61.8,M,-33.4,M,,*61
1735,3,-0.01,-0.01,-0.01,-0.06,-0.06,-0.06,-0.0001,-0.0001,-0.0001,-0.0001,$GPGGA,153236.800,3850.1092,N,07730.3794,W,1,09,0.90,61.8,M,-33.4,M,,*6E
1736,3,-0.01,-0.01,-0.01,-0.06,-0.06,-0.06,-0.0001,-0.0001,-0.0001,-0.0001,$GPGGA,153236.900,3850.1092,N,07730.3794,W,1,09,0.90,61.8,M,-33.4,M,,*6F
1737,3,-0.01,-0.01,-0.01,-0.06,-0.06,-0.06,-0.0001,-0.0001,-0.0001,-0.0001,$GPGGA,153237.000,3850.1092,N,07730.3794,W,1,09,0.90,61.8,M,-33.4,M,,*67
1738,3,-0.01,-0.01,-0.01,-0.06,-0.06,-0.06,-0.0001,-0.0001,-0.0001,-0.0001,$GPGGA,153237.100,3850.1092,N,07730.3794,W,1,09,0.90,61.8,M,-33.4,M,,*66
1739,3,-0.01,-0.01,-0.01,-0.06,-0.06,-0.06,-0.0001,-0.0001,-0.0001,-0.0001,$GPGGA,153237.200,3850.1092,N,07730.3794,W,1,09,0.90,61.8,M,-33.4,M,,*65
1740,3,-0.01,-0.01,-0.01,-0.06,-0.06,-0.06,-0.0001,-0.0001,-0.0001,-0.0001,$GPGGA,153237.300,3850.1092,N,07730.3794,W,1,09,0.90,61.8,M,-33.4,M,,*64
1741,3,-0.01,-0.01,-0.01,-0.06,-0.06,-0.06,-0.0001,-0.0001,-0.0001,-0.0001,$GPGGA,153237.400,3850.1092,N,07730.3794,W,1,09,0.90,61.8,M,-33.4,M,,*63
1742,3,-0.01,-0.01,-0.01,-0.06,-0.06,-0.06,-0.0001,-0.0001,-0.0001,-0.0001,$GPGGA,153237.500,3850.1092,N,07730.3794,W,1,09,0.90,61.8,M,-33.4,M,,*62
1743,3,-0.01,-0.01,-0.01,-0.06,-0.06,-0.06,-0.0001,-0.0001,-0.0001,-0.0001,$GPGGA,153237.600,3850.1092,N,07730.3794,W,1,09,0.90,61.8,M,-33.4,M,,*61
1744,3,-0.01,-0.01,-0.01,-0.06,-0.06,-0.06,-0.0001,-0.0001,-0.0001,-0.0001,$GPGGA,153237.700,3850.1092,N,07730.3794,W,1,09,0.90,61.8,M,-33.4,M,,*60
1745,3,-0.01,-0.01,-0.01,-0.06,-0.06,-0.06,-0.0001,-0.0001,-0.0001,-0.0001,$GPGGA,153237.800,3850.1092,N,07730.3794,W,1,09,0.90,61.8,M,-33.4,M,,*6F
1746,3,-0.01,-0.01,-0.01,-0.06,-0.06,-0.06,-0.0001,-0.0001,-0.0001,-0.0001,$GPGGA,153237.900,3850.1092,N,07730.3794,W,1,09,0.90,61.8,M,-33.4,M,,*6E
1747,3,-0.01,-0.01,-0.01,-0.06,-0.06,-0.06,-0.0001,-0.0001,-0.0001,-0.0001,$GPGGA,153238.000,3850.1092,N,07730.3794,W,1,09,0.90,61.8,M,-33.4,M,,*68
1748,3,-0.01,-0.01,-0.01,-0.06,-0.06,-0.06,-0.0001,-0.0001,-0.0001,-0.0001,$GPGGA,153238.100,3850.1092,N,07730.3794,W,1,09,0.90,61.8,M,-33.4,M,,*69
1749,3,-0.01,-0.01,-0.01,-0.06,-0.06,-0.06,-0.0001,-0.0001,-0.0001,-0.0001,$GPGGA,153238.200,3850.1092,N,07730.3794,W,1,09,0.90,61.8,M,-33.4,M,,*6A
1750,3,-0.01,-0.01,-0.01,-0.06,-0.06,-0.06,-0.0001,-0.0001,-0.0001,-0.0001,$GPGGA,153238.300,3850.1092,N,07730.3794,W,1,09,0.90,61.8,M,-33.4,M,,*6B
1751,3,-0.01,-0.01,-0.01,-0.06,-0.06,-0.06,-0.0001,-0.0001,-0.0001,-0.0001,$GPGGA,153238.400,3850.1091,N,07730.3794,W,1,09,0.90,61.8,M,-33.4,M,,*6F
1752,3,-0.01,-0.01,-0.01,-0.06,-0.06,-0.06,-0.0001,-0.0001,-0.0001,-0.0001,$GPGGA,153238.500,3850.1091,N,07730.3794,W,1,09,0.90,61.8,M,-33.4,M,,*6E
1753,3,-0.01,-0.01,-0.01,-0.06,-0.06,-0.06,-0.0001,-0.0001,-0.0001,-0.0001,$GPGGA,153238.600,3850.1091,N,07730.3794,W,1,09,0.90,61.8,M,-33.4,M,,*6D
1754,3,-0.01,-0.01,-0.01,-0.06,-0.06,-0.06,-0.0001,-0.0001,-0.0001,-0.0001,$GPGGA,153238.700,3850.1091,N,07730.3794,W,1,09,0.90,61.8,M,-33.4,M,,*6C
1755,3,-0.01,-0.01,-0.01,-0.06,-0.06,-0.06,-0.0001,-0.0001,-0.0001,-0.0001,$GPGGA,153238.800,3850.1091,N,07730.3794,W,1,09,0.90,61.8,M,-33.4,M,,*63
1756,3,-0.01,-0.01,-0.01,-0.06,-0.06,-0.06,-0.0001,-0.0001,-0.0001,-0.0001,$GPGGA,153238.900,3850.1091,N,07730.3794,W,1,09,0.90,61.8,M,-33.4,M,,*62
1757,3,-0.01,-0.01,-0.01,-0.06,-0.06,-0.06,-0.0001,-0.0001,-0.0001,-0.0001,$GPGGA,153239.000,3850.1091,N,07730.3794,W,1,09,0.90,61.8,M,-33.4,M,,*6A
1758,3,-0.01,-0.01,-0.01,-0.06,-0.06,-0.06,-0.0001,-0.0001,-0.0001,-0.0001,$GPGGA,153239.100,3850.1091,N,07730.3794,W,1,09,0.90,61.8,M,-33.4,M,,*6B
1759,3,-0.01,-0.01,-0.01,-0.06,-0.06,-0.06,-0.0001,-0.0001,-0.0001,-0.0001,$GPGGA,153239.200,3850.1091,N,07730.3794,W,1,09,0.90,61.8,M,-33.4,M,,*68
1760,3,-0.01,-0.01,-0.01,-0.06,-0.06,-0.06,-0.0001,-0.0001,-0.0001,-0.0001,$GPGGA,153239.300,3850.1091,N,07730.3794,W,1,09,0.90,61.8,M,-33.4,M,,*69
1761,3,-0.01,-0.01,-0.01,-0.06,-0.06,-0.06,-0.0001,-0.0001,-0.0001,-0.0001,$GPGGA,153239.400,3850.1091,N,07730.3794,W,1,09,0.90,61.8,M,-33.4,M,,*6E
1762,3,-0.01,-0.01,-0.01,-0.06,-0.06,-0.06,-0.0001,-0.0001,-0.0001,-0.0001,$GPGGA,153239.500,3850.1091,N,07730.3794,W,1,09,0.90,61.8,M,-33.4,M,,*6F
1763,3,-0.01,-0.01,-0.01,-0.06,-0.06,-0.06,-0.0001,-0.0001,-0.0001,-0.0001,$GPGGA,153239.600,3850.1091,N,07730.3794,W,1,09,0.90,61.8,M,-33.4,M,,*6C
1764,3,-0.01,-0.01,-0.01,-0.06,-0.06,-0.06,-0.0001,-0.0001,-0.0001,-0.0001,$GPGGA,153239.700,3850.1091,N,07730.3794,W,1,09,0.90,61.8,M,-33.4,M,,*6D
1765,3,-0.01,-0.01,-0.01,-0.06,-0.06,-0.06,-0.0001,-0.0001,-0.0001,-0.0001,$GPGGA,153239.800,3850.1091,N,07730.3794,W,1,09,0.90,61.8,M,-33.4,M,,*62
1766,3,-0.01,-0.01,-0.01,-0.06,-0.06,-0.06,-0.0001,-0.0001,-0.0001,-0.0001,$GPGGA,153239.900,3850.1091,N,07730.3794,W,1,09,0.90,61.8,M,-33.4,M,,*63
1767,3,-0.01,-0.01,-0.01,-0.06,-0.06,-0.06,-0.0001,-0.0001,-0.0001,-0.0001,$GPGGA,153240.000,3850.1091,N,07730.3794,W,1,09,0.90,61.8,M,-33.4,M,,*64
1768,3,-0.01,-0.01,-0.01,-0.06,-0.06,-0.06,-0.0001,-0.0001,-0.0001,-0.0001,$GPGGA,153240.100,3850.1091,N,07730.3794,W,1,09,0.90,61.8,M,-33.4,M,,*65
1769,3,-0.01,-0.01,-0.01,-0.06,-0.06,-0.06,-0.0001,-0.0001,-0.0001,-0.0001,$GPGGA,153240.200,3850.1091,N,07730.3794,W,1,09,0.90,61.8,M,-33.4,M,,*66
1770,3,-0.01,-0.01,-0.01,-0.06,-0.06,-0.06,-0.0001,-0.0001,-0.0001,-0.0001,$GPGGA,153240.300,3850.1091,N,07730.3794,W,1,09,0.90,61.8,M,-33.4,M,,*67
1771,3,-0.01,-0.01,-0.01,-0.06,-0.06,-0.06,-0.0001,-0.0001,-0.0001,-0.0001,$GPGGA,153240.400,3850.1091,N,07730.3794,W,1,09,0.90,61.8,M,-33.4,M,,*60
1772,3,-0.01,-0.01,-0.01,-0.06,-0.06,-0.06,-0.0001,-0.0001,-0.0001,-0.0001,$GPGGA,153240.500,3850.1091,N,07730.3794,W,1,09,0.90,61.8,M,-33.4,M,,*61
1773,3,-0.01,-0.01,-0.01,-0.06,-0.06,-0.06,-0.0001,-0.0001,-0.0001,-0.0001,$GPGGA,153240.600,3850.1091,N,07730.3793,W,1,09,0.90,61.8,M,-33.4,M,,*65
1774,3,-0.01,-0.01,-0.01,-0.06,-0.06,-0.06,-0.0001,-0.0001,-0.0001,-0.0001,$GPGGA,153240.700,3850.1091,N,07730.3793,W,1,09,0.90,61.8,M,-33.4,M,,*64
1775,3,-0.01,-0.01,-0.01,-0.06,-0.06,-0.06,-0.0001,-0.0001,-0.0001,-0.0001,$GPGGA,153240.800,3850.1091,N,07730.3793,W,1,09,0.90,61.8,M,-33.4,M,,*6B
1776,3,-0.01,-0.01,-0.01,-0.06,-0.06,-0.06,-0.0001,-0.0001,-0.0001,-0.0001,$GPGGA,153240.900,3850.1092,N,07730.3791,W,1,09,0.90,61.8,M,-33.4,M,,*6B
1777,3,-0.01,-0.01,-0.01,-0.06,-0.06,-0.06,-0.0001,-0.0001,-0.0001,-0.0001,$GPGGA,153241.000,3850.1092,N,07730.3789,W,1,09,0.90,61.8,M,-33.4,M,,*6A
1778,3,-0.01,-0.01,-0.01,-0.06,-0.06,-0.06,-0.0001,-0.0001,-0.0001,-0.0001,$GPGGA,153241.100,3850.1093,N,07730.3789,W,1,09,0.90,61.8,M,-33.4,M,,*6A
1779,3,-0.01,-0.01,-0.01,-0.06,-0.06,-0.06,-0.0001,-0.0001,-0.0001,-0.0001,$GPGGA,153241.200,3850.1093,N,07730.3787,W,1,09,0.90,61.8,M,-33.4,M,,*67
1780,3,-0.01,-0.01,-0.01,-0.06,-0.06,-0.06,-0.0001,-0.0001,-0.0001,-0.0001,$GPGGA,153241.300,3850.1095,N,07730.3785,W,1,09,0.90,61.7,M,-33.4,M,,*6D
1781,3,-0.01,-0.01,-0.01,-0.06,-0.06,-0.06,-0.0001,-0.0001,-0.0001,-0.0001,$GPGGA,153241.400,3850.1095,N,07730.3783,W,1,09,0.90,61.7,M,-33.4,M,,*6C
1782,3,-0.01,-0.01,-0.01,-0.06,-0.06,-0.06,-0.0001,-0.0001,-0.0001,-0.0001,$GPGGA,153241.500,3850.1095,N,07730.3781,W,1,09,0.90,61.7,M,-33.4,M,,*6F
1783,3,-0.01,-0.01,-0.01,-0.06,-0.06,-0.06,-0.0001,-0.0001,-0.0001,-0.0001,$GPGGA,153241.600,3850.1096,N,07730.3779,W,1,09,0.90,61.7,M,-33.4,M,,*68
1784,3,-0.01,-0.01,-0.01,-0.06,-0.06,-0.06,-0.0001,-0.0001,-0.0001,-0.0001,$GPGGA,153241.700,3850.1096,N,07730.3777,W,1,09,0.90,61.7,M,-33.4,M,,*67
1785,3,-0.01,-0.01,-0.01,-0.06,-0.06,-0.06,-0.0001,-0.0001,-0.0001,-0.0001,$GPGGA,153241.800,3850.1097,N,07730.3775,W,1,09,0.90,61.7,M,-33.4,M,,*6B
1786,3,-0.01,-0.01,-0.01,-0.06,-0.06,-0.06,-0.0001,-0.0001,-0.0001,-0.0001,$GPGGA,153241.900,3850.1101,N,07730.3767,W,1,09,0.93,61.7,M,-33.4,M,,*64
1787,3,-0.01,-0.01,-0.01,-0.06,-0.06,-0.06,-0.0001,-0.0001,-0.0001,-0.0001,$GPGGA,153242.000,3850.1105,N,07730.3762,W,1,09,0.93,61.7,M,-33.4,M,,*6F
1788,3,-0.01,-0.01,-0.01,-0.06,-0.06,-0.06,-0.0001,-0.0001,-0.0001,-0.0001,$GPGGA,153242.100,3850.1107,N,07730.3758,W,1,09,0.93,61.7,M,-33.4,M,,*65
1789,3,-0.01,-0.01,-0.01,-0.06,-0.06,-0.06,-0.0001,-0.0001,-0.0001,-0.0001,$GPGGA,153242.200,3850.1110,N,07730.3753,W,1,09,0.93,61.7,M,-33.4,M,,*6B
1790,3,-0.01,-0.01,-0.01,-0.06,-0.06,-0.06,-0.0001,-0.0001,-0.0001,-0.0001,$GPGGA,153242.300,3850.1112,N,07730.3749,W,1,09,0.93,61.7,M,-33.4,M,,*63
1791,3,-0.01,-0.01,-0.01,-0.06,-0.06,-0.06,-0.0001,-0.0001,-0.0001,-0.0001,$GPGGA,153242.400,3850.1115,N,07730.3746,W,1,09,0.93,61.6,M,-33.4,M,,*6D
1792,3,-0.01,-0.01,-0.01,-0.06,-0.06,-0.06,-0.0001,-0.0001,-0.0001,-0.0001,$GPGGA,153242.500,3850.1119,N,07730.3742,W,1,09,0.93,61.6,M,-33.4,M,,*64
1793,3,-0.01,-0.01,-0.01,-0.06,-0.06,-0.06,-0.0001,-0.0001,-0.0001,-0.0001,$GPGGA,153242.600,3850.1122,N,07730.3739,W,1,09,0.93,61.6,M,-33.4,M,,*63
1794,3,-0.01,-0.01,-0.01,-0.06,-0.06,-0.06,-0.0001,-0.0001,-0.0001,-0.0001,$GPGGA,153242.700,3850.1125,N,07730.3736,W,1,09,0.93,61.6,M,-33.4,M,,*6A
1795,3,-0.01,-0.01,-0.01,-0.06,-0.06,-0.06,-0.0001,-0.0001,-0.0001,-0.0001,$GPGGA,153242.800,3850.1128,N,07730.3733,W,1,09,0.93,61.5,M,-33.4,M,,*6E
1796,3,-0.01,-0.01,-0.01,-0.06,-0.06,-0.06,-0.0001,-0.0001,-0.0001,-0.0001,$GPGGA,153242.900,3850.1131,N,07730.3729,W,1,09,0.93,61.5,M,-33.4,M,,*6C
1797,3,-0.01,-0.01,-0.01,-0.06,-0.06,-0.06,-0.0001,-0.0001,-0.0001,-0.0001,$GPGGA,153243.000,3850.1134,N,07730.3725,W,1,09,0.93,61.5,M,-33.4,M,,*6D
1798,3,-0.01,-0.01,-0.01,-0.06,-0.06,-0.06,-0.0001,-0.0001,-0.0001,-0.0001,$GPGGA,153243.100,3850.1137,N,07730.3721,W,1,09,0.90,61.5,M,-33.4,M,,*68
1799,3,-0.01,-0.01,-0.01,-0.06,-0.06,-0.06,-0.0001,-0.0001,-0.0001,-0.0001,$GPGGA,153243.200,3850.1139,N,07730.3717,W,1,09,0.90,61.5,M,-33.4,M,,*60
1800,3,-0.01,-0.01,-0.01,-0.06,-0.06,-0.06,-0.0001,-0.0001,-0.0001,-0.0001,$GPGGA,153243.300,3850.1143,N,07730.3712,W,1,09,0.93,61.5,M,-33.4,M,,*6A
1801,3,-0.01,-0.01,-0.01,-0.06,-0.06,-0.06,-0.0001,-0.0001,-0.0001,-0.0001,$GPGGA,153243.400,3850.1146,N,07730.3708,W,1,09,0.93,61.5,M,-33.4,M,,*63
1802,3,-0.01,-0.01,-0.01,-0.06,-0.06,-0.06,-0.0001,-0.0001,-0.0001,-0.0001,$GPGGA,153243.500,3850.1149,N,07730.3703,W,1,09,0.93,61.5,M,-33.4,M,,*66
1803,3,-0.01,-0.01,-0.01,-0.06,-0.06,-0.06,-0.0001,-0.0001,-0.0001,-0.0001,$GPGGA,153243.600,3850.1153,N,07730.3698,W,1,09,0.93,61.4,M,-33.4,M,,*6C
1804,3,-0.01,-0.01,-0.01,-0.06,-0.06,-0.06,-0.0001,-0.0001,-0.0001,-0.0001,$GPGGA,153243.700,3850.1156,N,07730.3693,W,1,09,0.93,61.4,M,-33.4,M,,*63
1805,3,-0.01,-0.01,-0.01,-0.06,-0.06,-0.06,-0.0001,-0.0001,-0.0001,-0.0001,$GPGGA,153243.800,3850.1160,N,07730.3688,W,1,09,0.93,61.4,M,-33.4,M,,*63
1806,3,-0.01,-0.01,-0.01,-0.06,-0.06,-0.06,-0.0001,-0.0001,-0.0001,-0.0001,$GPGGA,153243.900,3850.1167,N,07730.3681,W,1,09,0.93,61.4,M,-33.4,M,,*6C
1807,3,-0.01,-0.01,-0.01,-0.06,-0.06,-0.06,-0.0001,-0.0001,-0.0001,-0.0001,$GPGGA,153244.000,3850.1175,N,07730.3673,W,1,09,0.93,61.4,M,-33.4,M,,*6C
1808,3,-0.01,-0.01,-0.01,-0.06,-0.06,-0.06,-0.0001,-0.0001,-0.0001,-0.0001,$GPGGA,153244.100,3850.1180,N,07730.3667,W,1,09,0.90,61.4,M,-33.4,M,,*61
1809,3,-0.01,-0.01,-0.01,-0.06,-0.06,-0.06,-0.0001,-0.0001,-0.0001,-0.0001,$GPGGA,153244.200,3850.1186,N,07730.3659,W,1,09,0.90,61.4,M,-33.4,M,,*69
1810,3,-0.01,-0.01,-0.01,-0.06,-0.06,-0.06,-0.0001,-0.0001,-0.0001,-0.0001,$GPGGA,153244.300,3850.1192,N,07730.3649,W,1,09,0.90,61.4,M,-33.4,M,,*6C
1811,3,-0.01,-0.01,-0.01,-0.06,-0.06,-0.06,-0.0001,-0.0001,-0.0001,-0.0001,$GPGGA,153244.400,3850.1197,N,07730.3640,W,1,09,0.93,61.4,M,-33.4,M,,*64
1812,3,-0.01,-0.01,-0.01,-0.06,-0.06,-0.06,-0.0001,-0.0001,-0.0001,-0.0001,$GPGGA,153244.500,3850.1202,N,07730.3631,W,1,09,0.93,61.4,M,-33.4,M,,*6C
1813,3,-0.01,-0.01,-0.01,-0.06,-0.06,-0.06,-0.0001,-0.0001,-0.0001,-0.0001,$GPGGA,153244.600,3850.1207,N,07730.3621,W,1,09,0.93,61.3,M,-33.4,M,,*6C
1814,3,-0.01,-0.01,-0.01,-0.06,-0.06,-0.06,-0.0001,-0.0001,-0.0001,-0.0001,$GPGGA,153244.700,3850.1212,N,07730.3612,W,1,08,0.93,61.3,M,-33.4,M,,*68
1815,3,-0.01,-0.01,-0.01,-0.06,-0.06,-0.06,-0.0001,-0.0001,-0.0001,-0.0001,$GPGGA,153244.800,3850.1217,N,07730.3602,W,1,08,0.93,61.3,M,-33.4,M,,*63
1816,3,-0.01,-0.01,-0.01,-0.06,-0.06,-0.06,-0.0001,-0.0001,-0.0001,-0.0001,$GPGGA,153244.900,3850.1222,N,07730.3593,W,1,08,0.93,61.2,M,-33.4,M,,*6E
1817,3,-0.01,-0.01,-0.01,-0.06,-0.06,-0.06,-0.0001,-0.0001,-0.0001,-0.0001,$GPGGA,153245.000,3850.1227,N,07730.3583,W,1,08,0.93,61.2,M,-33.4,M,,*62
1818,3,-0.01,-0.01,-0.01,-0.06,-0.06,-0.06,-0.0001,-0.0001,-0.0001,-0.0001,$GPGGA,153245.100,3850.1232,N,07730.3573,W,1,08,0.91,61.2,M,-33.4,M,,*6A
1819,3,-0.01,-0.01,-0.01,-0.06,-0.06,-0.06,-0.0001,-0.0001,-0.0001,-0.0001,$GPGGA,153245.200,3850.1237,N,07730.3563,W,1,09,0.90,61.1,M,-33.4,M,,*6E
1820,3,-0.01,-0.01,-0.01,-0.06,-0.06,-0.06,-0.0001,-0.0001,-0.0001,-0.0001,$GPGGA,153245.300,3850.1242,N,07730.3553,W,1,09,0.93,61.1,M,-33.4,M,,*6D
1821,3,-0.01,-0.01,-0.01,-0.06,-0.06,-0.06,-0.0001,-0.0001,-0.0001,-0.0001,$GPGGA,153245.400,3850.1248,N,07730.3542,W,1,09,0.93,61.2,M,-33.4,M,,*63
1822,3,-0.01,-0.01,-0.01,-0.06,-0.06,-0.06,-0.0001,-0.0001,-0.0001,-0.0001,$GPGGA,153245.500,3850.1254,N,07730.3529,W,1,09,0.93,61.2,M,-33.4,M,,*62
1823,3,-0.01,-0.01,-0.01,-0.06,-0.06,-0.06,-0.0001,-0.0001,-0.0001,-0.0001,$GPGGA,153245.600,3850.1259,N,07730.3518,W,1,09,0.93,61.2,M,-33.4,M,,*6E
1824,3,-0.01,-0.01,-0.01,-0.06,-0.06,-0.06,-0.0001,-0.0001,-0.0001,-0.0001,$GPGGA,153245.700,3850.1265,N,07730.3505,W,1,09,0.93,61.2,M,-33.4,M,,*6C
1825,3,-0.01,-0.01,-0.01,-0.06,-0.06,-0.06,-0.0001,-0.0001,-0.0001,-0.0001,$GPGGA,153245.800,3850.1271,N,07730.3492,W,1,09,0.93,61.2,M,-33.4,M,,*69
1826,3,-0.01,-0.01,-0.01,-0.06,-0.06,-0.06,-0.0001,-0.0001,-0.0001,-0.0001,$GPGGA,153245.900,3850.1277,N,07730.3479,W,1,09,0.93,61.2,M,-33.4,M,,*6B
1827,3,-0.01,-0.01,-0.01,-0.06,-0.06,-0.06,-0.0001,-0.0001,-0.0001,-0.0001,$GPGGA,153246.000,3850.1284,N,07730.3466,W,1,09,0.93,61.3,M,-33.4,M,,*62
1828,3,-0.01,-0.01,-0.01,-0.06,-0.06,-0.06,-0.0001,-0.0001,-0.0001,-0.0001,$GPGGA,153246.100,3850.1290,N,07730.3454,W,1,09,0.90,61.3,M,-33.4,M,,*64
1829,3,-0.01,-0.01,-0.01,-0.06,-0.06,-0.06,-0.0001,-0.0001,-0.0001,-0.0001,$GPGGA,153246.200,3850.1297,N,07730.3442,W,1,09,0.93,61.3,M,-33.4,M,,*64
1830,3,-0.01,-0.01,-0.01,-0.06,-0.06,-0.06,-0.0001,-0.0001,-0.0001,-0.0001,$GPGGA,153246.300,3850.1304,N,07730.3428,W,1,09,0.93,61.4,M,-33.4,M,,*65
1831,3,-0.01,-0.01,-0.01,-0.06,-0.06,-0.06,-0.0001,-0.0001,-0.0001,-0.0001,$GPGGA,153246.400,3850.1311,N,07730.3415,W,1,09,0.93,61.5,M,-33.4,M,,*69
1832,3,-0.01,-0.01,-0.01,-0.06,-0.06,-0.06,-0.0001,-0.0001,-0.0001,-0.0001,$GPGGA,153246.500,3850.1317,N,07730.3401,W,1,09,0.93,61.6,M,-33.4,M,,*68
1833,3,-0.01,-0.01,-0.01,-0.06,-0.06,-0.06,-0.0001,-0.0001,-0.0001,-0.0001,$GPGGA,153246.600,3850.1324,N,07730.3387,W,1,09,0.93,61.7,M,-33.4,M,,*63
1834,3,-0.01,-0.01,-0.01,-0.06,-0.06,-0.06,-0.0001,-0.0001,-0.0001,-0.0001,$GPGGA,153246.700,3850.1329,N,07730.3372,W,1,09,0.93,61.8,M,-33.4,M,,*6A
1835,3,-0.01,-0.01,-0.01,-0.06,-0.06,-0.06,-0.0001,-0.0001,-0.0001,-0.0001,$GPGGA,153246.800,3850.1335,N,07730.3358,W,1,09,0.93,61.9,M,-33.4,M,,*61
1836,3,-0.01,-0.01,-0.01,-0.06,-0.06,-0.06,-0.0001,-0.0001,-0.0001,-0.0001,$GPGGA,153246.900,3850.1341,N,07730.3343,W,1,09,0.93,62.1,M,-33.4,M,,*62
1837,3,-0.01,-0.01,-0.01,-0.06,-0.06,-0.06,-0.0001,-0.0001,-0.0001,-0.0001,$GPGGA,153247.000,3850.1347,N,07730.3328,W,1,09,0.93,62.3,M,-33.4,M,,*63
1838,3,-0.01,-0.01,-0.01,-0.06,-0.06,-0.06,-0.0001,-0.0001,-0.0001,-0.0001,$GPGGA,153247.100,3850.1352,N,07730.3313,W,1,09,0.93,62.3,M,-33.4,M,,*6E
1839,3,-0.01,-0.01,-0.01,-0.06,-0.06,-0.06,-0.0001,-0.0001,-0.0001,-0.0001,$GPGGA,153247.200,3850.1358,N,07730.3298,W,1,09,0.93,62.4,M,-33.4,M,,*62
1840,3,-0.01,-0.01,-0.01,-0.06,-0.06,-0.06,-0.0001,-0.0001,-0.0001,-0.0001,$GPGGA,153247.300,3850.1364,N,07730.3284,W,1,09,0.93,62.6,M,-33.4,M,,*63
1841,3,-0.01,-0.01,-0.01,-0.06,-0.06,-0.06,-0.0001,-0.0001,-0.0001,-0.0001,$GPGGA,153247.400,3850.1370,N,07730.3269,W,1,09,0.93,62.8,M,-33.4,M,,*6C
1842,3,-0.01,-0.01,-0.01,-0.06,-0.06,-0.06,-0.0001,-0.0001,-0.0001,-0.0001,$GPGGA,153247.500,3850.1376,N,07730.3254,W,1,09,0.93,63.0,M,-33.4,M,,*6C
1843,3,-0.01,-0.01,-0.01,-0.06,-0.06,-0.06,-0.0001,-0.0001,-0.0001,-0.0001,$GPGGA,153247.600,3850.1382,N,07730.3239,W,1,09,0.93,63.2,M,-33.4,M,,*6D
1844,3,-0.01,-0.01,-0.01,-0.06,-0.06,-0.06,-0.0001,-0.0001,-0.0001,-0.0001,$GPGGA,153247.700,3850.1389,N,07730.3224,W,1,09,0.93,63.3,M,-33.4,M,,*6A
1845,3,-0.01,-0.01,-0.01,-0.06,-0.06,-0.06,-0.0001,-0.0001,-0.0001,-0.0001,$GPGGA,153247.800,3850.1396,N,07730.3209,W,1,09,0.93,63.5,M,-33.4,M,,*62
1846,3,-0.01,-0.01,-0.01,-0.06,-0.06,-0.06,-0.0001,-0.0001,-0.0001,-0.0001,$GPGGA,153247.900,3850.1402,N,07730.3195,W,1,09,0.93,63.6,M,-33.4,M,,*6C
1847,3,-0.01,-0.01,-0.01,-0.06,-0.06,-0.06,-0.0001,-0.0001,-0.0001,-0.0001,$GPGGA,153248.000,3850.1408,N,07730.3180,W,1,09,0.93,63.8,M,-33.4,M,,*6A
1848,3,-0.01,-0.01,-0.01,-0.06,-0.06,-0.06,-0.0001,-0.0001,-0.0001,-0.0001,$GPGGA,153248.100,3850.1415,N,07730.3165,W,1,09,0.93,63.9,M,-33.4,M,,*6D
1849,3,-0.01,-0.01,-0.01,-0.06,-0.06,-0.06,-0.0001,-0.0001,-0.0001,-0.0001,$GPGGA,153248.200,3850.1421,N,07730.3150,W,1,09,0.93,64.0,M,-33.4,M,,*61
1850,3,-0.01,-0.01,-0.01,-0.06,-0.06,-0.06,-0.0001,-0.0001,-0.0001,-0.0001,$GPGGA,153248.300,3850.1428,N,07730.3135,W,1,09,0.93,64.2,M,-33.4,M,,*68
1851,3,-0.01,-0.01,-0.01,-0.06,-0.06,-0.06,-0.0001,-0.0001,-0.0001,-0.0001,$GPGGA,153248.400,3850.1434,N,07730.3120,W,1,09,0.93,64.3,M,-33.4,M,,*67
1852,3,-0.01,-0.01,-0.01,-0.06,-0.06,-0.06,-0.0001,-0.0001,-0.0001,-0.0001,$GPGGA,153248.500,3850.1441,N,07730.3106,W,1,09,0.93,64.5,M,-33.4,M,,*66
1853,3,-0.01,-0.01,-0.01,-0.06,-0.06,-0.06,-0.0001,-0.0001,-0.0001,-0.0001,$GPGGA,153248.600,3850.1447,N,07730.3091,W,1,09,0.93,64.7,M,-33.4,M,,*6E
1854,3,-0.01,-0.01,-0.01,-0.06,-0.06,-0.06,-0.0001,-0.0001,-0.0001,-0.0001,$GPGGA,153248.700,3850.1454,N,07730.3077,W,1,09,0.93,64.8,M,-33.4,M,,*6A
1855,3,-0.01,-0.01,-0.01,-0.06,-0.06,-0.06,-0.0001,-0.0001,-0.0001,-0.0001,$GPGGA,153248.800,3850.1461,N,07730.3062,W,1,09,0.93,65.0,M,-33.4,M,,*6E
1856,3,-0.01,-0.01,-0.01,-0.06,-0.06,-0.06,-0.0001,-0.0001,-0.0001,-0.0001,$GPGGA,153248.900,3850.1468,N,07730.3047,W,1,09,0.93,65.1,M,-33.4,M,,*60
1857,3,-0.01,-0.01,-0.01,-0.06,-0.06,-0.06,-0.0001,-0.0001,-0.0001,-0.0001,$GPGGA,153249.000,3850.1474,N,07730.3033,W,1,09,0.93,65.2,M,-33.4,M,,*65
1858,3,-0.01,-0.01,-0.01,-0.06,-0.06,-0.06,-0.0001,-0.0001,-0.0001,-0.0001,$GPGGA,153249.100,3850.1481,N,07730.3018,W,1,09,0.90,65.0,M,-33.4,M,,*66
1859,3,-0.01,-0.01,-0.01,-0.06,-0.06,-0.06,-0.0001,-0.0001,-0.0001,-0.0001,$GPGGA,153249.200,3850.1488,N,07730.3004,W,1,09,0.90,64.7,M,-33.4,M,,*67
1860,3,-0.01,-0.01,-0.01,-0.06,-0.06,-0.06,-0.0001,-0.0001,-0.0001,-0.0001,$GPGGA,153249.300,3850.1496,N,07730.2990,W,1,09,0.90,64.6,M,-33.4,M,,*6D
1861,3,-0.01,-0.01,-0.01,-0.06,-0.06,-0.06,-0.0001,-0.0001,-0.0001,-0.0001,$GPGGA,153249.400,3850.1503,N,07730.2976,W,1,09,0.93,64.7,M,-33.4,M,,*6D
1862,3,-0.01,-0.01,-0.01,-0.06,-0.06,-0.06,-0.0001,-0.0001,-0.0001,-0.0001,$GPGGA,153249.500,3850.1510,N,07730.2962,W,1,09,0.90,64.8,M,-33.4,M,,*67
1863,3,-0.01,-0.01,-0.01,-0.06,-0.06,-0.06,-0.0001,-0.0001,-0.0001,-0.0001,$GPGGA,153249.600,3850.1518,N,07730.2952,W,1,09,0.93,64.8,M,-33.4,M,,*6C
1864,3,-0.01,-0.01,-0.01,-0.06,-0.06,-0.06,-0.0001,-0.0001,-0.0001,-0.0001,$GPGGA,153249.700,3850.1527,N,07730.2942,W,1,09,0.93,64.8,M,-33.4,M,,*60
1865,3,-0.01,-0.01,-0.01,-0.06,-0.06,-0.06,-0.0001,-0.0001,-0.0001,-0.0001,$GPGGA,153249.800,3850.1536,N,07730.2933,W,1,09,0.93,65.0,M,-33.4,M,,*60
1866,3,-0.01,-0.01,-0.01,-0.06,-0.06,-0.06,-0.0001,-0.0001,-0.0001,-0.0001,$GPGGA,153249.900,3850.1546,N,07730.2925,W,1,09,0.93,65.1,M,-33.4,M,,*60
1867,3,-0.01,-0.01,-0.01,-0.06,-0.06,-0.06,-0.0001,-0.0001,-0.0001,-0.0001,$GPGGA,153250.000,3850.1556,N,07730.2916,W,1,09,0.93,65.2,M,-33.4,M,,*63
1868,3,-0.01,-0.01,-0.01,-0.06,-0.06,-0.06,-0.0001,-0.0001,-0.0001,-0.0001,$GPGGA,153250.100,3850.1565,N,07730.2908,W,1,09,0.93,65.3,M,-33.4,M,,*6C
1869,3,-0.01,-0.01,-0.01,-0.06,-0.06,-0.06,-0.0001,-0.0001,-0.0001,-0.0001,$GPGGA,153250.200,3850.1577,N,07730.2901,W,1,09,0.93,65.3,M,-33.4,M,,*65
1870,3,-0.01,-0.01,-0.01,-0.06,-0.06,-0.06,-0.0001,-0.0001,-0.0001,-0.0001,$GPGGA,153250.300,3850.1590,N,07730.2894,W,1,09,1.67,65.2,M,-33.4,M,,*6B
1871,3,-0.01,-0.01,-0.01,-0.06,-0.06,-0.06,-0.0001,-0.0001,-0.0001,-0.0001,$GPGGA,153250.400,3850.1602,N,07730.2889,W,1,06,1.67,65.2,M,-33.4,M,,*67
1872,3,-0.01,-0.01,-0.01,-0.06,-0.06,-0.06,-0.0001,-0.0001,-0.0001,-0.0001,$GPGGA,153250.500,3850.1613,N,07730.2883,W,1,06,1.67,65.2,M,-33.4,M,,*6C
1873,3,-0.01,-0.01,-0.01,-0.06,-0.06,-0.06,-0.0001,-0.0001,-0.0001,-0.0001,$GPGGA,153250.600,3850.1622,N,07730.2880,W,1,06,1.67,65.3,M,-33.4,M,,*6F
1874,3,-0.01,-0.01,-0.01,-0.06,-0.06,-0.06,-0.0001,-0.0001,-0.0001,-0.0001,$GPGGA,153250.700,3850.1632,N,07730.2874,W,1,07,1.44,65.3,M,-33.4,M,,*64
1875,3,-0.01,-0.01,-0.01,-0.06,-0.06,-0.06,-0.0001,-0.0001,-0.0001,-0.0001,$GPGGA,153250.800,3850.1642,N,07730.2869,W,1,07,1.28,65.4,M,-33.4,M,,*6D
1876,3,-0.01,-0.01,-0.01,-0.06,-0.06,-0.06,-0.0001,-0.0001,-0.0001,-0.0001,$GPGGA,153250.900,3850.1652,N,07730.2867,W,1,08,1.01,65.5,M,-33.4,M,,*66
1877,3,-0.01,-0.01,-0.01,-0.06,-0.06,-0.06,-0.0001,-0.0001,-0.0001,-0.0001,$GPGGA,153251.000,3850.1661,N,07730.2867,W,1,09,0.93,65.6,M,-33.4,M,,*66
1878,3,-0.01,-0.01,-0.01,-0.06,-0.06,-0.06,-0.0001,-0.0001,-0.0001,-0.0001,$GPGGA,153251.100,3850.1671,N,07730.2865,W,1,09,0.93,65.7,M,-33.4,M,,*65
1879,3,-0.01,-0.01,-0.01,-0.06,-0.06,-0.06,-0.0001,-0.0001,-0.0001,-0.0001,$GPGGA,153251.200,3850.1681,N,07730.2864,W,1,09,0.93,65.9,M,-33.4,M,,*66
1880,3,-0.01,-0.01,-0.01,-0.06,-0.06,-0.06,-0.0001,-0.0001,-0.0001,-0.0001,$GPGGA,153251.300,3850.1690,N,07730.2864,W,1,09,1.21,66.1,M,-33.4,M,,*64
1881,3,-0.01,-0.01,-0.01,-0.06,-0.06,-0.06,-0.0001,-0.0001,-0.0001,-0.0001,$GPGGA,153251.400,3850.1699,N,07730.2867,W,1,08,1.21,66.4,M,-33.4,M,,*6D
1882,3,-0.01,-0.01,-0.01,-0.06,-0.06,-0.06,-0.0001,-0.0001,-0.0001,-0.0001,$GPGGA,153251.500,3850.1707,N,07730.2873,W,1,08,1.05,66.5,M,-33.4,M,,*68
1883,3,-0.01,-0.01,-0.01,-0.06,-0.06,-0.06,-0.0001,-0.0001,-0.0001,-0.0001,$GPGGA,153251.600,3850.1714,N,07730.2882,W,1,08,1.05,66.7,M,-33.4,M,,*65
1884,3,-0.01,-0.01,-0.01,-0.06,-0.06,-0.06,-0.0001,-0.0001,-0.0001,-0.0001,$GPGGA,153251.700,3850.1719,N,07730.2894,W,1,08,1.05,66.8,M,-33.4,M,,*61
1885,3,-0.01,-0.01,-0.01,-0.06,-0.06,-0.06,-0.0001,-0.0001,-0.0001,-0.0001,$GPGGA,153251.800,3850.1723,N,07730.2907,W,1,08,1.21,67.0,M,-33.4,M,,*63
1886,3,-0.01,-0.01,-0.01,-0.06,-0.06,-0.06,-0.0001,-0.0001,-0.0001,-0.0001,$GPGGA,153251.900,3850.1726,N,07730.2921,W,1,08,1.21,67.1,M,-33.4,M,,*62
1887,3,-0.01,-0.01,-0.01,-0.06,-0.06,-0.06,-0.0001,-0.0001,-0.0001,-0.0001,$GPGGA,153252.000,3850.1729,N,07730.2936,W,1,08,1.21,67.3,M,-33.4,M,,*63
1888,3,-0.01,-0.01,-0.01,-0.06,-0.06,-0.06,-0.0001,-0.0001,-0.0001,-0.0001,$GPGGA,153252.100,3850.1733,N,07730.2948,W,1,08,1.21,67.4,M,-33.4,M,,*67
1889,3,-0.01,-0.01,-0.01,-0.06,-0.06,-0.06,-0.0001,-0.0001,-0.0001,-0.0001,$GPGGA,153252.200,3850.1736,N,07730.2962,W,1,08,1.21,67.6,M,-33.4,M,,*6B
1890,3,-0.01,-0.01,-0.01,-0.06,-0.06,-0.06,-0.0001,-0.0001,-0.0001,-0.0001,$GPGGA,153252.300,3850.1738,N,07730.2977,W,1,09,0.93,67.8,M,-33.4,M,,*67
1891,3,-0.01,-0.01,-0.01,-0.06,-0.06,-0.06,-0.0001,-0.0001,-0.0001,-0.0001,$GPGGA,153252.400,3850.1738,N,07730.2991,W,1,09,0.93,68.0,M,-33.4,M,,*6F
1892,3,-0.01,-0.01,-0.01,-0.06,-0.06,-0.06,-0.0001,-0.0001,-0.0001,-0.0001,$GPGGA,153252.500,3850.1735,N,07730.3003,W,1,09,0.93,68.3,M,-33.4,M,,*63
1893,3,-0.01,-0.01,-0.01,-0.06,-0.06,-0.06,-0.0001,-0.0001,-0.0001,-0.0001,$GPGGA,153252.600,3850.1732,N,07730.3015,W,1,09,0.93,68.6,M,-33.4,M,,*65
1894,3,-0.01,-0.01,-0.01,-0.06,-0.06,-0.06,-0.0001,-0.0001,-0.0001,-0.0001,$GPGGA,153252.700,3850.1730,N,07730.3030,W,1,09,0.93,68.7,M,-33.4,M,,*60
1895,3,-0.01,-0.01,-0.01,-0.06,-0.06,-0.06,-0.0001,-0.0001,-0.0001,-0.0001,$GPGGA,153252.800,3850.1728,N,07730.3045,W,1,09,0.93,69.0,M,-33.4,M,,*62
1896,3,-0.01,-0.01,-0.01,-0.06,-0.06,-0.06,-0.0001,-0.0001,-0.0001,-0.0001,$GPGGA,153252.900,3850.1727,N,07730.3061,W,1,09,0.93,69.1,M,-33.4,M,,*6B
1897,3,-0.01,-0.01,-0.01,-0.06,-0.06,-0.06,-0.0001,-0.0001,-0.0001,-0.0001,$GPGGA,153253.000,3850.1726,N,07730.3077,W,1,09,0.93,69.3,M,-33.4,M,,*67
1898,3,-0.01,-0.01,-0.01,-0.06,-0.06,-0.06,-0.0001,-0.0001,-0.0001,-0.0001,$GPGGA,153253.100,3850.1725,N,07730.3091,W,1,09,0.93,69.5,M,-33.4,M,,*6B
1899,3,-0.01,-0.01,-0.01,-0.06,-0.06,-0.06,-0.0001,-0.0001,-0.0001,-0.0001,$GPGGA,153253.200,3850.1724,N,07730.3104,W,1,09,0.93,69.6,M,-33.4,M,,*67
1900,3,-0.01,-0.01,-0.01,-0.06,-0.06,-0.06,-0.0001,-0.0001,-0.0001,-0.0001,$GPGGA,153253.300,3850.1722,N,07730.3118,W,1,09,0.93,69.8,M,-33.4,M,,*63
1901,3,-0.01,-0.01,-0.01,-0.06,-0.06,-0.06,-0.0001,-0.0001,-0.0001,-0.0001,$GPGGA,153253.400,3850.1719,N,07730.3133,W,1,09,0.93,70.0,M,-33.4,M,,*65
1902,3,-0.01,-0.01,-0.01,-0.06,-0.06,-0.06,-0.0001,-0.0001,-0.0001,-0.0001,$GPGGA,153253.500,3850.1718,N,07730.3148,W,1,09,0.93,70.2,M,-33.4,M,,*6B
1903,3,-0.01,-0.01,-0.01,-0.06,-0.06,-0.06,-0.0001,-0.0001,-0.0001,-0.0001,$GPGGA,153253.600,3850.1715,N,07730.3163,W,1,09,0.93,70.4,M,-33.4,M,,*6A
1904,3,-0.01,-0.01,-0.01,-0.06,-0.06,-0.06,-0.0001,-0.0001,-0.0001,-0.0001,$GPGGA,153253.700,3850.1713,N,07730.3177,W,1,09,0.93,70.5,M,-33.4,M,,*69
1905,3,-0.01,-0.01,-0.01,-0.06,-0.06,-0.06,-0.0001,-0.0001,-0.0001,-0.0001,$GPGGA,153253.800,3850.1710,N,07730.3191,W,1,09,0.93,70.7,M,-33.4,M,,*6F
1906,3,-0.01,-0.01,-0.01,-0.06,-0.06,-0.06,-0.0001,-0.0001,-0.0001,-0.0001,$GPGGA,153253.900,3850.1706,N,07730.3205,W,1,09,0.93,70.9,M,-33.4,M,,*69
1907,3,-0.01,-0.01,-0.01,-0.06,-0.06,-0.06,-0.0001,-0.0001,-0.0001,-0.0001,$GPGGA,153254.000,3850.1701,N,07730.3219,W,1,09,0.93,71.0,M,-33.4,M,,*65
1908,3,-0.01,-0.01,-0.01,-0.06,-0.06,-0.06,-0.0001,-0.0001,-0.0001,-0.0001,$GPGGA,153254.100,3850.1698,N,07730.3232,W,1,09,0.93,71.1,M,-33.4,M,,*6D
1909,3,-0.01,-0.01,-0.01,-0.06,-0.06,-0.06,-0.0001,-0.0001,-0.0001,-0.0001,$GPGGA,153254.200,3850.1694,N,07730.3246,W,1,09,0.93,71.2,M,-33.4,M,,*62
1910,3,-0.01,-0.01,-0.01,-0.06,-0.06,-0.06,-0.0001,-0.0001,-0.0001,-0.0001,$GPGGA,153254.300,3850.1691,N,07730.3259,W,1,09,0.93,71.3,M,-33.4,M,,*69
1911,3,-0.01,-0.01,-0.01,-0.06,-0.06,-0.06,-0.0001,-0.0001,-0.0001,-0.0001,$GPGGA,153254.400,3850.1687,N,07730.3274,W,1,09,0.93,71.3,M,-33.4,M,,*66
1912,3,-0.01,-0.01,-0.01,-0.06,-0.06,-0.06,-0.0001,-0.0001,-0.0001,-0.0001,$GPGGA,153254.500,3850.1681,N,07730.3292,W,1,09,0.93,71.3,M,-33.4,M,,*69
1913,3,-0.01,-0.01,-0.01,-0.06,-0.06,-0.06,-0.0001,-0.0001,-0.0001,-0.0001,$GPGGA,153254.600,3850.1677,N,07730.3307,W,1,09,0.93,71.3,M,-33.4,M,,*6E
1914,3,-0.01,-0.01,-0.01,-0.06,-0.06,-0.06,-0.0001,-0.0001,-0.0001,-0.0001,$GPGGA,153254.700,3850.1673,N,07730.3324,W,1,09,0.93,71.3,M,-33.4,M,,*6A
1915,3,-0.01,-0.01,-0.01,-0.06,-0.06,-0.06,-0.0001,-0.0001,-0.0001,-0.0001,$GPGGA,153254.800,3850.1667,N,07730.3343,W,1,09,0.93,71.2,M,-33.4,M,,*60
1916,3,-0.01,-0.01,-0.01,-0.06,-0.06,-0.06,-0.0001,-0.0001,-0.0001,-0.0001,$GPGGA,153254.900,3850.1661,N,07730.3362,W,1,09,0.93,71.1,M,-33.4,M,,*67
1917,3,-0.01,-0.01,-0.01,-0.06,-0.06,-0.06,-0.0001,-0.0001,-0.0001,-0.0001,$GPGGA,153255.000,3850.1653,N,07730.3381,W,1,09,0.93,71.0,M,-33.4,M,,*62
1918,3,-0.01,-0.01,-0.01,-0.06,-0.06,-0.06,-0.0001,-0.0001,-0.0001,-0.0001,$GPGGA,153255.100,3850.1649,N,07730.3397,W,1,09,0.93,71.0,M,-33.4,M,,*6F
1919,3,-0.01,-0.01,-0.01,-0.06,-0.06,-0.06,-0.0001,-0.0001,-0.0001,-0.0001,$GPGGA,153255.200,3850.1643,N,07730.3412,W,1,09,0.93,71.1,M,-33.4,M,,*6D
1920,3,-0.01,-0.01,-0.01,-0.06,-0.06,-0.06,-0.0001,-0.0001,-0.0001,-0.0001,$GPGGA,153255.300,3850.1638,N,07730.3427,W,1,09,0.93,71.1,M,-33.4,M,,*66
1921,3,-0.01,-0.01,-0.01,-0.06,-0.06,-0.06,-0.0001,-0.0001,-0.0001,-0.0001,$GPGGA,153255.400,3850.1633,N,07730.3443,W,1,09,0.93,71.0,M,-33.4,M,,*69
1922,3,-0.01,-0.01,-0.01,-0.06,-0.06,-0.06,-0.0001,-0.0001,-0.0001,-0.0001,$GPGGA,153255.500,3850.1628,N,07730.3459,W,1,09,0.93,71.0,M,-33.4,M,,*69
1923,3,-0.01,-0.01,-0.01,-0.06,-0.06,-0.06,-0.0001,-0.0001,-0.0001,-0.0001,$GPGGA,153255.600,3850.1624,N,07730.3475,W,1,09,0.93,71.0,M,-33.4,M,,*68
1924,3,-0.01,-0.01,-0.01,-0.06,-0.06,-0.06,-0.0001,-0.0001,-0.0001,-0.0001,$GPGGA,153255.700,3850.1620,N,07730.3492,W,1,09,0.93,71.0,M,-33.4,M,,*64
1925,3,-0.01,-0.01,-0.01,-0.06,-0.06,-0.06,-0.0001,-0.0001,-0.0001,-0.0001,$GPGGA,153255.800,3850.1616,N,07730.3508,W,1,09,0.93,71.0,M,-33.4,M,,*6C
1926,3,-0.01,-0.01,-0.01,-0.06,-0.06,-0.06,-0.0001,-0.0001,-0.0001,-0.0001,$GPGGA,153255.900,3850.1612,N,07730.3525,W,1,09,0.93,71.0,M,-33.4,M,,*66
1927,3,-0.01,-0.01,-0.01,-0.06,-0.06,-0.06,-0.0001,-0.0001,-0.0001,-0.0001,$GPGGA,153256.000,3850.1608,N,07730.3542,W,1,09,0.93,71.0,M,-33.4,M,,*66
1928,3,-0.01,-0.01,-0.01,-0.06,-0.06,-0.06,-0.0001,-0.0001,-0.0001,-0.0001,$GPGGA,153256.100,3850.1603,N,07730.3558,W,1,09,0.93,71.1,M,-33.4,M,,*66
1929,3,-0.01,-0.01,-0.01,-0.06,-0.06,-0.06,-0.0001,-0.0001,-0.0001,-0.0001,$GPGGA,153256.200,3850.1599,N,07730.3575,W,1,09,0.93,71.1,M,-33.4,M,,*6A
1930,3,-0.01,-0.01,-0.01,-0.06,-0.06,-0.06,-0.0001,-0.0001,-0.0001,-0.0001,$GPGGA,153256.300,3850.1595,N,07730.3591,W,1,09,0.93,71.2,M,-33.4,M,,*6E
1931,3,-0.01,-0.01,-0.01,-0.06,-0.06,-0.06,-0.0001,-0.0001,-0.0001,-0.0001,$GPGGA,153256.400,3850.1590,N,07730.3608,W,1,09,0.93,71.3,M,-33.4,M,,*6E
1932,3,-0.01,-0.01,-0.01,-0.06,-0.06,-0.06,-0.0001,-0.0001,-0.0001,-0.0001,$GPGGA,153256.500,3850.1585,N,07730.3624,W,1,09,0.93,71.4,M,-33.4,M,,*62
1933,3,-0.01,-0.01,-0.01,-0.06,-0.06,-0.06,-0.0001,-0.0001,-0.0001,-0.0001,$GPGGA,153256.600,3850.1581,N,07730.3641,W,1,09,0.93,71.5,M,-33.4,M,,*67
1934,3,-0.01,-0.01,-0.01,-0.06,-0.06,-0.06,-0.0001,-0.0001,-0.0001,-0.0001,$GPGGA,153256.700,3850.1576,N,07730.3658,W,1,09,0.93,71.6,M,-33.4,M,,*65
1935,3,-0.01,-0.01,-0.01,-0.06,-0.06,-0.06,-0.0001,-0.0001,-0.0001,-0.0001,$GPGGA,153256.800,3850.1571,N,07730.3675,W,1,09,0.93,71.6,M,-33.4,M,,*62
1936,3,-0.01,-0.01,-0.01,-0.06,-0.06,-0.06,-0.0001,-0.0001,-0.0001,-0.0001,$GPGGA,153256.900,3850.1566,N,07730.3693,W,1,09,0.93,71.6,M,-33.4,M,,*6D
1937,3,-0.01,-0.01,-0.01,-0.06,-0.06,-0.06,-0.0001,-0.0001,-0.0001,-0.0001,$GPGGA,153257.000,3850.1560,N,07730.3712,W,1,09,0.93,71.7,M,-33.4,M,,*6A
1938,3,-0.01,-0.01,-0.01,-0.06,-0.06,-0.06,-0.0001,-0.0001,-0.0001,-0.0001,$GPGGA,153257.100,3850.1555,N,07730.3729,W,1,09,0.93,71.7,M,-33.4,M,,*65
1939,3,-0.01,-0.01,-0.01,-0.06,-0.06,-0.06,-0.0001,-0.0001,-0.0001,-0.0001,$GPGGA,153257.200,3850.1550,N,07730.3746,W,1,09,0.93,71.8,M,-33.4,M,,*65
1940,3,-0.01,-0.01,-0.01,-0.06,-0.06,-0.06,-0.0001,-0.0001,-0.0001,-0.0001,$GPGGA,153257.300,3850.1545,N,07730.3764,W,1,09,0.93,71.7,M,-33.4,M,,*6F
1941,3,-0.01,-0.01,-0.01,-0.06,-0.06,-0.06,-0.0001,-0.0001,-0.0001,-0.0001,$GPGGA,153257.400,3850.1539,N,07730.3782,W,1,09,0.93,71.5,M,-33.4,M,,*69
1942,3,-0.01,-0.01,-0.01,-0.06,-0.06,-0.06,-0.0001,-0.0001,-0.0001,-0.0001,$GPGGA,153257.500,3850.1534,N,07730.3801,W,1,09,0.93,71.4,M,-33.4,M,,*60
1943,3,-0.01,-0.01,-0.01,-0.06,-0.06,-0.06,-0.0001,-0.0001,-0.0001,-0.0001,$GPGGA,153257.600,3850.1529,N,07730.3819,W,1,09,0.93,71.5,M,-33.4,M,,*67
1944,3,-0.01,-0.01,-0.01,-0.06,-0.06,-0.06,-0.0001,-0.0001,-0.0001,-0.0001,$GPGGA,153257.700,3850.1524,N,07730.3837,W,1,09,0.93,71.5,M,-33.4,M,,*67
1945,3,-0.01,-0.01,-0.01,-0.06,-0.06,-0.06,-0.0001,-0.0001,-0.0001,-0.0001,$GPGGA,153257.800,3850.1519,N,07730.3855,W,1,09,0.93,71.6,M,-33.4,M,,*61
1946,3,-0.01,-0.01,-0.01,-0.06,-0.06,-0.06,-0.0001,-0.0001,-0.0001,-0.0001,$GPGGA,153257.900,3850.1514,N,07730.3874,W,1,09,0.93,71.7,M,-33.4,M,,*6F
1947,3,-0.01,-0.01,-0.01,-0.06,-0.06,-0.06,-0.0001,-0.0001,-0.0001,-0.0001,$GPGGA,153258.000,3850.1509,N,07730.3893,W,1,09,0.93,71.9,M,-33.4,M,,*62
1948,3,-0.01,-0.01,-0.01,-0.06,-0.06,-0.06,-0.0001,-0.0001,-0.0001,-0.0001,$GPGGA,153258.100,3850.1505,N,07730.3911,W,1,09,0.93,72.0,M,-33.4,M,,*6E
1949,3,-0.01,-0.01,-0.01,-0.06,-0.06,-0.06,-0.0001,-0.0001,-0.0001,-0.0001,$GPGGA,153258.200,3850.1501,N,07730.3929,W,1,09,0.93,72.0,M,-33.4,M,,*62
1950,3,-0.01,-0.01,-0.01,-0.06,-0.06,-0.06,-0.0001,-0.0001,-0.0001,-0.0001,$GPGGA,153258.300,3850.1496,N,07730.3947,W,1,09,0.93,72.1,M,-33.4,M,,*65
1951,3,-0.01,-0.01,-0.01,-0.06,-0.06,-0.06,-0.0001,-0.0001,-0.0001,-0.0001,$GPGGA,153258.400,3850.1491,N,07730.3966,W,1,09,0.93,72.2,M,-33.4,M,,*65
1952,3,-0.01,-0.01,-0.01,-0.06,-0.06,-0.06,-0.0001,-0.0001,-0.0001,-0.0001,$GPGGA,153258.500,3850.1487,N,07730.3985,W,1,09,0.93,72.2,M,-33.4,M,,*6E
1953,3,-0.01,-0.01,-0.01,-0.06,-0.06,-0.06,-0.0001,-0.0001,-0.0001,-0.0001,$GPGGA,153258.600,3850.1482,N,07730.4005,W,1,09,0.93,72.3,M,-33.4,M,,*6F
1954,3,-0.01,-0.01,-0.01,-0.06,-0.06,-0.06,-0.0001,-0.0001,-0.0001,-0.0001,$GPGGA,153258.700,3850.1478,N,07730.4023,W,1,09,0.93,72.5,M,-33.4,M,,*69
1955,3,-0.01,-0.01,-0.01,-0.06,-0.06,-0.06,-0.0001,-0.0001,-0.0001,-0.0001,$GPGGA,153258.800,3850.1474,N,07730.4042,W,1,09,0.93,72.7,M,-33.4,M,,*6F
1956,3,-0.01,-0.01,-0.01,-0.06,-0.06,-0.06,-0.0001,-0.0001,-0.0001,-0.0001,$GPGGA,153258.900,3850.1469,N,07730.4061,W,1,09,0.93,72.9,M,-33.4,M,,*6D
1957,3,-0.01,-0.01,-0.01,-0.06,-0.06,-0.06,-0.0001,-0.0001,-0.0001,-0.0001,$GPGGA,153259.000,3850.1465,N,07730.4081,W,1,09,0.93,73.1,M,-33.4,M,,*6E
1958,3,-0.01,-0.01,-0.01,-0.06,-0.06,-0.06,-0.0001,-0.0001,-0.0001,-0.0001,$GPGGA,153259.100,3850.1461,N,07730.4099,W,1,09,0.93,73.2,M,-33.4,M,,*61
1959,3,-0.01,-0.01,-0.01,-0.06,-0.06,-0.06,-0.0001,-0.0001,-0.0001,-0.0001,$GPGGA,153259.200,3850.1457,N,07730.4117,W,1,09,0.93,73.4,M,-33.4,M,,*66
1960,3,-0.01,-0.01,-0.01,-0.06,-0.06,-0.06,-0.0001,-0.0001,-0.0001,-0.0001,$GPGGA,153259.300,3850.1453,N,07730.4135,W,1,09,0.93,73.6,M,-33.4,M,,*61
1961,3,-0.01,-0.01,-0.01,-0.06,-0.06,-0.06,-0.0001,-0.0001,-0.0001,-0.0001,$GPGGA,153259.400,3850.1449,N,07730.4153,W,1,09,0.93,73.7,M,-33.4,M,,*6C
1962,3,-0.01,-0.01,-0.01,-0.06,-0.06,-0.06,-0.0001,-0.0001,-0.0001,-0.0001,$GPGGA,153259.500,3850.1445,N,07730.4171,W,1,09,0.93,73.9,M,-33.4,M,,*6F
1963,3,-0.01,-0.01,-0.01,-0.06,-0.06,-0.06,-0.0001,-0.0001,-0.0001,-0.0001,$GPGGA,153259.600,3850.1442,N,07730.4189,W,1,09,0.93,74.1,M,-33.4,M,,*63
1964,3,-0.01,-0.01,-0.01,-0.06,-0.06,-0.06,-0.0001,-0.0001,-0.0001,-0.0001,$GPGGA,153259.700,3850.1438,N,07730.4206,W,1,09,0.93,74.3,M,-33.4,M,,*69
1965,3,-0.01,-0.01,-0.01,-0.06,-0.06,-0.06,-0.0001,-0.0001,-0.0001,-0.0001,$GPGGA,153259.800,3850.1434,N,07730.4224,W,1,09,0.93,74.6,M,-33.4,M,,*6F
1966,3,-0.01,-0.01,-0.01,-0.06,-0.06,-0.06,-0.0001,-0.0001,-0.0001,-0.0001,$GPGGA,153259.900,3850.1430,N,07730.4241,W,1,09,0.93,74.9,M,-33.4,M,,*66
1967,3,-0.01,-0.01,-0.01,-0.06,-0.06,-0.06,-0.0001,-0.0001,-0.0001,-0.0001,$GPGGA,153300.000,3850.1425,N,07730.4259,W,1,09,0.93,75.1,M,-33.4,M,,*66
1968,3,-0.01,-0.01,-0.01,-0.06,-0.06,-0.06,-0.0001,-0.0001,-0.0001,-0.0001,$GPGGA,153300.100,3850.1421,N,07730.4277,W,1,09,0.93,75.3,M,-33.4,M,,*6D
1969,3,-0.01,-0.01,-0.01,-0.06,-0.06,-0.06,-0.0001,-0.0001,-0.0001,-0.0001,$GPGGA,153300.200,3850.1416,N,07730.4294,W,1,09,0.93,75.6,M,-33.4,M,,*62
1970,3,-0.01,-0.01,-0.01,-0.06,-0.06,-0.06,-0.0001,-0.0001,-0.0001,-0.0001,$GPGGA,153300.300,3850.1411,N,07730.4311,W,1,09,0.93,75.8,M,-33.4,M,,*66
1971,3,-0.01,-0.01,-0.01,-0.06,-0.06,-0.06,-0.0001,-0.0001,-0.0001,-0.0001,$GPGGA,153300.400,3850.1406,N,07730.4328,W,1,09,0.93,76.0,M,-33.4,M,,*66
1972,3,-0.01,-0.01,-0.01,-0.06,-0.06,-0.06,-0.0001,-0.0001,-0.0001,-0.0001,$GPGGA,153300.500,3850.1400,N,07730.4344,W,1,09,0.93,76.1,M,-33.4,M,,*6A
1973,3,-0.01,-0.01,-0.01,-0.06,-0.06,-0.06,-0.0001,-0.0001,-0.0001,-0.0001,$GPGGA,153300.600,3850.1393,N,07730.4362,W,1,09,0.93,76.2,M,-33.4,M,,*63
1974,3,-0.01,-0.01,-0.01,-0.06,-0.06,-0.06,-0.0001,-0.0001,-0.0001,-0.0001,$GPGGA,153300.700,3850.1385,N,07730.4381,W,1,09,0.93,76.5,M,-33.4,M,,*6F
1975,3,-0.01,-0.01,-0.01,-0.06,-0.06,-0.06,-0.0001,-0.0001,-0.0001,-0.0001,$GPGGA,153300.800,3850.1376,N,07730.4398,W,1,09,0.93,77.0,M,-33.4,M,,*60
1976,3,-0.01,-0.01,-0.01,-0.06,-0.06,-0.06,-0.0001,-0.0001,-0.0001,-0.0001,$GPGGA,153300.900,3850.1368,N,07730.4415,W,1,09,0.93,77.4,M,-33.4,M,,*68
1977,3,-0.01,-0.01,-0.01,-0.06,-0.06,-0.06,-0.0001,-0.0001,-0.0001,-0.0001,$GPGGA,153301.000,3850.1358,N,07730.4431,W,1,09,0.93,78.1,M,-33.4,M,,*6F
1978,3,-0.01,-0.01,-0.01,-0.06,-0.06,-0.06,-0.0001,-0.0001,-0.0001,-0.0001,$GPGGA,153301.100,3850.1351,N,07730.4447,W,1,09,0.93,78.5,M,-33.4,M,,*62
1979,3,-0.01,-0.01,-0.01,-0.06,-0.06,-0.06,-0.0001,-0.0001,-0.0001,-0.0001,$GPGGA,153301.200,3850.1342,N,07730.4463,W,1,09,0.93,78.8,M,-33.4,M,,*68
1980,3,-0.01,-0.01,-0.01,-0.06,-0.06,-0.06,-0.0001,-0.0001,-0.0001,-0.0001,$GPGGA,153301.300,3850.1333,N,07730.4478,W,1,09,0.93,78.8,M,-33.4,M,,*65
1981,3,-0.01,-0.01,-0.01,-0.06,-0.06,-0.06,-0.0001,-0.0001,-0.0001,-0.0001,$GPGGA,153301.400,3850.1326,N,07730.4491,W,1,09,0.93,78.2,M,-33.4,M,,*6B
1982,3,-0.01,-0.01,-0.01,-0.06,-0.06,-0.06,-0.0001,-0.0001,-0.0001,-0.0001,$GPGGA,153301.500,3850.1316,N,07730.4505,W,1,09,0.97,78.1,M,-33.4,M,,*62
1983,3,-0.01,-0.01,-0.01,-0.06,-0.06,-0.06,-0.0001,-0.0001,-0.0001,-0.0001,$GPGGA,153301.600,3850.1306,N,07730.4520,W,1,08,0.97,78.3,M,-33.4,M,,*64
1984,3,-0.01,-0.01,-0.01,-0.06,-0.06,-0.06,-0.0001,-0.0001,-0.0001,-0.0001,$GPGGA,153301.700,3850.1296,N,07730.4533,W,1,08,1.13,78.4,M,-33.4,M,,*65
1985,3,-0.01,-0.01,-0.01,-0.06,-0.06,-0.06,-0.0001,-0.0001,-0.0001,-0.0001,$GPGGA,153301.800,3850.1286,N,07730.4546,W,1,07,1.10,78.2,M,-33.4,M,,*63
1986,3,-0.01,-0.01,-0.01,-0.06,-0.06,-0.06,-0.0001,-0.0001,-0.0001,-0.0001,$GPGGA,153301.900,3850.1277,N,07730.4560,W,1,07,1.10,77.9,M,-33.4,M,,*6C
1987,3,-0.01,-0.01,-0.01,-0.06,-0.06,-0.06,-0.0001,-0.0001,-0.0001,-0.0001,$GPGGA,153302.000,3850.1267,N,07730.4575,W,1,08,0.99,78.0,M,-33.4,M,,*6A
1988,3,-0.01,-0.01,-0.01,-0.06,-0.06,-0.06,-0.0001,-0.0001,-0.0001,-0.0001,$GPGGA,153302.100,3850.1257,N,07730.4589,W,1,08,0.99,78.0,M,-33.4,M,,*6B
1989,3,-0.01,-0.01,-0.01,-0.06,-0.06,-0.06,-0.0001,-0.0001,-0.0001,-0.0001,$GPGGA,153302.200,3850.1247,N,07730.4603,W,1,09,0.93,78.1,M,-33.4,M,,*62
1990,3,-0.01,-0.01,-0.01,-0.06,-0.06,-0.06,-0.0001,-0.0001,-0.0001,-0.0001,$GPGGA,153302.300,3850.1237,N,07730.4618,W,1,09,0.93,78.4,M,-33.4,M,,*6B
1991,3,-0.01,-0.01,-0.01,-0.06,-0.06,-0.06,-0.0001,-0.0001,-0.0001,-0.0001,$GPGGA,153302.400,3850.1226,N,07730.4634,W,1,09,0.93,79.2,M,-33.4,M,,*65
1992,3,-0.01,-0.01,-0.01,-0.06,-0.06,-0.06,-0.0001,-0.0001,-0.0001,-0.0001,$GPGGA,153302.500,3850.1215,N,07730.4648,W,1,09,0.93,80.0,M,-33.4,M,,*6B
1993,3,-0.01,-0.01,-0.01,-0.06,-0.06,-0.06,-0.0001,-0.0001,-0.0001,-0.0001,$GPGGA,153302.600,3850.1204,N,07730.4663,W,1,09,0.93,80.7,M,-33.4,M,,*66
1994,3,-0.01,-0.01,-0.01,-0.06,-0.06,-0.06,-0.0001,-0.0001,-0.0001,-0.0001,$GPGGA,153302.700,3850.1194,N,07730.4678,W,1,09,0.93,81.4,M,-33.4,M,,*65
1995,3,-0.01,-0.01,-0.01,-0.06,-0.06,-0.06,-0.0001,-0.0001,-0.0001,-0.0001,$GPGGA,153302.800,3850.1184,N,07730.4692,W,1,09,0.93,81.8,M,-33.4,M,,*63
1996,3,-0.01,-0.01,-0.01,-0.06,-0.06,-0.06,-0.0001,-0.0001,-0.0001,-0.0001,$GPGGA,153302.900,3850.1174,N,07730.4705,W,1,09,0.93,82.3,M,-33.4,M,,*6A
1997,3,-0.01,-0.01,-0.01,-0.06,-0.06,-0.06,-0.0001,-0.0001,-0.0001,-0.0001,$GPGGA,153303.000,3850.1164,N,07730.4719,W,1,09,0.93,82.8,M,-33.4,M,,*65
1998,3,-0.01,-0.01,-0.01,-0.06,-0.06,-0.06,-0.0001,-0.0001,-0.0001,-0.0001,$GPGGA,153303.100,3850.1154,N,07730.4733,W,1,09,0.93,83.3,M,-33.4,M,,*65
1999,3,-0.01,-0.01,-0.01,-0.06,-0.06,-0.06,-0.0001,-0.0001,-0.0001,-0.0001,$GPGGA,153303.200,3850.1145,N,07730.4746,W,1,09,0.93,83.9,M,-33.4,M,,*6E
2000,3,-0.01,-0.01,-0.01,-0.06,-0.06,-0.06,-0.0001,-0.0001,-0.0001,-0.0001,$GPGGA,153303.300,3850.1135,N,07730.4760,W,1,09,0.93,84.6,M,-33.4,M,,*64
2001,3,-0.01,-0.01,-0.01,-0.06,-0.06,-0.06,-0.0001,-0.0001,-0.0001,-0.0001,$GPGGA,153303.400,3850.1126,N,07730.4773,W,1,09,0.93,85.5,M,-33.4,M,,*61
2002,3,-0.01,-0.01,-0.01,-0.06,-0.06,-0.06,-0.0001,-0.0001,-0.0001,-0.0001,$GPGGA,153303.500,3850.1117,N,07730.4787,W,1,09,0.93,86.4,M,-33.4,M,,*6B
2003,3,-0.01,-0.01,-0.01,-0.06,-0.06,-0.06,-0.0001,-0.0001,-0.0001,-0.0001,$GPGGA,153303.600,3850.1107,N,07730.4800,W,1,09,0.93,87.4,M,-33.4,M,,*68
2004,3,-0.01,-0.01,-0.01,-0.06,-0.06,-0.06,-0.0001,-0.0001,-0.0001,-0.0001,$GPGGA,153303.700,3850.1097,N,07730.4811,W,1,09,0.93,88.1,M,-33.4,M,,*6B
2005,3,-0.01,-0.01,-0.01,-0.06,-0.06,-0.06,-0.0001,-0.0001,-0.0001,-0.0001,$GPGGA,153303.800,3850.1087,N,07730.4823,W,1,09,0.93,88.6,M,-33.4,M,,*63
2006,3,-0.01,-0.01,-0.01,-0.06,-0.06,-0.06,-0.0001,-0.0001,-0.0001,-0.0001,$GPGGA,153303.900,3850.1077,N,07730.4834,W,1,09,0.93,89.2,M,-33.4,M,,*6E
2007,3,-0.01,-0.01,-0.01,-0.06,-0.06,-0.06,-0.0001,-0.0001,-0.0001,-0.0001,$GPGGA,153304.000,3850.1066,N,07730.4845,W,1,09,0.93,89.6,M,-33.4,M,,*62
2008,3,-0.01,-0.01,-0.01,-0.06,-0.06,-0.06,-0.0001,-0.0001,-0.0001,-0.0001,$GPGGA,153304.100,3850.1057,N,07730.4857,W,1,09,0.93,90.0,M,-33.4,M,,*6C
2009,3,-0.01,-0.01,-0.01,-0.06,-0.06,-0.06,-0.0001,-0.0001,-0.0001,-0.0001,$GPGGA,153304.200,3850.1047,N,07730.4868,W,1,09,0.93,90.4,M,-33.4,M,,*66
2010,3,-0.01,-0.01,-0.01,-0.06,-0.06,-0.06,-0.0001,-0.0001,-0.0001,-0.0001,$GPGGA,153304.300,3850.1038,N,07730.4879,W,1,09,0.93,90.8,M,-33.4,M,,*63
2011,3,-0.01,-0.01,-0.01,-0.06,-0.06,-0.06,-0.0001,-0.0001,-0.0001,-0.0001,$GPGGA,153304.400,3850.1028,N,07730.4891,W,1,09,0.93,91.1,M,-33.4,M,,*6B
2012,3,-0.01,-0.01,-0.01,-0.06,-0.06,-0.06,-0.0001,-0.0001,-0.0001,-0.0001,$GPGGA,153304.500,3850.1018,N,07730.4902,W,1,09,0.93,91.4,M,-33.4,M,,*67
2013,3,-0.01,-0.01,-0.01,-0.06,-0.06,-0.06,-0.0001,-0.0001,-0.0001,-0.0001,$GPGGA,153304.600,3850.1008,N,07730.4914,W,1,09,0.93,91.8,M,-33.4,M,,*6E
2014,3,-0.01,-0.01,-0.01,-0.06,-0.06,-0.06,-0.0001,-0.0001,-0.0001,-0.0001,$GPGGA,153304.700,3850.0998,N,07730.4925,W,1,09,0.93,92.3,M,-33.4,M,,*64
2015,3,-0.01,-0.01,-0.01,-0.06,-0.06,-0.06,-0.0001,-0.0001,-0.0001,-0.0001,$GPGGA,153304.800,3850.0987,N,07730.4937,W,1,09,0.93,93.0,M,-33.4,M,,*64
2016,3,-0.01,-0.01,-0.01,-0.06,-0.06,-0.06,-0.0001,-0.0001,-0.0001,-0.0001,$GPGGA,153304.900,3850.0977,N,07730.4949,W,1,09,0.93,93.9,M,-33.4,M,,*6A
2017,3,-0.01,-0.01,-0.01,-0.06,-0.06,-0.06,-0.0001,-0.0001,-0.0001,-0.0001,$GPGGA,153305.000,3850.0967,N,07730.4960,W,1,09,0.93,94.8,M,-33.4,M,,*6E
2018,3,-0.01,-0.01,-0.01,-0.06,-0.06,-0.06,-0.0001,-0.0001,-0.0001,-0.0001,$GPGGA,153305.100,3850.0957,N,07730.4971,W,1,09,0.93,95.2,M,-33.4,M,,*67
2019,3,-0.01,-0.01,-0.01,-0.06,-0.06,-0.06,-0.0001,-0.0001,-0.0001,-0.0001,$GPGGA,153305.200,3850.0947,N,07730.4981,W,1,09,0.93,95.8,M,-33.4,M,,*60
2020,3,-0.01,-0.01,-0.01,-0.06,-0.06,-0.06,-0.0001,-0.0001,-0.0001,-0.0001,$GPGGA,153305.300,3850.0936,N,07730.4992,W,1,09,1.03,96.5,M,-33.4,M,,*63
2021,3,-0.01,-0.01,-0.01,-0.06,-0.06,-0.06,-0.0001,-0.0001,-0.0001,-0.0001,$GPGGA,153305.400,3850.0926,N,07730.5003,W,1,08,1.03,97.7,M,-33.4,M,,*67
2022,3,-0.01,-0.01,-0.01,-0.06,-0.06,-0.06,-0.0001,-0.0001,-0.0001,-0.0001,$GPGGA,153305.500,3850.0916,N,07730.5013,W,1,08,1.03,98.9,M,-33.4,M,,*65
2023,3,-0.01,-0.01,-0.01,-0.06,-0.06,-0.06,-0.0001,-0.0001,-0.0001,-0.0001,$GPGGA,153305.600,3850.0906,N,07730.5023,W,1,08,1.03,99.9,M,-33.4,M,,*65
2024,3,-0.01,-0.01,-0.01,-0.06,-0.06,-0.06,-0.0001,-0.0001,-0.0001,-0.0001,$GPGGA,153305.700,3850.0897,N,07730.5031,W,1,08,1.03,100.6,M,-33.4,M,,*50
2025,3,-0.01,-0.01,-0.01,-0.06,-0.06,-0.06,-0.0001,-0.0001,-0.0001,-0.0001,$GPGGA,153305.800,3850.0889,N,07730.5040,W,1,08,1.03,101.6,M,-33.4,M,,*57
2026,3,-0.01,-0.01,-0.01,-0.06,-0.06,-0.06,-0.0001,-0.0001,-0.0001,-0.0001,$GPGGA,153305.900,3850.0882,N,07730.5046,W,1,08,1.03,102.7,M,-33.4,M,,*59
2027,3,-0.01,-0.01,-0.01,-0.06,-0.06,-0.06,-0.0001,-0.0001,-0.0001,-0.0001,$GPGGA,153306.000,3850.0876,N,07730.5049,W,1,08,1.03,103.5,M,-33.4,M,,*54
2028,3,-0.01,-0.01,-0.01,-0.06,-0.06,-0.06,-0.0001,-0.0001,-0.0001,-0.0001,$GPGGA,153306.100,3850.0869,N,07730.5055,W,1,08,1.03,104.1,M,-33.4,M,,*55
2029,3,-0.01,-0.01,-0.01,-0.06,-0.06,-0.06,-0.0001,-0.0001,-0.0001,-0.0001,$GPGGA,153306.200,3850.0861,N,07730.5060,W,1,08,1.03,104.7,M,-33.4,M,,*5E
2030,3,-0.01,-0.01,-0.01,-0.06,-0.06,-0.06,-0.0001,-0.0001,-0.0001,-0.0001,$GPGGA,153306.300,3850.0855,N,07730.5062,W,1,08,1.03,105.5,M,-33.4,M,,*59
2031,3,-0.01,-0.01,-0.01,-0.06,-0.06,-0.06,-0.0001,-0.0001,-0.0001,-0.0001,$GPGGA,153306.400,3850.0848,N,07730.5066,W,1,08,1.16,106.2,M,-33.4,M,,*56
2032,3,-0.01,-0.01,-0.01,-0.06,-0.06,-0.06,-0.0001,-0.0001,-0.0001,-0.0001,$GPGGA,153306.500,3850.0840,N,07730.5069,W,1,07,1.16,107.0,M,-33.4,M,,*5C
2033,3,-0.01,-0.01,-0.01,-0.06,-0.06,-0.06,-0.0001,-0.0001,-0.0001,-0.0001,$GPGGA,153306.600,3850.0835,N,07730.5071,W,1,07,1.16,107.6,M,-33.4,M,,*52
2034,3,-0.01,-0.01,-0.01,-0.06,-0.06,-0.06,-0.0001,-0.0001,-0.0001,-0.0001,$GPGGA,153306.700,3850.0831,N,07730.5072,W,1,07,1.16,108.4,M,-33.4,M,,*59
2035,3,-0.01,-0.01,-0.01,-0.06,-0.06,-0.06,-0.0001,-0.0001,-0.0001,-0.0001,$GPGGA,153306.800,3850.0825,N,07730.5073,W,1,08,1.03,109.2,M,-33.4,M,,*5E
2036,3,-0.01,-0.01,-0.01,-0.06,-0.06,-0.06,-0.0001,-0.0001,-0.0001,-0.0001,$GPGGA,153306.900,3850.0821,N,07730.5072,W,1,08,1.03,109.9,M,-33.4,M,,*51
2037,3,-0.01,-0.01,-0.01,-0.06,-0.06,-0.06,-0.0001,-0.0001,-0.0001,-0.0001,$GPGGA,153307.000,3850.0818,N,07730.5072,W,1,08,1.03,110.6,M,-33.4,M,,*54
2038,3,-0.01,-0.01,-0.01,-0.06,-0.06,-0.06,-0.0001,-0.0001,-0.0001,-0.0001,$GPGGA,153307.100,3850.0813,N,07730.5073,W,1,08,1.03,111.3,M,-33.4,M,,*5B
2039,3,-0.01,-0.01,-0.01,-0.06,-0.06,-0.06,-0.0001,-0.0001,-0.0001,-0.0001,$GPGGA,153307.200,3850.0807,N,07730.5074,W,1,08,1.03,111.9,M,-33.4,M,,*50
2040,3,-0.01,-0.01,-0.01,-0.06,-0.06,-0.06,-0.0001,-0.0001,-0.0001,-0.0001,$GPGGA,153307.300,3850.0803,N,07730.5075,W,1,08,1.03,112.5,M,-33.4,M,,*5B
2041,3,-0.01,-0.01,-0.01,-0.06,-0.06,-0.06,-0.0001,-0.0001,-0.0001,-0.0001,$GPGGA,153307.400,3850.0799,N,07730.5075,W,1,08,1.04,113.0,M,-33.4,M,,*53
2042,3,-0.01,-0.01,-0.01,-0.06,-0.06,-0.06,-0.0001,-0.0001,-0.0001,-0.0001,$GPGGA,153307.500,3850.0795,N,07730.5075,W,1,09,0.93,113.7,M,-33.4,M,,*57
2043,3,-0.01,-0.01,-0.01,-0.06,-0.06,-0.06,-0.0001,-0.0001,-0.0001,-0.0001,$GPGGA,153307.600,3850.0793,N,07730.5075,W,1,09,0.93,114.2,M,-33.4,M,,*50
2044,3,-0.01,-0.01,-0.01,-0.06,-0.06,-0.06,-0.0001,-0.0001,-0.0001,-0.0001,$GPGGA,153307.700,3850.0791,N,07730.5075,W,1,09,0.93,114.7,M,-33.4,M,,*56
2045,3,-0.01,-0.01,-0.01,-0.06,-0.06,-0.06,-0.0001,-0.0001,-0.0001,-0.0001,$GPGGA,153307.800,3850.0789,N,07730.5074,W,1,09,0.93,114.8,M,-33.4,M,,*5E
2046,3,-0.01,-0.01,-0.01,-0.06,-0.06,-0.06,-0.0001,-0.0001,-0.0001,-0.0001,$GPGGA,153307.900,3850.0787,N,07730.5073,W,1,09,0.93,115.2,M,-33.4,M,,*5D
2047,3,-0.01,-0.01,-0.01,-0.06,-0.06,-0.06,-0.0001,-0.0001,-0.0001,-0.0001,$GPGGA,153308.000,3850.0785,N,07730.5073,W,1,09,0.93,115.5,M,-33.4,M,,*5E
2048,3,-0.01,-0.01,-0.01,-0.06,-0.06,-0.06,-0.0001,-0.0001,-0.0001,-0.0001,$GPGGA,153308.100,3850.0783,N,07730.5072,W,1,09,0.93,116.0,M,-33.4,M,,*5E
2049,3,-0.01,-0.01,-0.01,-0.06,-0.06,-0.06,-0.0001,-0.0001,-0.0001,-0.0001,$GPGGA,153308.200,3850.0781,N,07730.5072,W,1,09,0.93,116.3,M,-33.4,M,,*5C
2050,3,-0.01,-0.01,-0.01,-0.06,-0.06,-0.06,-0.0001,-0.0001,-0.0001,-0.0001,$GPGGA,153308.300,3850.0778,N,07730.5071,W,1,09,0.93,116.6,M,-33.4,M,,*5D
2051,3,-0.01,-0.01,-0.01,-0.06,-0.06,-0.06,-0.0001,-0.0001,-0.0001,-0.0001,$GPGGA,153308.400,3850.0774,N,07730.5070,W,1,09,0.93,116.3,M,-33.4,M,,*52
2052,3,-0.01,-0.01,-0.01,-0.06,-0.06,-0.06,-0.0001,-0.0001,-0.0001,-0.0001,$GPGGA,153308.500,3850.0771,N,07730.5069,W,1,09,0.93,116.2,M,-33.4,M,,*5F
2053,3,-0.01,-0.01,-0.01,-0.06,-0.06,-0.06,-0.0001,-0.0001,-0.0001,-0.0001,$GPGGA,153308.600,3850.0771,N,07730.5068,W,1,09,0.93,116.0,M,-33.4,M,,*5F
2054,3,-0.01,-0.01,-0.01,-0.06,-0.06,-0.06,-0.0001,-0.0001,-0.0001,-0.0001,$GPGGA,153308.700,3850.0769,N,07730.5067,W,1,09,0.93,115.4,M,-33.4,M,,*5F
2055,3,-0.01,-0.01,-0.01,-0.06,-0.06,-0.06,-0.0001,-0.0001,-0.0001,-0.0001,$GPGGA,153308.800,3850.0767,N,07730.5065,W,1,09,0.93,114.6,M,-33.4,M,,*5F
2056,3,-0.01,-0.01,-0.01,-0.06,-0.06,-0.06,-0.0001,-0.0001,-0.0001,-0.0001,$GPGGA,153308.900,3850.0763,N,07730.5064,W,1,09,0.90,114.4,M,-33.4,M,,*5A
2057,3,-0.01,-0.01,-0.01,-0.06,-0.06,-0.06,-0.0001,-0.0001,-0.0001,-0.0001,$GPGGA,153309.000,3850.0758,N,07730.5064,W,1,09,0.90,115.4,M,-33.4,M,,*5B
2058,3,-0.01,-0.01,-0.01,-0.06,-0.06,-0.06,-0.0001,-0.0001,-0.0001,-0.0001,$GPGGA,153309.100,3850.0754,N,07730.5064,W,1,09,0.90,115.9,M,-33.4,M,,*5B
2059,3,-0.01,-0.01,-0.01,-0.06,-0.06,-0.06,-0.0001,-0.0001,-0.0001,-0.0001,$GPGGA,153309.200,3850.0752,N,07730.5064,W,1,09,0.93,116.7,M,-33.4,M,,*50
2060,3,-0.01,-0.01,-0.01,-0.06,-0.06,-0.06,-0.0001,-0.0001,-0.0001,-0.0001,$GPGGA,153309.300,3850.0748,N,07730.5064,W,1,09,0.93,117.2,M,-33.4,M,,*5E
2061,3,-0.01,-0.01,-0.01,-0.06,-0.06,-0.06,-0.0001,-0.0001,-0.0001,-0.0001,$GPGGA,153309.400,3850.0744,N,07730.5064,W,1,09,0.97,118.0,M,-33.4,M,,*5C
2062,3,-0.01,-0.01,-0.01,-0.06,-0.06,-0.06,-0.0001,-0.0001,-0.0001,-0.0001,$GPGGA,153309.500,3850.0740,N,07730.5064,W,1,08,0.97,118.2,M,-33.4,M,,*5A
2063,3,-0.01,-0.01,-0.01,-0.06,-0.06,-0.06,-0.0001,-0.0001,-0.0001,-0.0001,$GPGGA,153309.600,3850.0737,N,07730.5064,W,1,08,0.97,118.4,M,-33.4,M,,*5F
2064,3,-0.01,-0.01,-0.01,-0.06,-0.06,-0.06,-0.0001,-0.0001,-0.0001,-0.0001,$GPGGA,153309.700,3850.0735,N,07730.5064,W,1,09,0.93,118.6,M,-33.4,M,,*5B
2065,3,-0.01,-0.01,-0.01,-0.06,-0.06,-0.06,-0.0001,-0.0001,-0.0001,-0.0001,$GPGGA,153309.800,3850.0734,N,07730.5065,W,1,09,0.93,118.8,M,-33.4,M,,*5A
2066,3,-0.01,-0.01,-0.01,-0.06,-0.06,-0.06,-0.0001,-0.0001,-0.0001,-0.0001,$GPGGA,153309.900,3850.0730,N,07730.5065,W,1,09,0.93,118.8,M,-33.4,M,,*5F
2067,3,-0.01,-0.01,-0.01,-0.06,-0.06,-0.06,-0.0001,-0.0001,-0.0001,-0.0001,$GPGGA,153310.000,3850.0728,N,07730.5066,W,1,09,0.93,118.8,M,-33.4,M,,*54
2068,3,-0.01,-0.01,-0.01,-0.06,-0.06,-0.06,-0.0001,-0.0001,-0.0001,-0.0001,$GPGGA,153310.100,3850.0725,N,07730.5065,W,1,09,0.93,118.6,M,-33.4,M,,*55
2069,3,-0.01,-0.01,-0.01,-0.06,-0.06,-0.06,-0.0001,-0.0001,-0.0001,-0.0001,$GPGGA,153310.200,3850.0722,N,07730.5066,W,1,09,0.90,118.7,M,-33.4,M,,*50
2070,3,-0.01,-0.01,-0.01,-0.06,-0.06,-0.06,-0.0001,-0.0001,-0.0001,-0.0001,$GPGGA,153310.300,3850.0720,N,07730.5067,W,1,09,0.90,119.4,M,-33.4,M,,*50
2071,3,-0.01,-0.01,-0.01,-0.06,-0.06,-0.06,-0.0001,-0.0001,-0.0001,-0.0001,$GPGGA,153310.400,3850.0718,N,07730.5068,W,1,09,0.90,120.1,M,-33.4,M,,*5C
2072,3,-0.01,-0.01,-0.01,-0.06,-0.06,-0.06,-0.0001,-0.0001,-0.0001,-0.0001,$GPGGA,153310.500,3850.0716,N,07730.5066,W,1,09,0.90,120.4,M,-33.4,M,,*58
2073,3,-0.01,-0.01,-0.01,-0.06,-0.06,-0.06,-0.0001,-0.0001,-0.0001,-0.0001,$GPGGA,153310.600,3850.0713,N,07730.5063,W,1,09,0.90,120.6,M,-33.4,M,,*59
2074,3,-0.01,-0.01,-0.01,-0.06,-0.06,-0.06,-0.0001,-0.0001,-0.0001,-0.0001,$GPGGA,153310.700,3850.0710,N,07730.5061,W,1,09,0.90,121.0,M,-33.4,M,,*5E
2075,3,-0.01,-0.01,-0.01,-0.06,-0.06,-0.06,-0.0001,-0.0001,-0.0001,-0.0001,$GPGGA,153310.800,3850.0708,N,07730.5056,W,1,09,0.90,121.2,M,-33.4,M,,*5E
2076,3,-0.01,-0.01,-0.01,-0.06,-0.06,-0.06,-0.0001,-0.0001,-0.0001,-0.0001,$GPGGA,153310.900,3850.0706,N,07730.5050,W,1,09,0.93,121.1,M,-33.4,M,,*57
2077,3,-0.01,-0.01,-0.01,-0.06,-0.06,-0.06,-0.0001,-0.0001,-0.0001,-0.0001,$GPGGA,153311.000,3850.0703,N,07730.5042,W,1,09,0.93,120.9,M,-33.4,M,,*50
2078,3,-0.01,-0.01,-0.01,-0.06,-0.06,-0.06,-0.0001,-0.0001,-0.0001,-0.0001,$GPGGA,153311.100,3850.0702,N,07730.5037,W,1,09,0.93,120.8,M,-33.4,M,,*53
2079,3,-0.01,-0.01,-0.01,-0.06,-0.06,-0.06,-0.0001,-0.0001,-0.0001,-0.0001,$GPGGA,153311.200,3850.0701,N,07730.5030,W,1,09,0.93,120.6,M,-33.4,M,,*5A
2080,3,-0.01,-0.01,-0.01,-0.06,-0.06,-0.06,-0.0001,-0.0001,-0.0001,-0.0001,$GPGGA,153311.300,3850.0701,N,07730.5024,W,1,09,0.93,120.4,M,-33.4,M,,*5C
2081,3,-0.01,-0.01,-0.01,-0.06,-0.06,-0.06,-0.0001,-0.0001,-0.0001,-0.0001,$GPGGA,153311.400,3850.0704,N,07730.5016,W,1,09,0.93,120.2,M,-33.4,M,,*59
2082,3,-0.01,-0.01,-0.01,-0.06,-0.06,-0.06,-0.0001,-0.0001,-0.0001,-0.0001,$GPGGA,153311.500,3850.0712,N,07730.5008,W,1,09,0.93,119.9,M,-33.4,M,,*51
2083,3,-0.01,-0.01,-0.01,-0.06,-0.06,-0.06,-0.0001,-0.0001,-0.0001,-0.0001,$GPGGA,153311.600,3850.0719,N,07730.4999,W,1,09,0.93,119.7,M,-33.4,M,,*57
2084,3,-0.01,-0.01,-0.01,-0.06,-0.06,-0.06,-0.0001,-0.0001,-0.0001,-0.0001,$GPGGA,153311.700,3850.0726,N,07730.4991,W,1,09,0.93,119.4,M,-33.4,M,,*51
2085,3,-0.01,-0.01,-0.01,-0.06,-0.06,-0.06,-0.0001,-0.0001,-0.0001,-0.0001,$GPGGA,153311.800,3850.0732,N,07730.4980,W,1,09,0.93,119.1,M,-33.4,M,,*5E
2086,3,-0.01,-0.01,-0.01,-0.06,-0.06,-0.06,-0.0001,-0.0001,-0.0001,-0.0001,$GPGGA,153311.900,3850.0738,N,07730.4968,W,1,09,0.93,118.8,M,-33.4,M,,*5B
2087,3,-0.01,-0.01,-0.01,-0.06,-0.06,-0.06,-0.0001,-0.0001,-0.0001,-0.0001,$GPGGA,153312.000,3850.0743,N,07730.4956,W,1,09,0.93,118.5,M,-33.4,M,,*5D
2088,3,-0.01,-0.01,-0.01,-0.06,-0.06,-0.06,-0.0001,-0.0001,-0.0001,-0.0001,$GPGGA,153312.100,3850.0747,N,07730.4947,W,1,09,0.93,118.2,M,-33.4,M,,*5F
2089,3,-0.01,-0.01,-0.01,-0.06,-0.06,-0.06,-0.0001,-0.0001,-0.0001,-0.0001,$GPGGA,153312.200,3850.0752,N,07730.4935,W,1,09,0.93,118.0,M,-33.4,M,,*5F
2090,3,-0.01,-0.01,-0.01,-0.06,-0.06,-0.06,-0.0001,-0.0001,-0.0001,-0.0001,$GPGGA,153312.300,3850.0757,N,07730.4921,W,1,09,0.93,117.8,M,-33.4,M,,*59
2091,3,-0.01,-0.01,-0.01,-0.06,-0.06,-0.06,-0.0001,-0.0001,-0.0001,-0.0001,$GPGGA,153312.400,3850.0762,N,07730.4909,W,1,09,0.93,117.5,M,-33.4,M,,*5F
2092,3,-0.01,-0.01,-0.01,-0.06,-0.06,-0.06,-0.0001,-0.0001,-0.0001,-0.0001,$GPGGA,153312.500,3850.0765,N,07730.4894,W,1,09,0.93,117.2,M,-33.4,M,,*5B
2093,3,-0.01,-0.01,-0.01,-0.06,-0.06,-0.06,-0.0001,-0.0001,-0.0001,-0.0001,$GPGGA,153312.600,3850.0771,N,07730.4880,W,1,09,0.90,116.6,M,-33.4,M,,*5E
2094,3,-0.01,-0.01,-0.01,-0.06,-0.06,-0.06,-0.0001,-0.0001,-0.0001,-0.0001,$GPGGA,153312.700,3850.0776,N,07730.4865,W,1,09,0.90,116.4,M,-33.4,M,,*51
2095,3,-0.01,-0.01,-0.01,-0.06,-0.06,-0.06,-0.0001,-0.0001,-0.0001,-0.0001,$GPGGA,153312.800,3850.0781,N,07730.4850,W,1,09,0.90,116.2,M,-33.4,M,,*56
2096,3,-0.01,-0.01,-0.01,-0.06,-0.06,-0.06,-0.0001,-0.0001,-0.0001,-0.0001,$GPGGA,153312.900,3850.0787,N,07730.4835,W,1,09,0.90,116.1,M,-33.4,M,,*51
2097,3,-0.01,-0.01,-0.01,-0.06,-0.06,-0.06,-0.0001,-0.0001,-0.0001,-0.0001,$GPGGA,153313.000,3850.0795,N,07730.4820,W,1,09,0.93,115.9,M,-33.4,M,,*56
2098,3,-0.01,-0.01,-0.01,-0.06,-0.06,-0.06,-0.0001,-0.0001,-0.0001,-0.0001,$GPGGA,153313.100,3850.0800,N,07730.4807,W,1,09,0.93,116.1,M,-33.4,M,,*5A
2099,3,-0.01,-0.01,-0.01,-0.06,-0.06,-0.06,-0.0001,-0.0001,-0.0001,-0.0001,$GPGGA,153313.200,3850.0807,N,07730.4795,W,1,09,0.93,116.2,M,-33.4,M,,*59
2100,3,-0.01,-0.01,-0.01,-0.06,-0.06,-0.06,-0.0001,-0.0001,-0.0001,-0.0001,$GPGGA,153313.300,3850.0814,N,07730.4782,W,1,09,0.93,116.4,M,-33.4,M,,*5A
2101,3,-0.01,-0.01,-0.01,-0.06,-0.06,-0.06,-0.0001,-0.0001,-0.0001,-0.0001,$GPGGA,153313.400,3850.0821,N,07730.4770,W,1,09,0.93,116.6,M,-33.4,M,,*54
