3700,0,0.05,0.00,0.08,0.19,-0.19,0.00,0.1168,-0.0117,-0.0660,0.9909,$GPGGA,134120.200,3850.1215,N,07730.3462,W,2,09,0.91,51.6,M,-33.4,M,0000,0000*69
3701,0,0.06,0.01,0.05,0.00,0.13,-0.06,0.1168,-0.0117,-0.0660,0.9909,$GPGGA,134120.300,3850.1215,N,07730.3462,W,2,09,0.91,51.6,M,-33.4,M,0000,0000*68
3702,0,0.05,0.02,0.07,0.13,-0.06,0.00,0.1168,-0.0117,-0.0660,0.9909,$GPGGA,134120.400,3850.1215,N,07730.3462,W,2,09,0.91,51.6,M,-33.4,M,0000,0000*6F
3703,0,0.06,0.01,0.06,0.00,0.00,0.06,0.1168,-0.0117,-0.0660,0.9909,$GPGGA,134120.500,3850.1215,N,07730.3462,W,2,09,0.91,51.6,M,-33.4,M,0000,0000*6E
3704,0,0.04,0.01,0.08,0.00,-0.19,0.06,0.1168,-0.0117,-0.0660,0.9909,$GPGGA,134120.600,3850.1215,N,07730.3462,W,2,09,0.91,51.6,M,-33.4,M,0000,0000*6D
3705,0,0.05,0.01,0.06,-0.06,-0.13,0.00,0.1168,-0.0117,-0.0660,0.9909,$GPGGA,134120.700,3850.1215,N,07730.3462,W,2,09,0.91,51.6,M,-33.4,M,0000,0000*6C
3706,0,0.05,0.00,0.05,-0.13,-0.19,0.06,0.1168,-0.0117,-0.0660,0.9909,$GPGGA,134120.800,3850.1215,N,07730.3462,W,2,09,0.91,51.6,M,-33.4,M,0000,0000*63
3707,0,0.05,0.00,0.05,-0.19,-0.06,-0.06,0.1168,-0.0117,-0.0660,0.9909,$GPGGA,134120.900,3850.1215,N,07730.3462,W,2,09,0.91,51.6,M,-33.4,M,0000,0000*62
3708,0,0.05,0.03,0.05,-0.13,-0.06,0.00,0.1168,-0.0117,-0.0660,0.9909,$GPGGA,134121.000,3850.1215,N,07730.3462,W,2,09,0.91,51.6,M,-33.4,M,0000,0000*6A
3709,0,0.06,0.00,0.05,-0.13,-0.13,0.06,0.1168,-0.0117,-0.0660,0.9909,$GPGGA,134121.100,3850.1215,N,07730.3462,W,2,09,0.91,51.6,M,-33.4,M,0000,0000*6B
3710,0,0.05,0.02,0.04,0.13,0.06,0.06,0.1168,-0.0117,-0.0660,0.9909,$GPGGA,134121.200,3850.1215,N,07730.3462,W,2,09,0.91,51.6,M,-33.4,M,0000,0000*68
3711,0,0.06,0.01,0.07,0.00,-0.13,0.13,0.1168,-0.0117,-0.0660,0.9909,$GPGGA,134121.300,3850.1215,N,07730.3462,W,2,09,0.91,51.6,M,-33.4,M,0000,0000*69
3712,0,0.06,0.01,0.04,0.19,0.06,0.00,0.1168,-0.0117,-0.0660,0.9909,$GPGGA,134121.400,3850.1215,N,07730.3462,W,2,09,0.91,51.6,M,-33.4,M,0000,0000*6E
3713,0,0.06,0.02,0.06,0.06,-0.06,-0.06,0.1168,-0.0117,-0.0660,0.9909,$GPGGA,134121.500,3850.1215,N,07730.3462,W,2,09,0.91,51.6,M,-33.4,M,0000,0000*6F
3714,0,0.05,0.01,0.05,0.00,0.13,-0.13,0.1168,-0.0117,-0.0660,0.9909,$GPGGA,134121.600,3850.1215,N,07730.3462,W,2,09,0.91,51.6,M,-33.4,M,0000,0000*6C
3715,0,0.05,0.00,0.05,-0.06,0.00,0.06,0.1168,-0.0117,-0.0660,0.9909,$GPGGA,134121.700,3850.1215,N,07730.3462,W,2,09,0.91,51.6,M,-33.4,M,0000,0000*6D
3716,0,0.05,0.01,0.06,-0.13,-0.13,0.06,0.1168,-0.0117,-0.0660,0.9909,$GPGGA,134121.800,3850.1215,N,07730.3462,W,2,09,0.91,51.6,M,-33.4,M,0000,0000*62
3717,0,0.03,0.02,0.04,0.13,0.06,-0.13,0.1168,-0.0117,-0.0660,0.9909,$GPGGA,134121.900,3850.1215,N,07730.3462,W,2,09,0.91,51.6,M,-33.4,M,0000,0000*63
3718,0,0.04,0.01,0.07,0.00,-0.13,0.00,0.1168,-0.0117,-0.0660,0.9909,$GPGGA,134122.000,3850.1215,N,07730.3462,W,2,09,0.91,51.6,M,-33.4,M,0000,0000*69
3719,0,0.04,0.01,0.06,-0.06,-0.06,0.00,0.1168,-0.0117,-0.0660,0.9909,$GPGGA,134122.100,3850.1215,N,07730.3462,W,2,09,0.91,51.6,M,-33.4,M,0000,0000*68
3720,0,0.06,0.01,0.05,0.19,0.13,0.06,0.1168,-0.0117,-0.0660,0.9909,$GPGGA,134122.200,3850.1215,N,07730.3462,W,2,09,0.91,51.6,M,-33.4,M,0000,0000*6B
3721,0,0.05,0.00,0.06,0.13,0.06,-0.06,0.1168,-0.0117,-0.0660,0.9909,$GPGGA,134122.300,3850.1215,N,07730.3462,W,2,09,0.91,51.6,M,-33.4,M,0000,0000*6A
3722,0,0.04,0.00,0.06,-0.06,0.00,0.06,0.1168,-0.0117,-0.0660,0.9909,$GPGGA,134122.400,3850.1215,N,07730.3462,W,2,09,0.91,51.6,M,-33.4,M,0000,0000*6D
3723,0,0.04,0.00,0.06,0.19,-0.06,0.00,0.1168,-0.0117,-0.0660,0.9909,$GPGGA,134122.500,3850.1215,N,07730.3462,W,2,09,0.91,51.6,M,-33.4,M,0000,0000*6C
3724,0,0.05,0.00,0.06,-0.06,0.00,-0.06,0.1168,-0.0117,-0.0660,0.9909,$GPGGA,134122.600,3850.1215,N,07730.3462,W,2,09,0.91,51.6,M,-33.4,M,0000,0000*6F
3725,0,0.06,0.01,0.05,0.06,-0.06,0.00,0.1168,-0.0117,-0.0660,0.9909,$GPGGA,134122.700,3850.1215,N,07730.3462,W,2,09,0.91,51.6,M,-33.4,M,0000,0000*6E
3726,0,0.05,0.02,0.04,0.19,0.06,0.00,0.1168,-0.0117,-0.0660,0.9909,$GPGGA,134122.800,3850.1215,N,07730.3462,W,2,09,0.91,51.6,M,-33.4,M,0000,0000*61
3727,0,0.04,0.01,0.05,-0.06,0.00,-0.06,0.1168,-0.0117,-0.0660,0.9909,$GPGGA,134122.900,3850.1215,N,07730.3462,W,2,09,0.91,51.6,M,-33.4,M,0000,0000*60
3728,0,0.05,0.02,0.05,-0.13,-0.19,0.06,0.1168,-0.0117,-0.0660,0.9909,$GPGGA,134123.000,3850.1215,N,07730.3462,W,2,09,0.91,51.6,M,-33.4,M,0000,0000*68
3729,0,0.05,0.01,0.07,-0.13,-0.25,0.06,0.1168,-0.0117,-0.0660,0.9909,$GPGGA,134123.100,3850.1215,N,07730.3462,W,2,09,0.91,51.6,M,-33.4,M,0000,0000*69
3730,0,0.04,0.00,0.06,0.13,-0.13,0.13,0.1168,-0.0117,-0.0660,0.9909,$GPGGA,134123.200,3850.1215,N,07730.3462,W,2,09,0.91,51.6,M,-33.4,M,0000,0000*6A
3731,0,0.07,0.01,0.04,0.00,0.13,0.00,0.1168,-0.0117,-0.0660,0.9909,$GPGGA,134123.300,3850.1215,N,07730.3462,W,2,09,0.91,51.6,M,-33.4,M,0000,0000*6B
3732,0,0.05,0.02,0.05,0.00,0.13,0.06,0.1168,-0.0117,-0.0660,0.9909,$GPGGA,134123.400,3850.1215,N,07730.3462,W,2,09,0.91,51.6,M,-33.4,M,0000,0000*6C
3733,0,0.06,0.01,0.06,-0.13,0.37,-0.06,0.1168,-0.0117,-0.0660,0.9909,$GPGGA,134123.500,3850.1215,N,07730.3462,W,2,09,0.91,51.6,M,-33.4,M,0000,0000*6D
3734,0,0.05,0.01,0.06,0.13,-0.06,0.00,0.1168,-0.0117,-0.0660,0.9909,$GPGGA,134123.600,3850.1215,N,07730.3462,W,2,09,0.91,51.6,M,-33.4,M,0000,0000*6E
3735,0,0.03,0.01,0.09,0.00,0.06,0.00,0.1168,-0.0117,-0.0660,0.9909,$GPGGA,134123.700,3850.1215,N,07730.3462,W,2,09,0.91,51.6,M,-33.4,M,0000,0000*6F
3736,0,0.03,0.01,0.06,0.06,-0.06,0.06,0.1168,-0.0117,-0.0660,0.9909,$GPGGA,134123.800,3850.1215,N,07730.3462,W,2,09,0.91,51.6,M,-33.4,M,0000,0000*60
3737,0,0.04,0.00,0.09,-0.06,-0.06,0.00,0.1168,-0.0117,-0.0660,0.9909,$GPGGA,134123.900,3850.1215,N,07730.3462,W,2,09,0.91,51.6,M,-33.4,M,0000,0000*61
3738,0,0.04,0.02,0.07,-0.06,0.31,0.06,0.1168,-0.0117,-0.0660,0.9909,$GPGGA,134124.000,3850.1215,N,07730.3462,W,2,09,0.91,51.6,M,-33.4,M,0000,0000*6F
3739,0,0.05,-0.01,0.04,0.06,-0.13,0.00,0.1168,-0.0117,-0.0660,0.9909,$GPGGA,134124.100,3850.1215,N,07730.3462,W,2,09,0.91,51.6,M,-33.4,M,0000,0000*6E
3740,0,0.05,0.03,0.07,0.13,0.00,-0.13,0.1168,-0.0117,-0.0660,0.9909,$GPGGA,134124.200,3850.1215,N,07730.3462,W,2,09,0.91,51.6,M,-33.4,M,0000,0000*6D
3741,0,0.05,0.01,0.07,0.06,0.06,-0.06,0.1168,-0.0117,-0.0660,0.9909,$GPGGA,134124.300,3850.1215,N,07730.3462,W,2,09,0.91,51.6,M,-33.4,M,0000,0000*6C
3742,0,0.03,0.03,0.08,0.00,0.00,0.00,0.1168,-0.0117,-0.0660,0.9909,$GPGGA,134124.400,3850.1215,N,07730.3462,W,2,09,0.91,51.6,M,-33.4,M,0000,0000*6B
3743,0,0.05,0.01,0.10,-0.13,0.00,0.00,0.1168,-0.0117,-0.0660,0.9909,$GPGGA,134124.500,3850.1215,N,07730.3462,W,2,09,0.91,51.6,M,-33.4,M,0000,0000*6A
3744,0,0.04,0.01,0.08,0.06,-0.13,-0.06,0.1168,-0.0117,-0.0660,0.9909,$GPGGA,134124.600,3850.1215,N,07730.3462,W,2,09,0.91,51.6,M,-33.4,M,0000,0000*69
3745,0,0.06,0.01,0.06,0.06,0.00,-0.06,0.1168,-0.0117,-0.0660,0.9909,$GPGGA,134124.700,3850.1215,N,07730.3462,W,2,09,0.91,51.6,M,-33.4,M,0000,0000*68
3746,0,0.04,0.02,0.07,0.06,0.06,-0.06,0.1168,-0.0117,-0.0660,0.9909,$GPGGA,134124.800,3850.1215,N,07730.3462,W,2,09,0.91,51.6,M,-33.4,M,0000,0000*67
3747,0,0.06,0.01,0.06,-0.06,0.06,-0.06,0.1168,-0.0117,-0.0660,0.9909,$GPGGA,134124.900,3850.1215,N,07730.3462,W,2,09,0.91,51.6,M,-33.4,M,0000,0000*66
3748,0,0.06,0.00,0.03,0.00,-0.19,0.13,0.1168,-0.0117,-0.0660,0.9909,$GPGGA,134125.000,3850.1215,N,07730.3462,W,2,09,0.91,51.6,M,-33.4,M,0000,0000*6E
3749,0,0.06,0.01,0.04,0.06,-0.06,-0.06,0.1168,-0.0117,-0.0660,0.9909,$GPGGA,134125.100,3850.1215,N,07730.3462,W,2,09,0.91,51.6,M,-33.4,M,0000,0000*6F
3750,0,0.06,0.01,0.08,-0.06,0.00,0.00,0.1168,-0.0117,-0.0660,0.9909,$GPGGA,134125.200,3850.1215,N,07730.3462,W,2,09,0.91,51.6,M,-33.4,M,0000,0000*6C
3751,0,0.06,0.01,0.06,0.00,0.06,-0.06,0.1168,-0.0117,-0.0660,0.9909,$GPGGA,134125.300,3850.1215,N,07730.3462,W,2,09,0.91,51.6,M,-33.4,M,0000,0000*6D
3752,0,0.04,0.02,0.06,0.00,0.00,-0.06,0.1168,-0.0117,-0.0660,0.9909,$GPGGA,134125.400,3850.1215,N,07730.3462,W,2,09,0.91,51.6,M,-33.4,M,0000,0000*6A
3753,0,0.04,0.00,0.08,-0.06,-0.13,-0.06,0.1168,-0.0117,-0.0660,0.9909,$GPGGA,134125.500,3850.1215,N,07730.3462,W,2,09,0.91,51.6,M,-33.4,M,0000,0000*6B
3754,0,0.05,0.00,0.06,0.06,0.19,0.06,0.1168,-0.0117,-0.0660,0.9909,$GPGGA,134125.600,3850.1215,N,07730.3462,W,2,09,0.91,51.6,M,-33.4,M,0000,0000*68
3755,0,0.05,0.01,0.06,-0.13,0.00,-0.06,0.1168,-0.0117,-0.0660,0.9909,$GPGGA,134125.700,3850.1215,N,07730.3462,W,2,09,0.91,51.6,M,-33.4,M,0000,0000*69
3756,0,0.03,0.01,0.06,-0.19,0.00,0.00,0.1168,-0.0117,-0.0660,0.9909,$GPGGA,134125.800,3850.1215,N,07730.3462,W,2,09,0.91,51.6,M,-33.4,M,0000,0000*66
3757,0,0.06,0.01,0.07,-0.06,-0.06,0.00,0.1168,-0.0117,-0.0660,0.9909,$GPGGA,134125.900,3850.1215,N,07730.3462,W,2,09,0.91,51.6,M,-33.4,M,0000,0000*67
3758,0,0.05,0.03,0.06,0.06,-0.25,-0.06,0.1168,-0.0117,-0.0660,0.9909,$GPGGA,134126.000,3850.1215,N,07730.3462,W,2,09,0.91,51.6,M,-33.4,M,0000,0000*6D
3759,0,0.06,0.01,0.05,-0.06,-0.19,0.06,0.1168,-0.0117,-0.0660,0.9909,$GPGGA,134126.100,3850.1215,N,07730.3462,W,2,09,0.91,51.6,M,-33.4,M,0000,0000*6C
3760,0,0.05,0.02,0.05,0.00,0.19,0.00,0.1168,-0.0117,-0.0660,0.9909,$GPGGA,134126.200,3850.1215,N,07730.3462,W,2,09,0.91,51.6,M,-33.4,M,0000,0000*6F
3761,0,0.05,0.00,0.06,-0.06,-0.06,0.19,0.1168,-0.0117,-0.0660,0.9909,$GPGGA,134126.300,3850.1215,N,07730.3462,W,2,09,0.91,51.6,M,-33.4,M,0000,0000*6E
3762,0,0.06,0.00,0.07,0.00,0.06,-0.06,0.1168,-0.0117,-0.0660,0.9909,$GPGGA,134126.400,3850.1215,N,07730.3462,W,2,09,0.91,51.6,M,-33.4,M,0000,0000*69
3763,0,0.07,0.01,0.07,0.13,0.06,0.06,0.1168,-0.0117,-0.0660,0.9909,$GPGGA,134126.500,3850.1215,N,07730.3462,W,2,09,0.91,51.6,M,-33.4,M,0000,0000*68
3764,0,0.04,0.00,0.05,-0.06,-0.13,0.00,0.1168,-0.0117,-0.0660,0.9909,$GPGGA,134126.600,3850.1215,N,07730.3462,W,2,09,0.91,51.6,M,-33.4,M,0000,0000*6B
3765,0,0.05,0.02,0.05,-0.06,0.13,-0.06,0.1168,-0.0117,-0.0660,0.9909,$GPGGA,134126.700,3850.1215,N,07730.3462,W,2,09,0.91,51.6,M,-33.4,M,0000,0000*6A
3766,0,0.05,0.00,0.05,-0.13,0.19,0.00,0.1168,-0.0117,-0.0660,0.9909,$GPGGA,134126.800,3850.1215,N,07730.3462,W,2,09,0.91,51.6,M,-33.4,M,0000,0000*65
3767,0,0.06,0.00,0.05,0.00,0.13,0.00,0.1168,-0.0117,-0.0660,0.9909,$GPGGA,134126.900,3850.1215,N,07730.3462,W,2,09,0.91,51.6,M,-33.4,M,0000,0000*64
3768,0,0.05,0.00,0.06,0.06,0.06,0.00,0.1168,-0.0117,-0.0660,0.9909,$GPGGA,134127.000,3850.1215,N,07730.3462,W,2,09,0.91,51.6,M,-33.4,M,0000,0000*6C
3769,0,0.04,0.00,0.06,-0.06,-0.19,0.00,0.1168,-0.0117,-0.0660,0.9909,$GPGGA,134127.100,3850.1215,N,07730.3462,W,2,09,0.91,51.6,M,-33.4,M,0000,0000*6D
3770,0,0.05,0.00,0.05,0.06,-0.06,-0.06,0.1168,-0.0117,-0.0660,0.9909,$GPGGA,134127.200,3850.1215,N,07730.3462,W,2,09,0.91,51.6,M,-33.4,M,0000,0000*6E
3771,0,0.05,0.00,0.07,0.06,0.06,0.00,0.1168,-0.0117,-0.0660,0.9909,$GPGGA,134127.300,3850.1215,N,07730.3462,W,2,09,0.91,51.6,M,-33.4,M,0000,0000*6F
3772,0,0.04,0.00,0.06,0.13,0.00,0.00,0.1168,-0.0117,-0.0660,0.9909,$GPGGA,134127.400,3850.1215,N,07730.3462,W,2,09,0.91,51.6,M,-33.4,M,0000,0000*68
3773,0,0.05,0.00,0.03,-0.13,0.00,0.06,0.1168,-0.0117,-0.0660,0.9909,$GPGGA,134127.500,3850.1215,N,07730.3462,W,2,09,0.91,51.6,M,-33.4,M,0000,0000*69
3774,0,0.03,0.01,0.05,-0.13,-0.06,-0.06,0.1168,-0.0117,-0.0660,0.9909,$GPGGA,134127.600,3850.1215,N,07730.3462,W,2,09,0.91,51.6,M,-33.4,M,0000,0000*6A
3775,0,0.04,0.01,0.04,-0.19,-0.13,-0.06,0.1168,-0.0117,-0.0660,0.9909,$GPGGA,134127.700,3850.1215,N,07730.3462,W,2,09,0.91,51.6,M,-33.4,M,0000,0000*6B
3776,0,0.04,0.00,0.08,0.06,0.00,0.13,0.1168,-0.0117,-0.0660,0.9909,$GPGGA,134127.800,3850.1216,N,07730.3462,W,2,09,0.91,51.6,M,-33.4,M,0000,0000*67
3777,0,0.04,0.01,0.05,0.00,0.00,0.13,0.1168,-0.0117,-0.0660,0.9909,$GPGGA,134127.900,3850.1216,N,07730.3462,W,2,09,0.91,51.6,M,-33.4,M,0000,0000*66
3778,0,0.05,0.02,0.05,0.00,0.06,-0.06,0.1168,-0.0117,-0.0660,0.9909,$GPGGA,134128.000,3850.1216,N,07730.3462,W,2,09,0.91,51.6,M,-33.4,M,0000,0000*60
3779,0,0.05,0.00,0.04,-0.13,0.13,0.00,0.1168,-0.0117,-0.0660,0.9909,$GPGGA,134128.100,3850.1216,N,07730.3462,W,2,09,0.91,51.6,M,-33.4,M,0000,0000*61
3780,0,0.05,0.02,0.05,-0.13,0.00,-0.13,0.1168,-0.0117,-0.0660,0.9909,$GPGGA,134128.200,3850.1216,N,07730.3462,W,2,09,0.91,51.6,M,-33.4,M,0000,0000*62
3781,0,0.06,0.01,0.04,0.00,0.00,0.06,0.1168,-0.0117,-0.0660,0.9909,$GPGGA,134128.300,3850.1216,N,07730.3462,W,2,09,0.91,51.6,M,-33.4,M,0000,0000*63
3782,0,0.04,0.00,0.04,0.06,-0.13,-0.13,0.1168,-0.0117,-0.0660,0.9909,$GPGGA,134128.400,3850.1216,N,07730.3462,W,2,09,0.91,51.6,M,-33.4,M,0000,0000*64
3783,0,0.05,0.01,0.05,-0.06,-0.13,0.06,0.1168,-0.0117,-0.0660,0.9909,$GPGGA,134128.500,3850.1216,N,07730.3462,W,2,09,0.91,51.6,M,-33.4,M,0000,0000*65
3784,0,0.05,0.00,0.04,0.06,-0.06,0.00,0.1168,-0.0117,-0.0660,0.9909,$GPGGA,134128.600,3850.1216,N,07730.3462,W,2,09,0.91,51.6,M,-33.4,M,0000,0000*66
3785,0,0.06,0.02,0.04,0.00,0.06,-0.06,0.1168,-0.0117,-0.0660,0.9909,$GPGGA,134128.700,3850.1216,N,07730.3462,W,2,09,0.91,51.6,M,-33.4,M,0000,0000*67
3786,0,0.05,0.02,0.03,0.13,0.00,-0.13,0.1168,-0.0117,-0.0660,0.9909,$GPGGA,134128.800,3850.1216,N,07730.3462,W,2,09,0.91,51.6,M,-33.4,M,0000,0000*68
3787,0,0.06,0.02,0.04,-0.19,-0.06,0.06,0.1168,-0.0117,-0.0660,0.9909,$GPGGA,134128.900,3850.1216,N,07730.3462,W,2,09,0.91,51.6,M,-33.4,M,0000,0000*69
3788,0,0.05,0.01,0.07,0.06,0.06,-0.13,0.1168,-0.0117,-0.0660,0.9909,$GPGGA,134129.000,3850.1216,N,07730.3462,W,2,09,0.91,51.6,M,-33.4,M,0000,0000*61
3789,0,0.05,0.03,0.05,0.00,0.00,0.00,0.1168,-0.0117,-0.0660,0.9909,$GPGGA,134129.100,3850.1216,N,07730.3462,W,2,09,0.91,51.6,M,-33.4,M,0000,0000*60
3790,0,0.06,0.01,0.02,-0.19,0.06,0.06,0.1168,-0.0117,-0.0660,0.9909,$GPGGA,134129.200,3850.1216,N,07730.3462,W,2,09,0.91,51.6,M,-33.4,M,0000,0000*63
3791,0,0.05,0.01,0.03,-0.31,0.13,0.06,0.1168,-0.0117,-0.0660,0.9909,$GPGGA,134129.300,3850.1216,N,07730.3462,W,2,09,0.91,51.6,M,-33.4,M,0000,0000*62
3792,0,0.04,0.02,0.03,0.00,-0.31,0.06,0.1168,-0.0117,-0.0660,0.9909,$GPGGA,134129.400,3850.1216,N,07730.3462,W,2,09,0.91,51.6,M,-33.4,M,0000,0000*65
3793,0,0.05,0.01,0.07,-0.06,0.06,-0.06,0.1168,-0.0117,-0.0660,0.9909,$GPGGA,134129.500,3850.1216,N,07730.3462,W,2,09,0.91,51.6,M,-33.4,M,0000,0000*64
3794,0,0.05,0.02,0.04,-0.19,0.00,0.00,0.1168,-0.0117,-0.0660,0.9909,$GPGGA,134129.600,3850.1216,N,07730.3462,W,2,09,0.91,51.6,M,-33.4,M,0000,0000*67
3795,0,0.06,0.02,0.04,0.00,0.00,-0.13,0.1168,-0.0117,-0.0660,0.9909,$GPGGA,134129.700,3850.1216,N,07730.3462,W,2,09,0.91,51.6,M,-33.4,M,0000,0000*66
3796,0,0.04,0.01,0.07,0.00,-0.06,0.00,0.1168,-0.0117,-0.0660,0.9909,$GPGGA,134129.800,3850.1216,N,07730.3462,W,2,09,0.91,51.6,M,-33.4,M,0000,0000*69
3797,0,0.05,0.00,0.07,0.00,0.00,0.13,0.1168,-0.0117,-0.0660,0.9909,$GPGGA,134129.900,3850.1216,N,07730.3462,W,2,09,0.91,51.6,M,-33.4,M,0000,0000*68
3798,0,0.05,0.01,0.06,0.00,-0.13,-0.06,0.1168,-0.0117,-0.0660,0.9909,$GPGGA,134130.000,3850.1216,N,07730.3462,W,2,09,0.91,51.6,M,-33.4,M,0000,0000*69
3799,0,0.05,0.00,0.08,0.00,-0.06,0.06,0.1168,-0.0117,-0.0660,0.9909,$GPGGA,134130.100,3850.1216,N,07730.3462,W,2,09,0.91,51.6,M,-33.4,M,0000,0000*68
3800,0,0.05,0.02,0.05,0.00,0.06,0.00,0.1168,-0.0117,-0.0660,0.9909,$GPGGA,134130.200,3850.1216,N,07730.3462,W,2,09,0.91,51.6,M,-33.4,M,0000,0000*6B
3801,0,0.05,0.00,0.07,0.00,-0.06,-0.06,0.1168,-0.0117,-0.0660,0.9909,$GPGGA,134130.300,3850.1216,N,07730.3462,W,2,09,0.91,51.6,M,-33.4,M,0000,0000*6A
3802,0,0.06,0.00,0.06,0.00,-0.06,0.00,0.1168,-0.0117,-0.0660,0.9909,$GPGGA,134130.400,3850.1216,N,07730.3462,W,2,09,0.91,51.6,M,-33.4,M,0000,0000*6D
3803,0,0.05,0.02,0.06,0.00,-0.13,0.00,0.1168,-0.0117,-0.0660,0.9909,$GPGGA,134130.500,3850.1216,N,07730.3462,W,2,09,0.91,51.6,M,-33.4,M,0000,0000*6C
3804,0,0.06,0.00,0.06,0.00,-0.06,-0.06,0.1168,-0.0117,-0.0660,0.9909,$GPGGA,134130.600,3850.1216,N,07730.3462,W,2,09,0.91,51.6,M,-33.4,M,0000,0000*6F
3805,0,0.06,0.02,0.06,-0.06,0.19,0.00,0.1168,-0.0117,-0.0660,0.9909,$GPGGA,134130.700,3850.1216,N,07730.3462,W,2,09,0.91,51.6,M,-33.4,M,0000,0000*6E
3806,0,0.06,0.00,0.06,0.06,0.19,-0.06,0.1168,-0.0117,-0.0660,0.9909,$GPGGA,134130.800,3850.1216,N,07730.3462,W,2,09,0.91,51.6,M,-33.4,M,0000,0000*61
3807,0,0.04,0.02,0.08,-0.06,0.00,0.06,0.1168,-0.0117,-0.0660,0.9909,$GPGGA,134130.900,3850.1216,N,07730.3462,W,2,09,0.91,51.6,M,-33.4,M,0000,0000*60
3808,0,0.04,0.02,0.06,0.00,0.00,0.06,0.1168,-0.0117,-0.0660,0.9909,$GPGGA,134131.000,3850.1216,N,07730.3462,W,2,09,0.91,51.6,M,-33.4,M,0000,0000*68
3809,0,0.07,0.01,0.06,0.06,-0.19,-0.13,0.1168,-0.0117,-0.0660,0.9909,$GPGGA,134131.100,3850.1216,N,07730.3462,W,2,09,0.91,51.6,M,-33.4,M,0000,0000*69
3810,0,0.07,0.00,0.08,-0.06,0.13,-0.13,0.1168,-0.0117,-0.0660,0.9909,$GPGGA,134131.200,3850.1216,N,07730.3462,W,2,09,0.91,51.6,M,-33.4,M,0000,0000*6A
3811,0,0.05,0.02,0.09,-0.13,-0.06,-0.06,0.1168,-0.0117,-0.0660,0.9909,$GPGGA,134131.300,3850.1216,N,07730.3462,W,2,09,0.91,51.6,M,-33.4,M,0000,0000*6B
3812,0,0.06,0.00,0.07,0.00,-0.06,-0.06,0.1168,-0.0117,-0.0660,0.9909,$GPGGA,134131.400,3850.1216,N,07730.3462,W,2,09,0.91,51.6,M,-33.4,M,0000,0000*6C
3813,0,0.05,0.01,0.04,0.06,0.13,-0.06,0.1168,-0.0117,-0.0660,0.9909,$GPGGA,134131.500,3850.1216,N,07730.3462,W,2,09,0.91,51.6,M,-33.4,M,0000,0000*6D
3814,0,0.06,0.01,0.06,-0.06,0.13,-0.13,0.1168,-0.0117,-0.0660,0.9909,$GPGGA,134131.600,3850.1216,N,07730.3462,W,2,09,0.91,51.6,M,-33.4,M,0000,0000*6E
3815,0,0.03,0.00,0.05,-0.13,-0.06,0.00,0.1168,-0.0117,-0.0660,0.9909,$GPGGA,134131.700,3850.1216,N,07730.3462,W,2,09,0.91,51.6,M,-33.4,M,0000,0000*6F
3816,0,0.04,0.01,0.06,0.00,0.00,0.00,0.1168,-0.0117,-0.0660,0.9909,$GPGGA,134131.800,3850.1216,N,07730.3462,W,2,09,0.91,51.6,M,-33.4,M,0000,0000*60
3817,0,0.06,0.02,0.07,-0.13,-0.06,0.13,0.1168,-0.0117,-0.0660,0.9909,$GPGGA,134131.900,3850.1216,N,07730.3462,W,2,09,0.91,51.6,M,-33.4,M,0000,0000*61
3818,0,0.06,0.00,0.06,0.13,-0.06,0.00,0.1168,-0.0117,-0.0660,0.9909,$GPGGA,134132.000,3850.1216,N,07730.3462,W,2,09,0.91,51.6,M,-33.4,M,0000,0000*6B
3819,0,0.05,0.03,0.04,0.13,0.13,0.00,0.1168,-0.0117,-0.0660,0.9909,$GPGGA,134132.100,3850.1216,N,07730.3462,W,2,09,0.91,51.6,M,-33.4,M,0000,0000*6A
3820,0,0.05,0.00,0.06,0.00,0.25,0.00,0.1168,-0.0117,-0.0660,0.9909,$GPGGA,134132.200,3850.1216,N,07730.3462,W,2,09,0.91,51.6,M,-33.4,M,0000,0000*69
3821,0,0.04,0.00,0.06,0.13,0.13,0.00,0.1168,-0.0117,-0.0660,0.9909,$GPGGA,134132.300,3850.1216,N,07730.3462,W,2,09,0.91,51.6,M,-33.4,M,0000,0000*68
3822,0,3.15,0.37,-0.75,0.25,-2.12,-0.13,0.1168,-0.0117,-0.0660,0.9909,$GPGGA,134132.400,3850.1216,N,07730.3462,W,2,09,0.91,51.6,M,-33.4,M,0000,0000*6F
3823,0,2.40,0.03,-0.73,0.25,-2.19,-0.44,0.1169,-0.0121,-0.0660,0.9908,$GPGGA,134132.500,3850.1216,N,07730.3462,W,2,09,0.91,51.6,M,-33.4,M,0000,0000*6E
3824,0,-0.39,-0.09,0.01,0.62,3.06,-0.50,0.1169,-0.0119,-0.0659,0.9909,$GPGGA,134132.600,3850.1216,N,07730.3462,W,2,09,0.91,51.6,M,-33.4,M,0000,0000*6D
3825,0,-0.07,0.00,-0.08,-0.56,-1.37,0.56,0.1169,-0.0116,-0.0660,0.9908,$GPGGA,134132.700,3850.1216,N,07730.3462,W,2,09,0.91,51.6,M,-33.4,M,0000,0000*6C
3826,0,0.11,0.07,-0.28,-0.19,-0.37,-0.06,0.1169,-0.0121,-0.0660,0.9908,$GPGGA,134132.800,3850.1216,N,07730.3462,W,2,09,0.91,51.6,M,-33.4,M,0000,0000*63
3827,0,0.08,-0.23,0.64,0.44,0.81,-0.06,0.1169,-0.0117,-0.0660,0.9909,$GPGGA,134132.900,3850.1216,N,07730.3462,W,2,09,0.91,51.6,M,-33.4,M,0000,0000*62
3828,0,0.29,-0.06,0.53,-0.19,0.44,-0.19,0.1169,-0.0121,-0.0660,0.9908,$GPGGA,134133.000,3850.1216,N,07730.3462,W,2,09,0.91,51.6,M,-33.4,M,0000,0000*6A
3829,0,-0.22,0.08,-0.57,-0.50,0.56,-0.13,0.1169,-0.0118,-0.0660,0.9908,$GPGGA,134133.100,3850.1216,N,07730.3462,W,2,09,0.91,51.6,M,-33.4,M,0000,0000*6B
3830,0,0.07,-0.08,-0.12,0.37,-1.56,0.31,0.1169,-0.0118,-0.0660,0.9908,$GPGGA,134133.200,3850.1216,N,07730.3462,W,2,09,0.91,51.6,M,-33.4,M,0000,0000*68
3831,0,0.11,-0.11,0.47,0.31,0.37,-0.19,0.1169,-0.0121,-0.0659,0.9908,$GPGGA,134133.300,3850.1216,N,07730.3462,W,2,09,0.91,51.6,M,-33.4,M,0000,0000*69
3832,0,-0.15,0.14,0.24,-0.50,0.94,-0.06,0.1169,-0.0120,-0.0659,0.9909,$GPGGA,134133.400,3850.1216,N,07730.3462,W,2,09,0.91,51.6,M,-33.4,M,0000,0000*6E
3833,0,0.15,-0.16,0.06,0.50,-0.13,0.13,0.1169,-0.0120,-0.0658,0.9909,$GPGGA,134133.500,3850.1216,N,07730.3462,W,2,09,0.91,51.6,M,-33.4,M,0000,0000*6F
3834,0,-0.03,0.23,0.04,0.37,0.25,-0.25,0.1169,-0.0121,-0.0657,0.9909,$GPGGA,134133.600,3850.1216,N,07730.3462,W,2,09,0.91,51.6,M,-33.4,M,0000,0000*6C
3835,0,-0.17,-0.12,0.02,-0.56,-0.19,0.13,0.1169,-0.0121,-0.0657,0.9909,$GPGGA,134133.700,3850.1216,N,07730.3462,W,2,09,0.91,51.6,M,-33.4,M,0000,0000*6D
3836,0,0.25,-0.16,0.05,0.50,-0.13,-0.13,0.1169,-0.0121,-0.0657,0.9909,$GPGGA,134133.800,3850.1216,N,07730.3462,W,2,09,0.91,51.6,M,-33.4,M,0000,0000*62
3837,0,-0.22,0.04,-0.02,-0.50,0.25,-0.06,0.1169,-0.0121,-0.0656,0.9909,$GPGGA,134133.900,3850.1216,N,07730.3462,W,2,09,0.91,51.6,M,-33.4,M,0000,0000*63
3838,0,0.12,-0.34,0.33,0.56,-0.13,0.00,0.1169,-0.0120,-0.0655,0.9909,$GPGGA,134134.000,3850.1216,N,07730.3462,W,2,09,0.91,51.6,M,-33.4,M,0000,0000*6D
3839,0,0.00,0.12,-0.02,-0.44,0.00,-0.19,0.1169,-0.0121,-0.0656,0.9909,$GPGGA,134134.100,3850.1216,N,07730.3462,W,2,09,0.91,51.6,M,-33.4,M,0000,0000*6C
3840,0,-0.02,-0.22,0.05,0.50,-0.13,0.06,0.1169,-0.0121,-0.0656,0.9909,$GPGGA,134134.200,3850.1216,N,07730.3462,W,2,09,0.91,51.6,M,-33.4,M,0000,0000*6F
3841,0,0.01,0.10,0.05,-0.13,-0.31,-0.13,0.1169,-0.0121,-0.0656,0.9909,$GPGGA,134134.300,3850.1216,N,07730.3462,W,2,09,0.91,51.6,M,-33.4,M,0000,0000*6E
3842,0,0.28,-0.14,0.11,0.25,0.13,0.13,0.1169,-0.0121,-0.0656,0.9909,$GPGGA,134134.400,3850.1216,N,07730.3462,W,2,09,0.91,51.6,M,-33.4,M,0000,0000*69
3843,0,-0.15,0.04,-0.04,0.06,-0.19,-0.19,0.1169,-0.0121,-0.0656,0.9909,$GPGGA,134134.500,3850.1216,N,07730.3462,W,2,09,0.91,51.6,M,-33.4,M,0000,0000*68
3844,0,0.04,-0.33,0.12,0.37,0.06,0.19,0.1169,-0.0121,-0.0659,0.9909,$GPGGA,134134.600,3850.1215,N,07730.3462,W,2,09,0.91,51.6,M,-33.4,M,0000,0000*68
3845,0,-0.03,0.18,0.00,-0.31,-0.13,-0.13,0.1169,-0.0121,-0.0659,0.9908,$GPGGA,134134.700,3850.1215,N,07730.3462,W,2,09,0.91,51.6,M,-33.4,M,0000,0000*69
3846,0,0.15,-0.16,0.07,-0.31,0.06,0.31,0.1169,-0.0120,-0.0658,0.9909,$GPGGA,134134.800,3850.1215,N,07730.3462,W,2,09,0.91,51.6,M,-33.4,M,0000,0000*66
3847,0,0.12,-0.03,0.00,0.37,0.00,-0.19,0.1169,-0.0120,-0.0659,0.9909,$GPGGA,134134.900,3850.1215,N,07730.3462,W,2,09,0.91,51.6,M,-33.4,M,0000,0000*67
3848,0,0.01,-0.03,0.08,-0.56,0.25,0.13,0.1169,-0.0120,-0.0659,0.9908,$GPGGA,134135.000,3850.1215,N,07730.3462,W,2,09,0.91,51.6,M,-33.4,M,0000,0000*6F
3849,0,0.15,-0.07,0.06,0.56,0.13,-0.25,0.1169,-0.0118,-0.0659,0.9908,$GPGGA,134135.100,3850.1215,N,07730.3462,W,2,09,0.91,51.6,M,-33.4,M,0000,0000*6E
3850,0,-0.11,0.10,0.05,-0.62,0.00,0.19,0.1169,-0.0119,-0.0660,0.9908,$GPGGA,134135.200,3850.1215,N,07730.3462,W,2,09,0.91,51.6,M,-33.4,M,0000,0000*6D
3851,0,0.16,-0.09,0.15,0.37,-0.06,-0.19,0.1170,-0.0118,-0.0660,0.9908,$GPGGA,134135.300,3850.1215,N,07730.3462,W,2,09,0.91,51.6,M,-33.4,M,0000,0000*6C
3852,0,-0.20,0.20,0.00,-0.81,-0.25,0.19,0.1169,-0.0118,-0.0662,0.9908,$GPGGA,134135.400,3850.1215,N,07730.3462,W,2,09,0.91,51.6,M,-33.4,M,0000,0000*6B
3853,0,0.12,-0.21,0.00,0.62,0.25,-0.25,0.1170,-0.0117,-0.0660,0.9908,$GPGGA,134135.500,3850.1215,N,07730.3462,W,2,09,0.91,51.6,M,-33.4,M,0000,0000*6A
3854,0,-0.11,0.23,-0.04,-0.62,-0.13,0.06,0.1170,-0.0117,-0.0662,0.9908,$GPGGA,134135.600,3850.1215,N,07730.3462,W,2,09,0.91,51.6,M,-33.4,M,0000,0000*69
3855,0,0.13,-0.19,0.30,0.75,0.13,-0.19,0.1170,-0.0116,-0.0660,0.9908,$GPGGA,134135.700,3850.1215,N,07730.3462,W,2,09,0.91,51.6,M,-33.4,M,0000,0000*68
3856,0,-0.14,0.16,-0.14,-0.25,0.13,-0.25,0.1170,-0.0117,-0.0661,0.9908,$GPGGA,134135.800,3850.1215,N,07730.3462,W,2,09,0.91,51.6,M,-33.4,M,0000,0000*67
3857,0,-0.12,0.09,-0.81,0.31,1.62,-0.06,0.1170,-0.0118,-0.0661,0.9908,$GPGGA,134135.900,3850.1215,N,07730.3462,W,2,09,0.91,51.6,M,-33.4,M,0000,0000*66
3858,0,0.44,-0.01,-0.80,-0.06,2.06,0.06,0.1170,-0.0119,-0.0661,0.9908,$GPGGA,134136.000,3850.1215,N,07730.3462,W,2,09,0.91,51.6,M,-33.4,M,0000,0000*6C
3859,0,-0.70,-0.18,0.67,-0.31,-0.75,-0.19,0.1170,-0.0117,-0.0661,0.9908,$GPGGA,134136.100,3850.1215,N,07730.3462,W,2,09,0.91,51.6,M,-33.4,M,0000,0000*6D
3860,0,-1.00,-0.05,1.50,-0.94,1.87,-0.37,0.1170,-0.0117,-0.0659,0.9908,$GPGGA,134136.200,3850.1215,N,07730.3462,W,2,09,0.91,51.6,M,-33.4,M,0000,0000*6E
3861,0,1.25,0.23,0.68,0.81,1.56,-0.25,0.1170,-0.0117,-0.0659,0.9908,$GPGGA,134136.300,3850.1215,N,07730.3462,W,2,09,0.91,51.6,M,-33.4,M,0000,0000*6F
3862,0,2.33,-0.30,-0.43,0.19,-2.94,-0.06,0.1170,-0.0117,-0.0657,0.9909,$GPGGA,134136.400,3850.1215,N,07730.3462,W,2,09,0.91,51.6,M,-33.4,M,0000,0000*68
3863,0,2.82,-0.41,-0.08,0.75,-4.19,0.00,0.1170,-0.0113,-0.0656,0.9909,$GPGGA,134136.500,3850.1215,N,07730.3462,W,2,09,0.91,51.6,M,-33.4,M,0000,0000*69
3864,0,-3.25,0.12,2.50,-0.50,5.75,0.00,0.1171,-0.0121,-0.0654,0.9909,$GPGGA,134136.600,3850.1215,N,07730.3462,W,2,09,0.91,51.6,M,-33.4,M,0000,0000*6A
3865,0,2.18,-0.44,-1.56,1.56,-10.31,0.19,0.1170,-0.0115,-0.0654,0.9909,$GPGGA,134136.700,3850.1215,N,07730.3462,W,2,09,0.91,51.6,M,-33.4,M,0000,0000*6B
3866,0,5.10,-0.13,-2.61,-2.00,4.75,-0.31,0.1171,-0.0125,-0.0655,0.9909,$GPGGA,134136.800,3850.1215,N,07730.3462,W,2,09,0.91,51.6,M,-33.4,M,0000,0000*64
3867,0,6.08,-0.13,-3.13,-4.06,11.75,0.44,0.1168,-0.0128,-0.0654,0.9909,$GPGGA,134136.900,3850.1215,N,07730.3462,W,2,09,0.91,51.6,M,-33.4,M,0000,0000*65
3868,0,3.92,-1.01,-2.36,-3.56,9.75,1.19,0.1155,-0.0131,-0.0657,0.9910,$GPGGA,134137.000,3850.1215,N,07730.3462,W,2,09,0.91,51.6,M,-33.4,M,0000,0000*6D
3869,0,-6.43,-1.55,1.73,-4.25,9.06,-0.37,0.1146,-0.0151,-0.0677,0.9910,$GPGGA,134137.100,3850.1215,N,07730.3462,W,2,09,0.91,51.6,M,-33.4,M,0000,0000*6C
3870,0,-0.85,-2.07,-1.62,0.69,-9.06,0.25,0.1140,-0.0140,-0.0679,0.9910,$GPGGA,134137.200,3850.1215,N,07730.3462,W,2,09,0.91,51.6,M,-33.4,M,0000,0000*6F
3871,0,6.95,-1.07,-0.68,0.75,6.44,-2.31,0.1175,-0.0172,-0.0689,0.9905,$GPGGA,134137.300,3850.1215,N,07730.3462,W,2,09,0.91,51.6,M,-33.4,M,0000,0000*6E
3872,0,5.46,-0.66,-1.16,3.12,-15.00,-1.50,0.1181,-0.0090,-0.0674,0.9907,$GPGGA,134137.400,3850.1215,N,07730.3462,W,2,09,0.91,51.6,M,-33.4,M,0000,0000*69
3873,0,-0.20,0.13,-5.90,7.69,15.19,2.56,0.1168,-0.0152,-0.0656,0.9908,$GPGGA,134137.500,3850.1215,N,07730.3462,W,2,09,0.91,51.6,M,-33.4,M,0000,0000*68
3874,0,-6.00,-2.02,-5.51,-12.50,13.25,0.44,0.1158,-0.0233,-0.0649,0.9908,$GPGGA,134137.600,3850.1215,N,07730.3462,W,2,09,0.91,51.6,M,-33.4,M,0000,0000*6B
3875,0,4.80,-2.38,-1.19,5.25,-22.87,-0.81,0.1138,-0.0172,-0.0588,0.9916,$GPGGA,134137.700,3850.1215,N,07730.3462,W,2,09,0.91,51.6,M,-33.4,M,0000,0000*6A
3876,0,0.78,-0.48,0.36,-4.75,2.69,-4.19,0.1179,-0.0151,-0.0649,0.9908,$GPGGA,134137.800,3850.1215,N,07730.3462,W,2,09,0.91,51.6,M,-33.4,M,0000,0000*65
3877,0,2.69,-2.45,-4.28,-2.12,-6.75,8.44,0.1126,-0.0135,-0.0633,0.9915,$GPGGA,134137.900,3850.1215,N,07730.3462,W,2,09,0.91,51.6,M,-33.4,M,0000,0000*64
3878,0,-6.08,-2.65,7.07,-25.56,4.56,6.62,0.1058,-0.0228,-0.0667,0.9919,$GPGGA,134138.000,3850.1215,N,07730.3462,W,2,09,0.91,51.6,M,-33.4,M,0000,0000*62
3879,0,-3.51,-3.05,-4.73,26.81,-8.75,5.44,0.1019,-0.0213,-0.0602,0.9927,$GPGGA,134138.100,3850.1215,N,07730.3463,W,2,09,0.91,51.7,M,-33.4,M,0000,0000*63
3880,0,-5.25,-2.81,-2.71,-28.81,20.00,-1.12,0.1021,-0.0388,-0.0674,0.9917,$GPGGA,134138.200,3850.1215,N,07730.3465,W,2,09,0.91,51.7,M,-33.4,M,0000,0000*66
3881,0,-1.14,-0.06,10.65,14.56,-44.69,-1.19,0.1039,-0.0260,-0.0754,0.9914,$GPGGA,134138.300,3850.1215,N,07730.3466,W,2,09,0.91,51.8,M,-33.4,M,0000,0000*6B
3882,0,4.26,-1.40,-2.12,-6.56,35.75,3.19,0.1005,-0.0263,-0.0703,0.9921,$GPGGA,134138.400,3850.1215,N,07730.3468,W,2,09,0.91,52.0,M,-33.4,M,0000,0000*69
3883,0,2.77,-2.64,-1.81,-2.50,-48.69,-0.94,0.0993,-0.0330,-0.0786,0.9914,$GPGGA,134138.500,3850.1214,N,07730.3470,W,2,09,0.91,52.1,M,-33.4,M,0000,0000*61
3884,0,-12.91,-3.15,-7.33,-11.56,1.12,1.81,0.0989,-0.0302,-0.0858,0.9910,$GPGGA,134138.600,3850.1214,N,07730.3472,W,2,09,0.91,52.2,M,-33.4,M,0000,0000*63
3885,0,12.65,-1.16,-3.33,30.62,22.69,2.25,0.0983,-0.0391,-0.0713,0.9918,$GPGGA,134138.700,3850.1214,N,07730.3474,W,2,09,0.98,52.3,M,-33.4,M,0000,0000*6C
3886,0,7.49,-2.02,-4.88,-18.19,14.25,-0.19,0.0981,-0.0351,-0.0754,0.9917,$GPGGA,134138.800,3850.1213,N,07730.3476,W,2,09,0.98,52.4,M,-33.4,M,0000,0000*61
3887,0,2.35,-0.92,6.30,13.00,-20.62,-1.62,0.0986,-0.0453,-0.0804,0.9908,$GPGGA,134138.900,3850.1213,N,07730.3478,W,2,09,0.98,52.5,M,-33.4,M,0000,0000*6F
3888,0,-11.42,-2.17,0.86,14.81,-17.06,-4.12,0.1009,-0.0265,-0.0809,0.9913,$GPGGA,134139.000,3850.1210,N,07730.3481,W,2,09,0.98,52.8,M,-33.4,M,0000,0000*6F
3889,0,-10.83,-2.50,15.48,19.44,9.00,-6.44,0.1038,-0.0255,-0.0692,0.9919,$GPGGA,134139.100,3850.1209,N,07730.3484,W,2,09,0.98,53.0,M,-33.4,M,0000,0000*6A
3890,0,-9.40,-2.70,0.00,-4.69,-44.25,-7.81,0.1088,-0.0122,-0.0699,0.9915,$GPGGA,134139.200,3850.1207,N,07730.3487,W,2,09,0.98,53.2,M,-33.4,M,0000,0000*66
3891,0,-5.42,-1.36,8.50,5.81,13.63,-2.31,0.1118,-0.0100,-0.0664,0.9915,$GPGGA,134139.300,3850.1206,N,07730.3490,W,2,09,0.98,53.5,M,-33.4,M,0000,0000*67
3892,0,-0.33,-1.35,-0.84,-7.81,32.63,1.69,0.1100,-0.0348,-0.0709,0.9908,$GPGGA,134139.400,3850.1204,N,07730.3494,W,2,09,0.98,53.6,M,-33.4,M,0000,0000*65
3893,0,11.02,-1.20,-5.21,-6.75,17.25,-0.13,0.1076,-0.0136,-0.0759,0.9912,$GPGGA,134139.500,3850.1202,N,07730.3497,W,2,09,0.98,53.8,M,-33.4,M,0000,0000*6F
3894,0,4.95,-3.72,-1.15,-9.00,35.38,4.94,0.1069,-0.0322,-0.0829,0.9903,$GPGGA,134139.600,3850.1203,N,07730.3499,W,2,09,0.98,54.6,M,-33.4,M,0000,0000*6A
3895,0,2.41,-4.56,2.37,1.62,15.56,9.44,0.1025,-0.0448,-0.0792,0.9906,$GPGGA,134139.700,3850.1204,N,07730.3500,W,2,09,0.98,55.3,M,-33.4,M,0000,0000*69
3896,0,-5.06,-1.13,-12.89,2.12,8.88,7.06,0.0959,-0.0412,-0.0851,0.9909,$GPGGA,134139.800,3850.1204,N,07730.3502,W,2,09,0.98,55.9,M,-33.4,M,0000,0000*6E
3897,0,19.53,-0.63,-6.42,8.63,-12.94,9.88,0.0872,-0.0421,-0.0761,0.9924,$GPGGA,134139.900,3850.1204,N,07730.3504,W,2,09,0.98,56.4,M,-33.4,M,0000,0000*67
3898,0,-17.37,-4.91,2.41,-0.31,-37.38,11.63,0.0778,-0.0213,-0.0751,0.9939,$GPGGA,134140.000,3850.1204,N,07730.3506,W,2,09,0.98,56.8,M,-33.4,M,0000,0000*6E
3899,0,10.84,-2.91,-7.65,15.88,37.56,10.06,0.0681,-0.0054,-0.0660,0.9955,$GPGGA,134140.100,3850.1202,N,07730.3509,W,2,09,0.98,57.0,M,-33.4,M,0000,0000*6F
3900,0,-6.95,-4.60,5.82,-33.44,15.56,16.19,0.0569,-0.0245,-0.0841,0.9945,$GPGGA,134140.200,3850.1202,N,07730.3511,W,2,09,0.98,57.3,M,-33.4,M,0000,0000*66
3901,0,3.32,-5.79,16.36,-1.44,-78.50,13.25,0.0444,-0.0142,-0.0927,0.9946,$GPGGA,134140.300,3850.1201,N,07730.3514,W,2,09,0.98,57.6,M,-33.4,M,0000,0000*64
3902,0,-8.53,-2.68,13.41,9.56,39.25,12.13,0.0330,-0.0081,-0.0760,0.9965,$GPGGA,134140.400,3850.1201,N,07730.3517,W,2,09,0.98,58.0,M,-33.4,M,0000,0000*69
3903,0,4.66,-2.27,-3.92,-22.75,11.94,17.12,0.0193,-0.0296,-0.0836,0.9958,$GPGGA,134140.500,3850.1200,N,07730.3520,W,2,09,0.98,58.5,M,-33.4,M,0000,0000*68
3904,0,-0.65,-2.96,2.59,5.00,-19.50,15.69,0.0052,-0.0335,-0.0834,0.9960,$GPGGA,134140.600,3850.1199,N,07730.3523,W,2,09,0.98,58.7,M,-33.4,M,0000,0000*69
3905,0,-6.60,-2.82,-5.07,-7.75,-55.63,19.12,-0.0109,-0.0133,-0.0904,0.9957,$GPGGA,134140.700,3850.1198,N,07730.3526,W,2,09,0.98,59.0,M,-33.4,M,0000,0000*6A
3906,0,-11.58,-4.70,1.65,3.69,4.62,18.00,-0.0267,-0.0079,-0.0859,0.9959,$GPGGA,134140.800,3850.1197,N,07730.3529,W,2,09,0.98,59.1,M,-33.4,M,0000,0000*64
3907,0,0.07,-3.88,-7.78,10.50,-21.31,18.69,-0.0428,-0.0099,-0.0823,0.9956,$GPGGA,134140.900,3850.1195,N,07730.3533,W,2,09,0.98,59.3,M,-33.4,M,0000,0000*6E
3908,0,-1.00,-2.65,-3.42,-2.62,-22.31,23.00,-0.0607,-0.0046,-0.0789,0.9951,$GPGGA,134141.000,3850.1195,N,07730.3535,W,2,09,0.98,59.7,M,-33.4,M,0000,0000*64
3909,0,6.08,-0.31,1.65,-5.81,4.31,24.19,-0.0821,-0.0050,-0.0891,0.9926,$GPGGA,134141.100,3850.1194,N,07730.3538,W,2,09,0.98,60.0,M,-33.4,M,0000,0000*64
3910,0,-9.89,-2.17,1.08,6.12,-3.00,20.12,-0.1025,-0.0020,-0.0849,0.9911,$GPGGA,134141.200,3850.1193,N,07730.3541,W,2,09,0.98,60.2,M,-33.4,M,0000,0000*6C
3911,0,-5.99,-3.67,-1.65,-1.25,80.44,27.75,-0.1232,0.0031,-0.0792,0.9892,$GPGGA,134141.300,3850.1191,N,07730.3545,W,2,09,0.91,60.3,M,-33.4,M,0000,0000*63
3912,0,2.43,-4.67,-1.18,-1.56,33.63,21.75,-0.1428,-0.0081,-0.0858,0.9860,$GPGGA,134141.400,3850.1188,N,07730.3549,W,2,09,0.98,60.4,M,-33.4,M,0000,0000*6E
3913,0,-2.42,-4.78,4.05,17.81,11.25,16.37,-0.1558,-0.0291,-0.0791,0.9842,$GPGGA,134141.500,3850.1186,N,07730.3553,W,2,09,0.98,60.6,M,-33.4,M,0000,0000*68
3914,0,-21.40,-1.23,11.92,-2.81,-25.75,15.38,-0.1670,-0.0258,-0.0708,0.9831,$GPGGA,134141.600,3850.1183,N,07730.3558,W,2,09,0.98,60.7,M,-33.4,M,0000,0000*64
3915,0,-10.13,-5.95,4.62,-2.31,-11.75,9.38,-0.1780,-0.0084,-0.0699,0.9815,$GPGGA,134141.700,3850.1180,N,07730.3562,W,2,09,0.98,60.8,M,-33.4,M,0000,0000*60
3916,0,8.71,-5.10,-3.62,11.69,5.31,3.19,-0.1827,-0.0082,-0.0649,0.9810,$GPGGA,134141.800,3850.1176,N,07730.3567,W,2,09,0.98,60.8,M,-33.4,M,0000,0000*63
3917,0,18.94,-5.85,2.97,1.62,-2.19,-3.12,-0.1834,-0.0050,-0.0561,0.9814,$GPGGA,134141.900,3850.1172,N,07730.3573,W,2,09,0.98,60.8,M,-33.4,M,0000,0000*63
3918,0,11.06,-0.26,-5.78,-21.31,-67.87,-2.31,-0.1821,0.0160,-0.0642,0.9810,$GPGGA,134142.000,3850.1168,N,07730.3578,W,2,09,0.98,60.7,M,-33.4,M,0000,0000*66
3919,0,5.61,-5.36,1.06,-7.44,-6.81,-9.44,-0.1780,0.0266,-0.0767,0.9807,$GPGGA,134142.100,3850.1164,N,07730.3583,W,2,09,0.98,60.8,M,-33.4,M,0000,0000*60
3920,0,-2.73,-6.01,-5.41,11.44,-26.44,-13.44,-0.1692,0.0463,-0.0694,0.9821,$GPGGA,134142.200,3850.1160,N,07730.3588,W,2,09,0.98,60.8,M,-33.4,M,0000,0000*6C
3921,0,3.44,-1.62,-1.36,12.19,-35.50,-16.31,-0.1584,0.0677,-0.0553,0.9835,$GPGGA,134142.300,3850.1155,N,07730.3593,W,2,09,0.91,60.8,M,-33.4,M,0000,0000*68
3922,0,1.28,-5.34,-1.81,9.00,-26.50,-17.12,-0.1459,0.0901,-0.0425,0.9843,$GPGGA,134142.400,3850.1150,N,07730.3598,W,2,09,0.98,60.8,M,-33.4,M,0000,0000*68
3923,0,-5.00,-5.68,-2.33,2.69,-14.38,-16.69,-0.1327,0.1074,-0.0341,0.9847,$GPGGA,134142.500,3850.1146,N,07730.3604,W,2,09,0.98,60.8,M,-33.4,M,0000,0000*68
3924,0,2.35,-3.07,0.20,-5.31,-4.69,-15.44,-0.1194,0.1186,-0.0328,0.9852,$GPGGA,134142.600,3850.1141,N,07730.3611,W,2,09,0.98,60.7,M,-33.4,M,0000,0000*67
3925,0,-5.96,-4.03,0.90,-17.81,5.62,-14.56,-0.1055,0.1219,-0.0414,0.9860,$GPGGA,134142.700,3850.1136,N,07730.3617,W,2,09,0.98,60.7,M,-33.4,M,0000,0000*60
3926,0,1.51,-5.51,3.45,-23.12,6.87,-15.25,-0.0907,0.1193,-0.0581,0.9870,$GPGGA,134142.800,3850.1131,N,07730.3624,W,2,09,0.98,60.6,M,-33.4,M,0000,0000*69
3927,0,-3.10,-2.43,2.42,-18.31,7.37,-13.69,-0.0760,0.1154,-0.0753,0.9875,$GPGGA,134142.900,3850.1126,N,07730.3631,W,2,09,0.98,60.6,M,-33.4,M,0000,0000*6A
3928,0,0.42,-1.75,4.72,-6.12,12.31,-10.19,-0.0647,0.1110,-0.0836,0.9882,$GPGGA,134143.000,3850.1121,N,07730.3638,W,2,09,0.98,60.5,M,-33.4,M,0000,0000*6F
3929,0,-4.09,-5.62,1.89,-1.81,13.06,-6.37,-0.0565,0.0999,-0.0864,0.9896,$GPGGA,134143.100,3850.1115,N,07730.3645,W,2,09,0.98,60.5,M,-33.4,M,0000,0000*63
3930,0,1.21,-2.43,2.59,-1.94,4.75,-3.62,-0.0518,0.0953,-0.0870,0.9903,$GPGGA,134143.200,3850.1109,N,07730.3653,W,2,09,0.98,60.5,M,-33.4,M,0000,0000*6A
3931,0,-2.95,-0.29,0.67,-3.37,4.50,-1.62,-0.0497,0.0934,-0.0887,0.9904,$GPGGA,134143.300,3850.1103,N,07730.3660,W,2,09,0.91,60.5,M,-33.4,M,0000,0000*68
3932,0,-6.24,-1.47,0.85,-6.31,4.62,-2.00,-0.0475,0.0916,-0.0933,0.9903,$GPGGA,134143.400,3850.1098,N,07730.3667,W,2,09,0.91,60.4,M,-33.4,M,0000,0000*6A
3933,0,-3.08,-3.55,0.97,-7.56,5.44,-2.50,-0.0449,0.0889,-0.0995,0.9901,$GPGGA,134143.500,3850.1091,N,07730.3675,W,2,09,0.98,60.4,M,-33.4,M,0000,0000*68
3934,0,-0.71,-3.93,0.77,-7.44,13.63,-2.44,-0.0418,0.0819,-0.1053,0.9902,$GPGGA,134143.600,3850.1085,N,07730.3682,W,2,09,0.98,60.4,M,-33.4,M,0000,0000*66
3935,0,0.31,-2.87,2.98,-7.25,11.44,-4.69,-0.0370,0.0715,-0.1122,0.9904,$GPGGA,134143.700,3850.1078,N,07730.3690,W,2,09,0.98,60.4,M,-33.4,M,0000,0000*66
3936,0,0.31,-0.09,3.77,-5.50,9.69,-6.06,-0.0306,0.0621,-0.1182,0.9905,$GPGGA,134143.800,3850.1072,N,07730.3698,W,2,09,0.98,60.4,M,-33.4,M,0000,0000*6B
3937,0,-2.57,0.81,0.73,-3.94,4.94,-6.69,-0.0239,0.0557,-0.1228,0.9906,$GPGGA,134143.900,3850.1065,N,07730.3707,W,2,09,0.98,60.4,M,-33.4,M,0000,0000*6B
3938,0,-3.55,-0.27,-1.16,-3.19,4.94,-8.06,-0.0170,0.0526,-0.1262,0.9905,$GPGGA,134144.000,3850.1059,N,07730.3716,W,2,09,0.98,60.4,M,-33.4,M,0000,0000*6A
3939,0,-1.37,0.07,-0.27,-6.50,0.50,-8.25,-0.0093,0.0497,-0.1304,0.9902,$GPGGA,134144.100,3850.1052,N,07730.3724,W,2,09,0.98,60.5,M,-33.4,M,0000,0000*60
3940,0,-3.01,0.68,-0.18,-6.19,0.62,-7.69,-0.0021,0.0502,-0.1350,0.9896,$GPGGA,134144.200,3850.1046,N,07730.3733,W,2,09,0.98,60.5,M,-33.4,M,0000,0000*60
3941,0,-2.41,-2.40,1.49,-5.19,0.50,-5.94,0.0037,0.0513,-0.1395,0.9889,$GPGGA,134144.300,3850.1039,N,07730.3742,W,2,09,0.91,60.6,M,-33.4,M,0000,0000*65
3942,0,0.27,2.37,-0.53,-2.31,2.62,-2.50,0.0074,0.0514,-0.1426,0.9884,$GPGGA,134144.400,3850.1033,N,07730.3751,W,2,09,0.98,60.7,M,-33.4,M,0000,0000*62
3943,0,-3.99,-0.04,1.62,-2.69,4.44,-1.31,0.0094,0.0480,-0.1453,0.9882,$GPGGA,134144.500,3850.1027,N,07730.3760,W,2,09,0.98,60.8,M,-33.4,M,0000,0000*6B
3944,0,-1.12,2.72,-1.22,-3.25,5.37,-0.19,0.0102,0.0446,-0.1465,0.9882,$GPGGA,134144.600,3850.1022,N,07730.3770,W,2,09,0.98,61.0,M,-33.4,M,0000,0000*65
3945,0,-4.84,1.32,-1.39,1.19,5.31,1.31,0.0104,0.0407,-0.1460,0.9884,$GPGGA,134144.700,3850.1016,N,07730.3779,W,2,09,0.98,61.1,M,-33.4,M,0000,0000*6B
3946,0,-8.04,-1.61,1.82,4.31,4.94,1.19,0.0106,0.0351,-0.1442,0.9889,$GPGGA,134144.800,3850.1010,N,07730.3789,W,2,09,0.98,61.3,M,-33.4,M,0000,0000*6F
3947,0,2.64,-0.19,1.25,4.87,9.19,0.31,0.0110,0.0280,-0.1411,0.9896,$GPGGA,134144.900,3850.1004,N,07730.3798,W,2,09,0.98,61.5,M,-33.4,M,0000,0000*6D
3948,0,4.49,3.65,-3.63,4.37,8.44,-0.56,0.0117,0.0217,-0.1359,0.9904,$GPGGA,134145.000,3850.0998,N,07730.3808,W,2,09,0.98,61.7,M,-33.4,M,0000,0000*6C
3949,0,-8.45,-0.76,-0.08,8.69,2.37,-1.00,0.0129,0.0182,-0.1312,0.9911,$GPGGA,134145.100,3850.0992,N,07730.3818,W,2,09,0.98,61.9,M,-33.4,M,0000,0000*68
3950,0,-0.59,-1.71,0.91,2.94,3.06,-2.69,0.0148,0.0167,-0.1265,0.9917,$GPGGA,134145.200,3850.0987,N,07730.3828,W,2,09,0.98,62.1,M,-33.4,M,0000,0000*67
3951,0,6.26,1.91,-2.33,6.12,1.81,-1.06,0.0163,0.0157,-0.1212,0.9924,$GPGGA,134145.300,3850.0981,N,07730.3839,W,2,09,0.91,62.1,M,-33.4,M,0000,0000*69
3952,0,1.30,3.27,-3.61,4.00,3.37,-2.44,0.0178,0.0140,-0.1166,0.9929,$GPGGA,134145.400,3850.0975,N,07730.3849,W,2,09,0.98,62.3,M,-33.4,M,0000,0000*69
3953,0,-5.55,-0.36,-1.15,1.81,2.81,-2.56,0.0197,0.0132,-0.1130,0.9933,$GPGGA,134145.500,3850.0970,N,07730.3859,W,2,09,0.98,62.4,M,-33.4,M,0000,0000*6B
3954,0,0.43,2.60,-3.69,5.81,3.00,-1.75,0.0218,0.0106,-0.1095,0.9937,$GPGGA,134145.600,3850.0964,N,07730.3869,W,2,09,0.98,62.5,M,-33.4,M,0000,0000*6F
3955,0,-6.37,-1.28,-0.33,1.31,4.31,-2.00,0.0237,0.0081,-0.1074,0.9939,$GPGGA,134145.700,3850.0959,N,07730.3879,W,2,09,0.98,62.7,M,-33.4,M,0000,0000*63
3956,0,-2.31,1.12,-2.42,-0.75,2.25,-0.75,0.0249,0.0068,-0.1061,0.9940,$GPGGA,134145.800,3850.0954,N,07730.3889,W,2,09,0.98,62.9,M,-33.4,M,0000,0000*60
3957,0,-5.24,-2.98,3.13,4.25,4.44,1.19,0.0248,0.0040,-0.1043,0.9942,$GPGGA,134145.900,3850.0949,N,07730.3899,W,2,09,0.98,63.0,M,-33.4,M,0000,0000*64
3958,0,6.92,2.12,-2.27,-3.44,12.88,0.06,0.0251,-0.0026,-0.1038,0.9943,$GPGGA,134146.000,3850.0944,N,07730.3910,W,2,09,0.98,63.1,M,-33.4,M,0000,0000*62
3959,0,-6.48,-0.35,0.55,1.94,0.44,2.50,0.0245,-0.0056,-0.1027,0.9944,$GPGGA,134146.100,3850.0939,N,07730.3920,W,2,09,0.98,63.3,M,-33.4,M,0000,0000*68
3960,0,3.40,-1.08,2.10,1.12,4.44,2.37,0.0225,-0.0092,-0.1014,0.9946,$GPGGA,134146.200,3850.0934,N,07730.3930,W,2,09,0.98,63.4,M,-33.4,M,0000,0000*60
3961,0,0.79,1.87,-4.47,4.62,3.87,6.12,0.0192,-0.0142,-0.0991,0.9948,$GPGGA,134146.300,3850.0929,N,07730.3941,W,2,09,0.91,63.3,M,-33.4,M,0000,0000*65
3962,0,-4.10,-2.67,1.38,-0.62,5.62,4.56,0.0151,-0.0187,-0.0972,0.9950,$GPGGA,134146.400,3850.0924,N,07730.3952,W,2,09,0.91,63.2,M,-33.4,M,0000,0000*6C
3963,0,5.99,1.17,-1.62,3.37,-0.25,6.06,0.0109,-0.0201,-0.0974,0.9950,$GPGGA,134146.500,3850.0919,N,07730.3962,W,2,09,0.91,63.3,M,-33.4,M,0000,0000*61
3964,0,2.79,2.41,-2.91,-1.87,6.12,5.50,0.0062,-0.0232,-0.0979,0.9949,$GPGGA,134146.600,3850.0914,N,07730.3972,W,2,09,0.98,63.4,M,-33.4,M,0000,0000*60
3965,0,-6.38,-2.19,1.27,-1.69,8.13,5.87,0.0018,-0.0298,-0.0984,0.9947,$GPGGA,134146.700,3850.0909,N,07730.3982,W,2,09,0.98,63.5,M,-33.4,M,0000,0000*63
3966,0,5.32,-0.81,0.96,3.31,13.19,5.37,-0.0020,-0.0418,-0.0980,0.9943,$GPGGA,134146.800,3850.0904,N,07730.3993,W,2,09,0.98,63.5,M,-33.4,M,0000,0000*61
3967,0,5.43,-1.20,1.61,-1.56,16.37,5.50,-0.0047,-0.0571,-0.0977,0.9936,$GPGGA,134146.900,3850.0898,N,07730.4003,W,2,09,0.98,63.6,M,-33.4,M,0000,0000*60
3968,0,-0.40,1.43,-1.87,4.44,8.75,5.44,-0.0085,-0.0687,-0.0963,0.9929,$GPGGA,134147.000,3850.0893,N,07730.4013,W,2,09,0.98,63.7,M,-33.4,M,0000,0000*63
3969,0,1.79,-2.14,2.19,2.37,8.88,6.37,-0.0123,-0.0775,-0.0943,0.9924,$GPGGA,134147.100,3850.0888,N,07730.4023,W,2,09,0.98,63.8,M,-33.4,M,0000,0000*64
3970,0,2.01,1.82,-3.05,1.75,9.88,4.81,-0.0165,-0.0850,-0.0913,0.9921,$GPGGA,134147.200,3850.0882,N,07730.4033,W,2,09,0.98,63.9,M,-33.4,M,0000,0000*6D
3971,0,-2.30,0.89,-2.38,6.56,-0.25,6.69,-0.0206,-0.0884,-0.0883,0.9919,$GPGGA,134147.300,3850.0877,N,07730.4044,W,2,09,0.91,64.0,M,-33.4,M,0000,0000*61
3972,0,6.64,-0.04,-0.10,0.50,7.37,5.37,-0.0254,-0.0912,-0.0865,0.9918,$GPGGA,134147.400,3850.0872,N,07730.4054,W,2,09,0.91,64.1,M,-33.4,M,0000,0000*63
3973,0,-3.66,-0.18,-1.42,2.69,1.81,8.69,-0.0304,-0.0951,-0.0854,0.9913,$GPGGA,134147.500,3850.0867,N,07730.4064,W,2,09,0.91,64.0,M,-33.4,M,0000,0000*64
3974,0,7.77,-0.31,0.62,-3.62,-3.87,9.56,-0.0388,-0.0949,-0.0854,0.9910,$GPGGA,134147.600,3850.0861,N,07730.4074,W,2,09,0.98,64.1,M,-33.4,M,0000,0000*68
3975,0,-3.58,-0.17,-0.66,-1.87,-5.62,10.19,-0.0477,-0.0895,-0.0839,0.9913,$GPGGA,134147.700,3850.0856,N,07730.4084,W,2,09,0.98,64.2,M,-33.4,M,0000,0000*61
3976,0,8.41,-0.14,1.19,3.94,-13.25,9.19,-0.0564,-0.0804,-0.0822,0.9918,$GPGGA,134147.800,3850.0851,N,07730.4094,W,2,09,0.98,64.2,M,-33.4,M,0000,0000*68
3977,0,-5.13,-0.57,0.58,-2.12,-11.06,9.50,-0.0648,-0.0706,-0.0803,0.9922,$GPGGA,134147.900,3850.0845,N,07730.4104,W,2,09,0.98,64.3,M,-33.4,M,0000,0000*65
3978,0,8.91,0.33,0.15,3.62,-12.38,9.88,-0.0742,-0.0613,-0.0773,0.9924,$GPGGA,134148.000,3850.0840,N,07730.4114,W,2,09,0.98,64.4,M,-33.4,M,0000,0000*60
3979,0,-5.19,-1.03,0.17,3.62,-12.00,9.94,-0.0831,-0.0519,-0.0743,0.9924,$GPGGA,134148.100,3850.0835,N,07730.4123,W,2,09,0.98,64.5,M,-33.4,M,0000,0000*66
3980,0,-4.42,-1.86,0.22,1.31,-1.62,5.44,-0.0898,-0.0464,-0.0710,0.9923,$GPGGA,134148.200,3850.0829,N,07730.4133,W,2,09,0.98,64.5,M,-33.4,M,0000,0000*69
3981,0,4.58,-1.24,1.15,4.62,-10.38,2.25,-0.0931,-0.0414,-0.0677,0.9925,$GPGGA,134148.300,3850.0824,N,07730.4143,W,2,09,0.91,64.6,M,-33.4,M,0000,0000*68
3982,0,6.59,2.35,-2.07,4.06,-16.19,0.56,-0.0947,-0.0319,-0.0643,0.9929,$GPGGA,134148.400,3850.0818,N,07730.4152,W,2,09,0.91,64.6,M,-33.4,M,0000,0000*60
3983,0,-1.47,-0.02,-1.16,-0.62,-12.25,-0.56,-0.0955,-0.0191,-0.0609,0.9934,$GPGGA,134148.500,3850.0813,N,07730.4162,W,2,09,0.98,64.7,M,-33.4,M,0000,0000*61
3984,0,-3.11,-1.34,-0.45,2.19,-21.69,-0.06,-0.0962,-0.0040,-0.0570,0.9937,$GPGGA,134148.600,3850.0807,N,07730.4171,W,2,09,0.98,64.7,M,-33.4,M,0000,0000*65
3985,0,-3.53,-1.92,0.63,1.69,-27.06,2.37,-0.0982,0.0172,-0.0538,0.9935,$GPGGA,134148.700,3850.0801,N,07730.4181,W,2,09,0.98,64.8,M,-33.4,M,0000,0000*62
3986,0,-3.60,-2.35,1.78,-2.44,-8.81,3.50,-0.1017,0.0344,-0.0534,0.9928,$GPGGA,134148.800,3850.0795,N,07730.4190,W,2,09,0.98,64.8,M,-33.4,M,0000,0000*6F
3987,0,4.35,1.90,-0.77,-2.44,5.25,4.25,-0.1047,0.0330,-0.0561,0.9924,$GPGGA,134148.900,3850.0789,N,07730.4199,W,2,09,0.98,64.9,M,-33.4,M,0000,0000*6B
3988,0,3.44,1.60,-2.08,-2.94,3.62,3.12,-0.1074,0.0332,-0.0566,0.9921,$GPGGA,134149.000,3850.0782,N,07730.4208,W,2,09,0.98,64.9,M,-33.4,M,0000,0000*63
3989,0,1.85,-0.71,-0.67,-0.88,2.75,3.12,-0.1100,0.0295,-0.0591,0.9918,$GPGGA,134149.100,3850.0776,N,07730.4218,W,2,09,0.98,65.0,M,-33.4,M,0000,0000*60
3990,0,-1.06,-3.31,1.17,-1.00,-0.37,-1.62,-0.1097,0.0286,-0.0613,0.9916,$GPGGA,134149.200,3850.0770,N,07730.4227,W,2,09,0.98,65.0,M,-33.4,M,0000,0000*69
3991,0,-3.10,-3.18,1.53,0.13,2.19,-5.94,-0.1053,0.0268,-0.0630,0.9921,$GPGGA,134149.300,3850.0763,N,07730.4236,W,2,09,0.91,65.1,M,-33.4,M,0000,0000*62
3992,0,-1.11,-0.31,-0.66,-0.06,2.62,-7.56,-0.0995,0.0248,-0.0645,0.9926,$GPGGA,134149.400,3850.0757,N,07730.4246,W,2,09,0.91,65.1,M,-33.4,M,0000,0000*65
3993,0,-0.35,-2.25,-0.60,-2.19,-1.31,-7.44,-0.0925,0.0221,-0.0667,0.9932,$GPGGA,134149.500,3850.0750,N,07730.4255,W,2,09,0.98,65.2,M,-33.4,M,0000,0000*6B
3994,0,-4.18,-3.62,1.68,-4.06,-9.69,-5.50,-0.0869,0.0281,-0.0690,0.9934,$GPGGA,134149.600,3850.0744,N,07730.4265,W,2,09,0.98,65.2,M,-33.4,M,0000,0000*6E
3995,0,-3.19,-2.34,1.93,-6.37,-6.06,-1.75,-0.0845,0.0350,-0.0721,0.9932,$GPGGA,134149.700,3850.0737,N,07730.4275,W,2,09,0.98,65.2,M,-33.4,M,0000,0000*6A
3996,0,-1.09,0.45,-0.34,-8.06,-7.56,-1.94,-0.0837,0.0436,-0.0759,0.9926,$GPGGA,134149.800,3850.0731,N,07730.4284,W,2,09,0.98,65.2,M,-33.4,M,0000,0000*6D
3997,0,2.27,2.68,-0.63,-10.81,-13.50,-1.44,-0.0827,0.0519,-0.0815,0.9919,$GPGGA,134149.900,3850.0724,N,07730.4294,W,2,09,0.98,65.3,M,-33.4,M,0000,0000*68
3998,0,1.57,0.66,1.07,-9.38,-24.44,-0.62,-0.0836,0.0717,-0.0870,0.9901,$GPGGA,134150.000,3850.0718,N,07730.4303,W,2,09,0.98,65.3,M,-33.4,M,0000,0000*69
3999,0,-1.93,-2.14,2.74,-9.75,-12.00,-1.81,-0.0842,0.0876,-0.0921,0.9883,$GPGGA,134150.100,3850.0712,N,07730.4313,W,2,09,0.98,65.4,M,-33.4,M,0000,0000*64
4000,0,-4.59,-3.00,5.32,-9.81,-9.31,-4.12,-0.0823,0.0974,-0.0975,0.9871,$GPGGA,134150.200,3850.0705,N,07730.4322,W,2,09,0.98,65.5,M,-33.4,M,0000,0000*62
4001,0,2.87,2.28,0.69,-7.31,-12.06,-4.62,-0.0797,0.1084,-0.1015,0.9857,$GPGGA,134150.300,3850.0699,N,07730.4332,W,2,09,0.91,65.5,M,-33.4,M,0000,0000*6F
4002,0,-0.86,-1.03,2.62,-7.62,-17.69,-5.62,-0.0765,0.1237,-0.1048,0.9838,$GPGGA,134150.400,3850.0692,N,07730.4342,W,2,09,0.91,65.6,M,-33.4,M,0000,0000*67
4003,0,-5.52,-2.24,4.34,-5.37,-23.31,-5.44,-0.0727,0.1414,-0.1090,0.9813,$GPGGA,134150.500,3850.0686,N,07730.4352,W,2,09,0.98,65.7,M,-33.4,M,0000,0000*6A
4004,0,-3.75,0.56,2.61,-5.37,-27.69,-6.12,-0.0688,0.1620,-0.1129,0.9779,$GPGGA,134150.600,3850.0680,N,07730.4362,W,2,09,0.98,65.7,M,-33.4,M,0000,0000*6C
4005,0,-0.09,3.29,0.51,-6.44,-26.81,-7.56,-0.0643,0.1841,-0.1162,0.9739,$GPGGA,134150.700,3850.0673,N,07730.4372,W,2,09,0.98,65.8,M,-33.4,M,0000,0000*6F
4006,0,-6.62,-2.13,3.59,-7.25,-24.37,-9.31,-0.0590,0.2036,-0.1190,0.9700,$GPGGA,134150.800,3850.0667,N,07730.4382,W,2,09,0.98,65.8,M,-33.4,M,0000,0000*6A
4007,0,-5.34,-0.38,2.32,-8.81,-18.62,-10.25,-0.0521,0.2223,-0.1217,0.9659,$GPGGA,134150.900,3850.0661,N,07730.4392,W,2,09,0.98,65.9,M,-33.4,M,0000,0000*6D
4008,0,-1.85,2.88,0.88,-8.63,-13.25,-12.06,-0.0438,0.2382,-0.1243,0.9622,$GPGGA,134151.000,3850.0654,N,07730.4402,W,2,09,0.98,65.9,M,-33.4,M,0000,0000*6D
4009,0,0.01,2.96,0.78,-6.81,-7.62,-13.56,-0.0342,0.2507,-0.1257,0.9593,$GPGGA,134151.100,3850.0648,N,07730.4413,W,2,09,0.98,66.0,M,-33.4,M,0000,0000*6B
4010,0,-1.19,0.90,1.45,-6.19,3.44,-15.00,-0.0220,0.2542,-0.1263,0.9586,$GPGGA,134151.200,3850.0642,N,07730.4423,W,2,09,0.98,66.0,M,-33.4,M,0000,0000*61
4011,0,-5.86,-1.99,2.83,-6.62,7.94,-16.37,-0.0081,0.2521,-0.1265,0.9594,$GPGGA,134151.300,3850.0636,N,07730.4434,W,2,09,0.91,65.8,M,-33.4,M,0000,0000*67
4012,0,-8.02,-2.02,3.09,-6.69,7.12,-17.31,0.0067,0.2501,-0.1265,0.9599,$GPGGA,134151.400,3850.0630,N,07730.4444,W,2,09,0.91,65.6,M,-33.4,M,0000,0000*6F
4013,0,-6.76,-0.13,2.45,-7.81,6.62,-17.00,0.0216,0.2499,-0.1270,0.9597,$GPGGA,134151.500,3850.0624,N,07730.4455,W,2,09,0.98,65.7,M,-33.4,M,0000,0000*63
4014,0,-2.96,2.76,0.22,-7.37,11.75,-16.75,0.0369,0.2479,-0.1279,0.9596,$GPGGA,134151.600,3850.0619,N,07730.4465,W,2,09,0.98,65.8,M,-33.4,M,0000,0000*62
4015,0,-6.25,-2.65,3.70,-8.19,9.56,-15.81,0.0522,0.2427,-0.1296,0.9600,$GPGGA,134151.700,3850.0614,N,07730.4475,W,2,09,0.98,65.9,M,-33.4,M,0000,0000*6E
4016,0,-7.49,-2.36,3.81,-7.25,9.88,-14.50,0.0669,0.2370,-0.1320,0.9601,$GPGGA,134151.800,3850.0609,N,07730.4486,W,2,09,0.98,66.0,M,-33.4,M,0000,0000*6B
4017,0,-6.91,-0.44,2.30,-6.62,9.94,-14.13,0.0814,0.2283,-0.1349,0.9608,$GPGGA,134151.900,3850.0604,N,07730.4496,W,2,09,0.98,66.2,M,-33.4,M,0000,0000*64
4018,0,-3.03,2.09,-0.12,-5.75,10.88,-13.75,0.0956,0.2209,-0.1375,0.9608,$GPGGA,134152.000,3850.0600,N,07730.4507,W,2,09,0.98,66.3,M,-33.4,M,0000,0000*62
4019,0,0.47,2.66,0.23,-6.25,4.25,-13.25,0.1094,0.2134,-0.1406,0.9606,$GPGGA,134152.100,3850.0595,N,07730.4518,W,2,09,0.98,66.4,M,-33.4,M,0000,0000*65
4020,0,-7.43,-3.15,3.84,-5.25,8.88,-12.13,0.1212,0.2075,-0.1432,0.9601,$GPGGA,134152.200,3850.0591,N,07730.4529,W,2,09,0.98,66.6,M,-33.4,M,0000,0000*62
4021,0,-8.22,-2.44,3.93,-6.19,8.75,-11.56,0.1334,0.1996,-0.1459,0.9597,$GPGGA,134152.300,3850.0586,N,07730.4540,W,2,09,0.91,66.4,M,-33.4,M,0000,0000*61
4022,0,-5.63,-0.15,0.58,-4.31,7.19,-10.31,0.1447,0.1929,-0.1483,0.9591,$GPGGA,134152.400,3850.0583,N,07730.4552,W,2,09,0.98,66.5,M,-33.4,M,0000,0000*68
4023,0,-2.13,2.43,-0.44,-4.31,-3.44,-9.44,0.1548,0.1895,-0.1516,0.9577,$GPGGA,134152.500,3850.0579,N,07730.4563,W,2,09,0.98,66.6,M,-33.4,M,0000,0000*6D
4024,0,0.48,3.17,-0.70,-4.06,-12.13,-8.69,0.1628,0.1951,-0.1564,0.9545,$GPGGA,134152.600,3850.0575,N,07730.4574,W,2,09,0.98,66.8,M,-33.4,M,0000,0000*6A
4025,0,1.34,2.25,0.20,-4.12,-14.13,-7.50,0.1694,0.2039,-0.1618,0.9506,$GPGGA,134152.700,3850.0572,N,07730.4586,W,2,09,0.98,66.9,M,-33.4,M,0000,0000*60
4026,0,-0.23,0.98,0.85,-2.69,-12.13,-7.31,0.1750,0.2139,-0.1669,0.9465,$GPGGA,134152.800,3850.0569,N,07730.4597,W,2,09,0.98,67.1,M,-33.4,M,0000,0000*6C
4027,0,-3.05,-0.81,1.83,-1.69,-12.00,-8.31,0.1808,0.2219,-0.1704,0.9429,$GPGGA,134152.900,3850.0567,N,07730.4608,W,2,09,0.98,67.2,M,-33.4,M,0000,0000*65
4028,0,-5.39,0.14,1.04,-1.94,-10.06,-9.63,0.1877,0.2304,-0.1730,0.9390,$GPGGA,134153.000,3850.0564,N,07730.4620,W,2,09,0.98,67.2,M,-33.4,M,0000,0000*64
4029,0,-1.52,2.04,-0.11,-2.25,-12.13,-12.06,0.1959,0.2394,-0.1750,0.9347,$GPGGA,134153.100,3850.0562,N,07730.4631,W,2,09,0.98,67.2,M,-33.4,M,0000,0000*63
4030,0,0.32,2.34,-0.12,-2.44,-10.69,-14.31,0.2061,0.2480,-0.1766,0.9299,$GPGGA,134153.200,3850.0559,N,07730.4643,W,2,09,0.98,67.3,M,-33.4,M,0000,0000*6C
4031,0,-0.85,2.17,0.08,-3.12,-8.19,-16.50,0.2171,0.2542,-0.1777,0.9256,$GPGGA,134153.300,3850.0556,N,07730.4654,W,2,09,0.91,67.0,M,-33.4,M,0000,0000*6E
4032,0,-1.64,0.98,0.72,-3.87,-5.06,-18.37,0.2313,0.2587,-0.1786,0.9207,$GPGGA,134153.400,3850.0554,N,07730.4666,W,2,09,0.91,66.9,M,-33.4,M,0000,0000*62
4033,0,-3.83,-1.10,2.42,-3.87,-10.69,-20.31,0.2469,0.2648,-0.1796,0.9147,$GPGGA,134153.500,3850.0552,N,07730.4677,W,2,09,0.98,66.9,M,-33.4,M,0000,0000*6C
4034,0,-5.72,-0.46,1.78,-4.06,-10.31,-20.37,0.2634,0.2724,-0.1816,0.9074,$GPGGA,134153.600,3850.0551,N,07730.4688,W,2,09,0.98,67.0,M,-33.4,M,0000,0000*64
4035,0,-3.32,1.60,0.55,-5.31,-10.75,-20.37,0.2800,0.2795,-0.1842,0.8997,$GPGGA,134153.700,3850.0549,N,07730.4699,W,2,09,0.98,67.1,M,-33.4,M,0000,0000*6D
4036,0,-1.11,2.36,0.34,-6.69,-11.19,-19.94,0.2961,0.2880,-0.1879,0.8911,$GPGGA,134153.800,3850.0548,N,07730.4711,W,2,09,0.98,67.2,M,-33.4,M,0000,0000*61
4037,0,-0.77,1.14,1.30,-7.69,-13.19,-18.56,0.3112,0.2976,-0.1930,0.8817,$GPGGA,134153.900,3850.0548,N,07730.4722,W,2,09,0.98,67.3,M,-33.4,M,0000,0000*61
4038,0,-3.06,-0.32,2.50,-7.37,-12.38,-18.62,0.3256,0.3062,-0.1984,0.8723,$GPGGA,134154.000,3850.0547,N,07730.4734,W,2,09,0.98,67.3,M,-33.4,M,0000,0000*67
4039,0,-5.55,-2.38,4.33,-7.56,-12.81,-20.00,0.3411,0.3141,-0.2031,0.8624,$GPGGA,134154.100,3850.0547,N,07730.4745,W,2,09,0.98,67.4,M,-33.4,M,0000,0000*67
4040,0,-8.22,-4.06,5.77,-10.94,-5.87,-20.75,0.3583,0.3187,-0.2076,0.8526,$GPGGA,134154.200,3850.0547,N,07730.4757,W,2,09,0.98,67.5,M,-33.4,M,0000,0000*66
4041,0,-4.38,1.44,1.79,-12.69,-3.69,-21.81,0.3770,0.3210,-0.2128,0.8423,$GPGGA,134154.300,3850.0547,N,07730.4769,W,2,09,0.91,67.5,M,-33.4,M,0000,0000*63
4042,0,-1.88,1.15,2.90,-15.19,-0.81,-21.50,0.3969,0.3192,-0.2177,0.8326,$GPGGA,134154.400,3850.0547,N,07730.4780,W,2,09,0.91,67.6,M,-33.4,M,0000,0000*60
4043,0,-3.32,-1.44,5.42,-16.87,1.00,-21.44,0.4168,0.3173,-0.2236,0.8220,$GPGGA,134154.500,3850.0547,N,07730.4792,W,2,09,0.98,67.6,M,-33.4,M,0000,0000*6B
4044,0,-6.73,-4.16,7.92,-19.56,4.31,-21.25,0.4348,0.3131,-0.2283,0.8129,$GPGGA,134154.600,3850.0548,N,07730.4803,W,2,09,0.98,67.7,M,-33.4,M,0000,0000*61
4045,0,-8.96,-3.33,7.11,-18.87,5.69,-22.06,0.4543,0.3087,-0.2329,0.8025,$GPGGA,134154.700,3850.0549,N,07730.4815,W,2,09,0.98,67.7,M,-33.4,M,0000,0000*66
4046,0,-7.62,-0.71,4.34,-19.37,8.13,-22.81,0.4747,0.3033,-0.2369,0.7915,$GPGGA,134154.800,3850.0550,N,07730.4826,W,2,09,0.98,67.8,M,-33.4,M,0000,0000*6E
4047,0,-5.56,-3.22,6.68,-21.87,3.56,-25.62,0.4956,0.2988,-0.2420,0.7787,$GPGGA,134154.900,3850.0553,N,07730.4838,W,2,09,0.98,67.9,M,-33.4,M,0000,0000*62
4048,0,-8.97,-3.70,7.78,-24.31,6.06,-25.75,0.5186,0.2923,-0.2484,0.7642,$GPGGA,134155.000,3850.0556,N,07730.4850,W,2,09,0.98,68.0,M,-33.4,M,0000,0000*67
4049,0,-8.65,-0.99,5.91,-24.44,4.31,-26.44,0.5418,0.2842,-0.2555,0.7486,$GPGGA,134155.100,3850.0559,N,07730.4862,W,2,09,0.98,68.1,M,-33.4,M,0000,0000*69
4050,0,-3.71,1.83,5.15,-20.62,-5.06,-25.25,0.5637,0.2796,-0.2645,0.7309,$GPGGA,134155.200,3850.0564,N,07730.4873,W,2,09,0.98,68.1,M,-33.4,M,0000,0000*64
4051,0,-3.12,-1.15,6.94,-15.25,-1.19,-22.62,0.5825,0.2764,-0.2716,0.7145,$GPGGA,134155.300,3850.0567,N,07730.4884,W,2,09,0.91,68.1,M,-33.4,M,0000,0000*67
4052,0,-7.76,-4.59,10.37,-15.31,-5.31,-21.69,0.5994,0.2740,-0.2767,0.6993,$GPGGA,134155.400,3850.0571,N,07730.4895,W,2,09,0.91,68.2,M,-33.4,M,0000,0000*64
4053,0,-11.19,-2.46,7.92,-15.75,-8.63,-18.06,0.6132,0.2748,-0.2852,0.6834,$GPGGA,134155.500,3850.0575,N,07730.4906,W,2,09,0.91,68.3,M,-33.4,M,0000,0000*6B
4054,0,-6.04,1.30,4.74,-21.75,-5.44,-16.69,0.6252,0.2742,-0.2955,0.6682,$GPGGA,134155.600,3850.0583,N,07730.4914,W,2,09,0.91,68.4,M,-33.4,M,0000,0000*65
4055,0,-4.95,-0.64,6.34,-24.69,-1.44,-16.12,0.6372,0.2713,-0.3082,0.6522,$GPGGA,134155.700,3850.0591,N,07730.4922,W,2,09,0.98,68.3,M,-33.4,M,0000,0000*6C
4056,0,-8.66,-4.13,8.01,-27.12,7.87,-17.50,0.6518,0.2618,-0.3173,0.6371,$GPGGA,134155.800,3850.0599,N,07730.4929,W,2,09,0.98,68.4,M,-33.4,M,0000,0000*67
4057,0,-2.63,1.05,4.55,-25.25,6.87,-19.62,0.6690,0.2487,-0.3224,0.6218,$GPGGA,134155.900,3850.0608,N,07730.4936,W,2,09,0.98,68.3,M,-33.4,M,0000,0000*64
4058,0,-7.12,-3.88,8.49,-24.56,2.69,-22.87,0.6863,0.2383,-0.3290,0.6033,$GPGGA,134156.000,3850.0618,N,07730.4942,W,2,09,0.98,68.3,M,-33.4,M,0000,0000*6C
4059,0,-11.45,-2.96,8.71,-25.19,4.31,-24.87,0.7049,0.2278,-0.3351,0.5822,$GPGGA,134156.100,3850.0627,N,07730.4949,W,2,09,0.98,68.2,M,-33.4,M,0000,0000*6B
4060,0,-6.15,1.29,5.64,-28.25,7.75,-24.37,0.7239,0.2151,-0.3395,0.5607,$GPGGA,134156.200,3850.0637,N,07730.4954,W,2,09,0.98,68.1,M,-33.4,M,0000,0000*66
4061,0,-10.14,-3.51,9.42,-29.69,2.69,-24.31,0.7413,0.2029,-0.3453,0.5386,$GPGGA,134156.300,3850.0647,N,07730.4960,W,2,09,0.98,68.1,M,-33.4,M,0000,0000*67
4062,0,-7.37,0.84,7.29,-30.06,-1.69,-21.87,0.7545,0.1932,-0.3544,0.5176,$GPGGA,134156.400,3850.0656,N,07730.4964,W,2,09,0.98,68.1,M,-33.4,M,0000,0000*64
4063,0,-3.03,-0.33,9.25,-28.44,-9.94,-20.37,0.7682,0.1810,-0.3682,0.4915,$GPGGA,134156.500,3850.0667,N,07730.4968,W,2,09,0.98,68.1,M,-33.4,M,0000,0000*6B
4064,0,-7.93,-4.52,12.12,-25.50,-3.25,-18.00,0.7781,0.1710,-0.3779,0.4717,$GPGGA,134156.600,3850.0677,N,07730.4970,W,2,09,0.98,68.1,M,-33.4,M,0000,0000*60
4065,0,-10.21,-0.94,8.46,-25.87,-1.44,-16.62,0.7876,0.1606,-0.3870,0.4518,$GPGGA,134156.700,3850.0688,N,07730.4972,W,2,09,0.98,68.1,M,-33.4,M,0000,0000*63
4066,0,-9.85,0.58,6.46,-23.75,4.56,-17.62,0.7973,0.1502,-0.3930,0.4327,$GPGGA,134156.800,3850.0699,N,07730.4974,W,2,09,0.98,68.1,M,-33.4,M,0000,0000*6A
4067,0,-8.96,0.52,6.58,-20.25,4.87,-20.00,0.8088,0.1396,-0.3943,0.4134,$GPGGA,134156.900,3850.0709,N,07730.4974,W,2,09,0.98,68.2,M,-33.4,M,0000,0000*60
4068,0,-11.67,-0.64,6.06,-15.25,2.06,-23.87,0.8200,0.1331,-0.3943,0.3929,$GPGGA,134157.000,3850.0720,N,07730.4974,W,2,09,0.98,68.2,M,-33.4,M,0000,0000*63
4069,0,-8.09,-2.98,9.83,-19.50,0.81,-25.00,0.8298,0.1295,-0.3969,0.3703,$GPGGA,134157.100,3850.0731,N,07730.4974,W,2,09,0.98,68.2,M,-33.4,M,0000,0000*62
4070,0,0.09,2.10,4.31,-11.81,-5.19,-24.81,0.8383,0.1278,-0.4005,0.3472,$GPGGA,134157.200,3850.0742,N,07730.4972,W,2,09,0.98,68.2,M,-33.4,M,0000,0000*63
4071,0,-13.24,0.57,3.72,-17.62,-8.81,-25.56,0.8452,0.1269,-0.4061,0.3235,$GPGGA,134157.300,3850.0753,N,07730.4971,W,2,09,0.98,68.2,M,-33.4,M,0000,0000*61
4072,0,-12.33,1.71,2.62,-14.31,-17.31,-22.69,0.8482,0.1278,-0.4182,0.2990,$GPGGA,134157.400,3850.0763,N,07730.4969,W,2,09,0.98,68.2,M,-33.4,M,0000,0000*6C
4073,0,-8.52,-3.01,7.40,-18.50,-6.06,-23.56,0.8514,0.1270,-0.4280,0.2754,$GPGGA,134157.500,3850.0773,N,07730.4966,W,2,09,0.98,68.2,M,-33.4,M,0000,0000*63
4074,0,-0.38,1.76,4.35,-23.06,-5.94,-23.44,0.8550,0.1235,-0.4366,0.2510,$GPGGA,134157.600,3850.0783,N,07730.4961,W,2,09,0.98,68.2,M,-33.4,M,0000,0000*68
4075,0,0.49,1.01,6.13,-21.06,8.31,-24.31,0.8633,0.1157,-0.4365,0.2255,$GPGGA,134157.700,3850.0792,N,07730.4953,W,2,09,0.98,68.2,M,-33.4,M,0000,0000*68
4076,0,-14.96,-0.89,4.36,-27.44,14.81,-28.19,0.8750,0.1051,-0.4290,0.1983,$GPGGA,134157.800,3850.0801,N,07730.4946,W,2,09,0.98,68.2,M,-33.4,M,0000,0000*66
4077,0,-4.72,-3.24,9.98,-26.37,4.06,-29.50,0.8835,0.0957,-0.4255,0.1708,$GPGGA,134157.900,3850.0810,N,07730.4939,W,2,09,0.98,68.2,M,-33.4,M,0000,0000*6F
4078,0,-1.51,0.41,5.85,-31.00,11.75,-29.87,0.8927,0.0831,-0.4208,0.1381,$GPGGA,134158.000,3850.0819,N,07730.4931,W,2,09,0.98,68.2,M,-33.4,M,0000,0000*68
4079,0,-8.06,0.79,6.45,-33.44,16.81,-28.44,0.9020,0.0687,-0.4127,0.1061,$GPGGA,134158.100,3850.0828,N,07730.4924,W,2,09,0.98,68.2,M,-33.4,M,0000,0000*6F
4080,0,-11.89,-0.94,6.62,-25.31,13.81,-25.44,0.9106,0.0546,-0.4026,0.0760,$GPGGA,134158.200,3850.0838,N,07730.4917,W,2,09,0.98,68.1,M,-33.4,M,0000,0000*6E
4081,0,-13.23,-2.19,8.10,-26.12,15.38,-24.44,0.9177,0.0416,-0.3921,0.0483,$GPGGA,134158.300,3850.0847,N,07730.4909,W,2,09,0.98,68.1,M,-33.4,M,0000,0000*68
4082,0,-12.57,-2.74,8.77,-28.25,22.44,-22.62,0.9257,0.0272,-0.3767,0.0222,$GPGGA,134158.400,3850.0856,N,07730.4901,W,2,09,0.98,68.1,M,-33.4,M,0000,0000*67
4083,0,-12.04,-3.81,8.81,-27.44,22.69,-21.31,0.9330,0.0134,-0.3596,-0.0023,$GPGGA,134158.500,3850.0865,N,07730.4892,W,2,09,0.98,68.1,M,-33.4,M,0000,0000*6D
4084,0,-12.05,-3.81,8.45,-24.56,22.62,-17.56,0.9393,0.0005,-0.3423,-0.0247,$GPGGA,134158.600,3850.0873,N,07730.4881,W,2,09,0.98,68.0,M,-33.4,M,0000,0000*6A
4085,0,-2.92,1.57,5.44,-20.31,18.87,-14.50,0.9450,-0.0109,-0.3240,-0.0431,$GPGGA,134158.700,3850.0879,N,07730.4869,W,2,09,0.98,67.9,M,-33.4,M,0000,0000*61
4086,0,-1.12,1.55,4.14,-13.44,21.62,-10.94,0.9490,-0.0193,-0.3094,-0.0578,$GPGGA,134158.800,3850.0885,N,07730.4858,W,2,09,0.98,67.9,M,-33.4,M,0000,0000*6F
4087,0,-0.50,1.36,2.12,-8.88,34.38,-11.06,0.6086,0.2186,-0.1830,0.7405,$GPGGA,134158.900,3850.0892,N,07730.4846,W,2,09,0.98,67.9,M,-33.4,M,0000,0000*67
4088,0,0.70,0.53,3.21,-11.25,55.50,-12.00,0.6250,0.1828,-0.1611,0.7416,$GPGGA,134159.000,3850.0897,N,07730.4833,W,2,09,0.98,67.9,M,-33.4,M,0000,0000*68
4089,0,-9.00,-3.17,5.21,-7.50,46.19,-14.13,0.6391,0.1534,-0.1402,0.7405,$GPGGA,134159.100,3850.0903,N,07730.4821,W,2,09,0.98,67.9,M,-33.4,M,0000,0000*66
4090,0,-7.96,-0.64,1.67,-5.56,45.13,-11.13,0.6530,0.1236,-0.1180,0.7379,$GPGGA,134159.200,3850.0905,N,07730.4807,W,2,09,0.98,68.0,M,-33.4,M,0000,0000*61
4091,0,-4.45,2.37,-1.21,-2.50,35.94,-9.13,0.6640,0.0958,-0.0965,0.7352,$GPGGA,134159.300,3850.0910,N,07730.4794,W,2,09,0.98,68.0,M,-33.4,M,0000,0000*61
4092,3,-0.57,2.41,-2.22,-4.75,36.00,-4.69,0.6721,0.0705,-0.0779,0.7330,$GPGGA,134159.400,3850.0915,N,07730.4780,W,2,09,0.98,68.0,M,-33.4,M,0000,0000*66
