4200,0,-0.02,-0.02,0.03,0.00,0.00,-0.06,-0.0131,-0.0013,0.0654,-0.9978,$GPGGA,132406.900,3850.1218,N,07730.3466,W,2,07,1.20,54.9,M,-33.4,M,0000,0000*63
4201,0,-0.01,-0.02,0.03,-0.06,-0.06,-0.06,-0.0131,-0.0013,0.0654,-0.9978,$GPGGA,132407.000,3850.1218,N,07730.3466,W,2,07,1.20,54.9,M,-33.4,M,0000,0000*6B
4202,0,-0.01,-0.01,0.04,-0.13,-0.06,0.06,-0.0131,-0.0013,0.0654,-0.9978,$GPGGA,132407.100,3850.1218,N,07730.3466,W,2,07,1.20,54.9,M,-33.4,M,0000,0000*6A
4203,0,-0.01,-0.01,0.03,0.00,0.00,-0.06,-0.0131,-0.0013,0.0654,-0.9978,$GPGGA,132407.200,3850.1218,N,07730.3466,W,2,07,1.20,54.9,M,-33.4,M,0000,0000*69
4204,0,-0.03,-0.01,0.03,0.00,0.13,0.00,-0.0131,-0.0013,0.0654,-0.9978,$GPGGA,132407.300,3850.1218,N,07730.3466,W,2,07,1.20,54.9,M,-33.4,M,0000,0000*68
4205,0,-0.02,-0.03,0.03,-0.19,-0.13,-0.06,-0.0131,-0.0013,0.0654,-0.9978,$GPGGA,132407.400,3850.1218,N,07730.3466,W,2,07,1.20,54.9,M,-33.4,M,0000,0000*6F
4206,0,-0.02,-0.02,0.01,0.13,0.00,-0.13,-0.0131,-0.0013,0.0654,-0.9978,$GPGGA,132407.500,3850.1218,N,07730.3466,W,2,07,1.20,54.9,M,-33.4,M,0000,0000*6E
4207,0,-0.02,-0.01,0.05,0.13,0.25,-0.13,-0.0131,-0.0013,0.0654,-0.9978,$GPGGA,132407.600,3850.1218,N,07730.3466,W,2,07,1.20,54.9,M,-33.4,M,0000,0000*6D
4208,0,-0.02,0.00,0.04,0.06,0.00,0.06,-0.0131,-0.0013,0.0654,-0.9978,$GPGGA,132407.700,3850.1218,N,07730.3466,W,2,07,1.20,54.9,M,-33.4,M,0000,0000*6C
4209,0,-0.01,-0.02,0.05,0.06,0.13,-0.13,-0.0131,-0.0013,0.0654,-0.9978,$GPGGA,132407.800,3850.1218,N,07730.3466,W,2,07,1.20,54.9,M,-33.4,M,0000,0000*63
4210,0,-0.02,0.00,0.02,0.00,0.00,0.00,-0.0131,-0.0013,0.0654,-0.9978,$GPGGA,132407.900,3850.1218,N,07730.3466,W,2,07,1.20,54.9,M,-33.4,M,0000,0000*62
4211,0,-0.02,0.00,0.03,0.00,0.06,-0.19,-0.0131,-0.0013,0.0654,-0.9978,$GPGGA,132408.000,3850.1218,N,07730.3466,W,2,07,1.20,54.9,M,-33.4,M,0000,0000*64
4212,0,-0.01,-0.01,0.04,0.00,0.06,0.00,-0.0131,-0.0013,0.0654,-0.9978,$GPGGA,132408.100,3850.1218,N,07730.3466,W,2,07,1.20,54.9,M,-33.4,M,0000,0000*65
4213,0,-0.01,-0.02,0.05,0.00,-0.06,-0.06,-0.0131,-0.0013,0.0654,-0.9978,$GPGGA,132408.200,3850.1218,N,07730.3466,W,2,07,1.20,54.9,M,-33.4,M,0000,0000*66
4214,0,-0.02,-0.01,0.03,0.00,0.06,0.00,-0.0131,-0.0013,0.0654,-0.9978,$GPGGA,132408.300,3850.1218,N,07730.3466,W,2,07,1.20,54.9,M,-33.4,M,0000,0000*67
4215,0,-0.01,0.00,0.05,-0.06,0.13,0.06,-0.0131,-0.0013,0.0654,-0.9978,$GPGGA,132408.400,3850.1218,N,07730.3466,W,2,07,1.20,54.9,M,-33.4,M,0000,0000*60
4216,0,-0.02,-0.02,0.03,-0.13,0.19,-0.06,-0.0131,-0.0013,0.0654,-0.9978,$GPGGA,132408.400,3850.1218,N,07730.3466,W,2,07,1.20,54.9,M,-33.4,M,0000,0000*60
4217,0,-0.02,0.00,0.02,0.06,0.13,-0.06,-0.0131,-0.0013,0.0654,-0.9978,$GPGGA,132408.500,3850.1218,N,07730.3466,W,2,07,1.20,54.9,M,-33.4,M,0000,0000*61
4218,0,-0.01,-0.01,0.05,0.00,-0.13,0.06,-0.0131,-0.0013,0.0654,-0.9978,$GPGGA,132408.700,3850.1218,N,07730.3466,W,2,07,1.20,54.9,M,-33.4,M,0000,0000*63
4219,0,-0.01,-0.02,0.02,-0.13,-0.19,0.06,-0.0131,-0.0013,0.0654,-0.9978,$GPGGA,132408.800,3850.1218,N,07730.3466,W,2,07,1.20,54.9,M,-33.4,M,0000,0000*6C
4220,0,-0.02,0.00,0.03,0.13,0.06,0.00,-0.0131,-0.0013,0.0654,-0.9978,$GPGGA,132408.900,3850.1218,N,07730.3466,W,2,07,1.20,54.9,M,-33.4,M,0000,0000*6D
4221,0,-0.01,-0.01,0.03,0.00,0.13,-0.06,-0.0131,-0.0013,0.0654,-0.9978,$GPGGA,132408.900,3850.1218,N,07730.3466,W,2,07,1.20,54.9,M,-33.4,M,0000,0000*6D
4222,0,-0.01,0.00,0.04,-0.06,0.00,-0.13,-0.0131,-0.0013,0.0654,-0.9978,$GPGGA,132409.000,3850.1218,N,07730.3466,W,2,07,1.20,54.9,M,-33.4,M,0000,0000*65
4223,0,-0.01,0.00,0.02,0.13,0.06,0.00,-0.0131,-0.0013,0.0654,-0.9978,$GPGGA,132409.200,3850.1218,N,07730.3466,W,2,07,1.20,54.9,M,-33.4,M,0000,0000*67
4224,0,-0.02,-0.02,0.05,-0.06,0.19,-0.06,-0.0131,-0.0013,0.0654,-0.9978,$GPGGA,132409.300,3850.1218,N,07730.3466,W,2,07,1.20,54.9,M,-33.4,M,0000,0000*66
4225,0,-0.01,0.00,0.05,0.00,-0.19,0.13,-0.0131,-0.0013,0.0654,-0.9978,$GPGGA,132409.400,3850.1218,N,07730.3466,W,2,07,1.20,54.9,M,-33.4,M,0000,0000*61
4226,0,0.00,-0.01,0.04,0.06,0.13,-0.06,-0.0131,-0.0013,0.0654,-0.9978,$GPGGA,132409.500,3850.1218,N,07730.3466,W,2,07,1.20,54.9,M,-33.4,M,0000,0000*60
4227,0,-0.01,-0.03,0.05,0.06,0.13,-0.06,-0.0131,-0.0013,0.0654,-0.9978,$GPGGA,132409.600,3850.1218,N,07730.3466,W,2,07,1.20,54.9,M,-33.4,M,0000,0000*63
4228,0,-0.03,-0.01,0.04,0.00,0.06,0.00,-0.0131,-0.0013,0.0654,-0.9978,$GPGGA,132409.700,3850.1218,N,07730.3466,W,2,07,1.20,54.9,M,-33.4,M,0000,0000*62
4229,0,-0.02,0.00,0.02,-0.13,0.00,0.06,-0.0131,-0.0013,0.0654,-0.9978,$GPGGA,132409.800,3850.1218,N,07730.3466,W,2,07,1.20,54.9,M,-33.4,M,0000,0000*6D
4230,0,-0.01,-0.01,0.05,-0.19,0.00,0.00,-0.0131,-0.0013,0.0654,-0.9978,$GPGGA,132409.900,3850.1218,N,07730.3466,W,2,07,1.20,54.9,M,-33.4,M,0000,0000*6C
4231,0,-0.02,0.00,0.03,-0.13,-0.19,0.00,-0.0131,-0.0013,0.0654,-0.9978,$GPGGA,132410.000,3850.1218,N,07730.3466,W,2,07,1.20,54.9,M,-33.4,M,0000,0000*6D
4232,0,-0.01,-0.01,0.05,0.00,-0.06,0.00,-0.0131,-0.0013,0.0654,-0.9978,$GPGGA,132410.100,3850.1218,N,07730.3466,W,2,07,1.20,54.9,M,-33.4,M,0000,0000*6C
4233,0,-0.01,-0.03,0.03,0.00,-0.06,0.13,-0.0131,-0.0013,0.0654,-0.9978,$GPGGA,132410.200,3850.1218,N,07730.3466,W,2,07,1.20,54.9,M,-33.4,M,0000,0000*6F
4234,0,-0.02,-0.01,0.03,0.13,0.00,0.06,-0.0131,-0.0013,0.0654,-0.9978,$GPGGA,132410.300,3850.1218,N,07730.3466,W,2,07,1.20,54.9,M,-33.4,M,0000,0000*6E
4235,0,-0.03,-0.01,0.03,0.06,-0.13,-0.06,-0.0131,-0.0013,0.0654,-0.9978,$GPGGA,132410.400,3850.1218,N,07730.3466,W,2,07,1.20,54.9,M,-33.4,M,0000,0000*69
4236,0,-0.02,0.00,0.02,0.13,0.06,0.06,-0.0131,-0.0013,0.0654,-0.9978,$GPGGA,132410.500,3850.1218,N,07730.3466,W,2,07,1.20,54.9,M,-33.4,M,0000,0000*68
4237,0,-0.01,-0.01,0.03,0.00,0.06,0.00,-0.0131,-0.0013,0.0654,-0.9978,$GPGGA,132410.600,3850.1218,N,07730.3466,W,2,07,1.20,54.9,M,-33.4,M,0000,0000*6B
4238,0,0.00,0.00,0.00,0.00,-0.13,0.13,-0.0131,-0.0013,0.0654,-0.9978,$GPGGA,132410.700,3850.1218,N,07730.3466,W,2,07,1.20,54.9,M,-33.4,M,0000,0000*6A
4239,0,-0.03,-0.01,0.03,0.13,0.19,0.06,-0.0131,-0.0013,0.0654,-0.9978,$GPGGA,132410.800,3850.1218,N,07730.3466,W,2,07,1.20,54.9,M,-33.4,M,0000,0000*65
4240,0,-0.02,-0.01,0.01,0.00,-0.06,-0.06,-0.0131,-0.0013,0.0654,-0.9978,$GPGGA,132410.900,3850.1218,N,07730.3466,W,2,07,1.20,54.9,M,-33.4,M,0000,0000*64
4241,0,-0.02,-0.01,0.03,0.00,0.00,0.00,-0.0131,-0.0013,0.0654,-0.9978,$GPGGA,132411.000,3850.1218,N,07730.3466,W,2,07,1.20,54.9,M,-33.4,M,0000,0000*6C
4242,0,-0.01,0.00,0.02,-0.06,0.06,-0.06,-0.0131,-0.0013,0.0654,-0.9978,$GPGGA,132411.100,3850.1218,N,07730.3466,W,2,07,1.20,54.9,M,-33.4,M,0000,0000*6D
4243,0,-0.02,-0.02,0.01,-0.06,0.13,-0.06,-0.0131,-0.0013,0.0654,-0.9978,$GPGGA,132411.200,3850.1218,N,07730.3466,W,2,07,1.20,54.9,M,-33.4,M,0000,0000*6E
4244,0,-0.01,-0.02,0.03,-0.06,0.00,0.06,-0.0131,-0.0013,0.0654,-0.9978,$GPGGA,132411.300,3850.1218,N,07730.3466,W,2,07,1.20,54.9,M,-33.4,M,0000,0000*6F
4245,0,-0.02,-0.01,0.02,0.06,-0.06,0.00,-0.0131,-0.0013,0.0654,-0.9978,$GPGGA,132411.400,3850.1218,N,07730.3466,W,2,07,1.20,54.9,M,-33.4,M,0000,0000*68
4246,0,-0.02,0.00,0.03,0.06,-0.06,-0.06,-0.0131,-0.0013,0.0654,-0.9978,$GPGGA,132411.500,3850.1218,N,07730.3466,W,2,07,1.20,54.9,M,-33.4,M,0000,0000*69
4247,0,-0.01,-0.03,0.03,0.19,-0.06,-0.06,-0.0131,-0.0013,0.0654,-0.9978,$GPGGA,132411.600,3850.1218,N,07730.3466,W,2,07,1.20,54.9,M,-33.4,M,0000,0000*6A
4248,0,-0.02,-0.02,0.05,0.06,-0.06,0.00,-0.0131,-0.0013,0.0654,-0.9978,$GPGGA,132411.700,3850.1218,N,07730.3466,W,2,07,1.20,54.9,M,-33.4,M,0000,0000*6B
4249,0,-0.02,-0.01,0.01,0.00,-0.13,0.00,-0.0131,-0.0013,0.0654,-0.9978,$GPGGA,132411.800,3850.1218,N,07730.3466,W,2,07,1.20,54.9,M,-33.4,M,0000,0000*64
4250,0,-0.01,-0.03,0.05,0.13,-0.06,0.00,-0.0131,-0.0013,0.0654,-0.9978,$GPGGA,132411.900,3850.1218,N,07730.3466,W,2,07,1.20,54.9,M,-33.4,M,0000,0000*65
4251,0,0.00,-0.02,0.00,-0.13,0.13,-0.06,-0.0131,-0.0013,0.0654,-0.9978,$GPGGA,132412.000,3850.1218,N,07730.3466,W,2,07,1.20,54.9,M,-33.4,M,0000,0000*6F
4252,0,-0.02,-0.01,0.02,-0.19,0.00,0.00,-0.0131,-0.0013,0.0654,-0.9978,$GPGGA,132412.000,3850.1218,N,07730.3466,W,2,07,1.20,54.9,M,-33.4,M,0000,0000*6F
4253,0,-0.02,0.00,0.02,-0.13,0.19,0.00,-0.0131,-0.0013,0.0654,-0.9978,$GPGGA,132412.200,3850.1218,N,07730.3466,W,2,07,1.20,54.9,M,-33.4,M,0000,0000*6D
4254,0,-0.01,-0.01,0.02,0.06,0.00,-0.06,-0.0131,-0.0013,0.0654,-0.9978,$GPGGA,132412.300,3850.1218,N,07730.3466,W,2,07,1.20,54.9,M,-33.4,M,0000,0000*6C
4255,0,-0.02,-0.01,0.01,0.00,-0.13,0.00,-0.0131,-0.0013,0.0654,-0.9978,$GPGGA,132412.400,3850.1218,N,07730.3466,W,2,07,1.20,54.9,M,-33.4,M,0000,0000*6B
4256,0,-0.03,-0.03,0.00,-0.06,-0.19,-0.06,-0.0131,-0.0013,0.0654,-0.9978,$GPGGA,132412.500,3850.1218,N,07730.3466,W,2,07,1.20,54.9,M,-33.4,M,0000,0000*6A
4257,0,-0.02,0.00,0.03,0.19,0.13,-0.06,-0.0131,-0.0013,0.0654,-0.9978,$GPGGA,132412.600,3850.1218,N,07730.3466,W,2,07,1.20,54.9,M,-33.4,M,0000,0000*69
4258,0,0.00,-0.01,0.00,-0.13,0.00,-0.06,-0.0131,-0.0013,0.0654,-0.9978,$GPGGA,132412.700,3850.1218,N,07730.3466,W,2,07,1.20,54.9,M,-33.4,M,0000,0000*68
4259,0,-0.02,0.01,0.03,0.00,0.19,0.06,-0.0131,-0.0013,0.0654,-0.9978,$GPGGA,132412.800,3850.1218,N,07730.3466,W,2,07,1.20,54.9,M,-33.4,M,0000,0000*67
4260,0,-0.01,-0.01,0.01,-0.06,-0.06,-0.06,-0.0131,-0.0013,0.0654,-0.9978,$GPGGA,132412.900,3850.1218,N,07730.3466,W,2,07,1.20,54.9,M,-33.4,M,0000,0000*66
4261,0,-0.01,0.00,0.01,-0.06,-0.13,0.06,-0.0131,-0.0013,0.0654,-0.9978,$GPGGA,132413.000,3850.1218,N,07730.3466,W,2,07,1.20,54.9,M,-33.4,M,0000,0000*6E
4262,0,-0.01,-0.01,0.03,0.13,-0.06,-0.06,-0.0131,-0.0013,0.0654,-0.9978,$GPGGA,132413.100,3850.1218,N,07730.3466,W,2,07,1.20,54.9,M,-33.4,M,0000,0000*6F
4263,0,-0.01,-0.02,0.05,0.13,0.13,-0.06,-0.0131,-0.0013,0.0654,-0.9978,$GPGGA,132413.200,3850.1218,N,07730.3466,W,2,07,1.20,54.9,M,-33.4,M,0000,0000*6C
4264,0,-0.01,0.00,0.05,-0.06,0.00,-0.06,-0.0131,-0.0013,0.0654,-0.9978,$GPGGA,132413.300,3850.1218,N,07730.3466,W,2,07,1.20,54.9,M,-33.4,M,0000,0000*6D
4265,0,-0.02,-0.01,0.04,0.06,0.00,0.00,-0.0131,-0.0013,0.0654,-0.9978,$GPGGA,132413.400,3850.1218,N,07730.3466,W,2,07,1.20,54.9,M,-33.4,M,0000,0000*6A
4266,0,-0.01,0.00,0.02,-0.06,-0.25,-0.06,-0.0131,-0.0013,0.0654,-0.9978,$GPGGA,132413.500,3850.1218,N,07730.3466,W,2,07,1.20,54.9,M,-33.4,M,0000,0000*6B
4267,0,-0.01,-0.02,0.04,0.00,-0.13,-0.06,-0.0131,-0.0013,0.0654,-0.9978,$GPGGA,132413.600,3850.1218,N,07730.3466,W,2,07,1.20,54.9,M,-33.4,M,0000,0000*68
4268,0,-0.02,-0.03,0.05,0.00,-0.06,0.00,-0.0131,-0.0013,0.0654,-0.9978,$GPGGA,132413.700,3850.1218,N,07730.3466,W,2,07,1.20,54.9,M,-33.4,M,0000,0000*69
4269,0,-0.01,0.00,0.00,0.00,0.06,0.00,-0.0131,-0.0013,0.0654,-0.9978,$GPGGA,132413.800,3850.1218,N,07730.3466,W,2,07,1.20,54.9,M,-33.4,M,0000,0000*66
4270,0,-0.01,-0.01,0.04,-0.06,-0.25,0.00,-0.0131,-0.0013,0.0654,-0.9978,$GPGGA,132413.900,3850.1218,N,07730.3466,W,2,07,1.20,54.9,M,-33.4,M,0000,0000*67
4271,0,-0.02,-0.02,0.04,-0.13,0.00,0.00,-0.0131,-0.0013,0.0654,-0.9978,$GPGGA,132414.000,3850.1218,N,07730.3467,W,2,07,1.20,54.9,M,-33.4,M,0000,0000*68
4272,0,-0.01,-0.03,0.03,-0.06,0.06,0.00,-0.0131,-0.0013,0.0654,-0.9978,$GPGGA,132414.100,3850.1218,N,07730.3467,W,2,07,1.20,54.9,M,-33.4,M,0000,0000*69
4273,0,-0.02,-0.01,0.02,0.13,0.00,-0.06,-0.0131,-0.0013,0.0654,-0.9978,$GPGGA,132414.200,3850.1218,N,07730.3467,W,2,07,1.20,54.9,M,-33.4,M,0000,0000*6A
4274,0,-0.01,-0.02,0.03,-0.06,0.13,0.00,-0.0131,-0.0013,0.0654,-0.9978,$GPGGA,132414.300,3850.1218,N,07730.3467,W,2,07,1.20,54.9,M,-33.4,M,0000,0000*6B
4275,0,-0.01,0.00,0.03,0.13,0.06,0.00,-0.0131,-0.0013,0.0654,-0.9978,$GPGGA,132414.400,3850.1218,N,07730.3467,W,2,07,1.20,54.9,M,-33.4,M,0000,0000*6C
4276,0,-0.02,-0.01,0.04,0.00,0.00,0.00,-0.0131,-0.0013,0.0654,-0.9978,$GPGGA,132414.500,3850.1218,N,07730.3467,W,2,07,1.20,54.9,M,-33.4,M,0000,0000*6D
4277,0,-0.01,-0.02,0.03,-0.06,-0.06,0.00,-0.0131,-0.0013,0.0654,-0.9978,$GPGGA,132414.600,3850.1218,N,07730.3467,W,2,07,1.20,54.9,M,-33.4,M,0000,0000*6E
4278,0,-0.02,-0.01,0.05,0.13,0.13,0.00,-0.0131,-0.0013,0.0654,-0.9978,$GPGGA,132414.700,3850.1218,N,07730.3467,W,2,07,1.20,54.9,M,-33.4,M,0000,0000*6F
4279,0,-0.01,-0.02,0.05,-0.13,0.19,0.00,-0.0131,-0.0013,0.0654,-0.9978,$GPGGA,132414.800,3850.1218,N,07730.3467,W,2,07,1.20,54.9,M,-33.4,M,0000,0000*60
4280,0,-0.01,0.00,0.04,-0.13,0.06,-0.06,-0.0131,-0.0013,0.0654,-0.9978,$GPGGA,132414.900,3850.1218,N,07730.3467,W,2,07,1.20,54.9,M,-33.4,M,0000,0000*61
4281,0,-0.01,-0.01,0.04,0.13,0.13,-0.19,-0.0131,-0.0013,0.0654,-0.9978,$GPGGA,132415.000,3850.1218,N,07730.3467,W,2,07,1.20,54.9,M,-33.4,M,0000,0000*69
4282,0,-0.01,0.00,0.04,0.00,0.00,0.13,-0.0131,-0.0013,0.0654,-0.9978,$GPGGA,132415.100,3850.1218,N,07730.3467,W,2,07,1.20,54.9,M,-33.4,M,0000,0000*68
4283,0,-0.01,-0.01,0.03,0.00,-0.06,-0.06,-0.0131,-0.0013,0.0654,-0.9978,$GPGGA,132415.200,3850.1218,N,07730.3467,W,2,07,1.20,54.9,M,-33.4,M,0000,0000*6B
4284,0,-0.02,-0.01,0.05,0.00,0.19,-0.06,-0.0131,-0.0013,0.0654,-0.9978,$GPGGA,132415.300,3850.1218,N,07730.3467,W,2,07,1.20,54.9,M,-33.4,M,0000,0000*6A
4285,0,-0.01,-0.01,0.02,-0.06,0.00,0.00,-0.0131,-0.0013,0.0654,-0.9978,$GPGGA,132415.400,3850.1218,N,07730.3467,W,2,07,1.20,54.9,M,-33.4,M,0000,0000*6D
4286,0,-0.04,-0.01,0.02,0.00,-0.06,0.00,-0.0131,-0.0013,0.0654,-0.9978,$GPGGA,132415.500,3850.1218,N,07730.3467,W,2,07,1.20,54.9,M,-33.4,M,0000,0000*6C
4287,0,-0.02,-0.04,0.11,0.00,0.56,-0.06,-0.0131,-0.0013,0.0654,-0.9978,$GPGGA,132415.600,3850.1218,N,07730.3467,W,2,07,1.20,54.9,M,-33.4,M,0000,0000*6F
4288,0,0.00,0.00,0.03,0.00,-0.06,-0.06,-0.0131,-0.0013,0.0654,-0.9978,$GPGGA,132415.700,3850.1218,N,07730.3467,W,2,07,1.20,54.9,M,-33.4,M,0000,0000*6E
4289,0,-0.02,0.00,0.01,0.06,0.19,0.13,-0.0131,-0.0013,0.0654,-0.9978,$GPGGA,132415.800,3850.1218,N,07730.3467,W,2,07,1.20,54.9,M,-33.4,M,0000,0000*61
4290,0,-0.02,-0.03,0.02,0.00,0.19,0.00,-0.0131,-0.0013,0.0654,-0.9978,$GPGGA,132415.900,3850.1218,N,07730.3467,W,2,07,1.20,54.9,M,-33.4,M,0000,0000*60
4291,0,-0.01,-0.05,0.01,0.06,-0.19,0.06,-0.0131,-0.0012,0.0654,-0.9978,$GPGGA,132416.000,3850.1218,N,07730.3467,W,2,07,1.20,54.9,M,-33.4,M,0000,0000*6A
4292,0,-0.05,-0.03,0.02,0.06,0.25,0.06,-0.0131,-0.0013,0.0654,-0.9978,$GPGGA,132416.100,3850.1218,N,07730.3467,W,2,07,1.20,54.9,M,-33.4,M,0000,0000*6B
4293,0,-0.04,-0.03,0.04,0.00,-0.56,0.06,-0.0131,-0.0013,0.0654,-0.9978,$GPGGA,132416.200,3850.1218,N,07730.3467,W,2,07,1.20,54.9,M,-33.4,M,0000,0000*68
4294,0,-0.07,-0.08,0.03,0.13,-0.19,0.06,-0.0131,-0.0012,0.0654,-0.9978,$GPGGA,132416.300,3850.1218,N,07730.3467,W,2,07,1.20,54.9,M,-33.4,M,0000,0000*69
4295,0,0.00,-0.03,0.00,-0.06,0.44,-0.13,-0.0131,-0.0013,0.0654,-0.9978,$GPGGA,132416.400,3850.1218,N,07730.3467,W,2,07,1.20,54.9,M,-33.4,M,0000,0000*6E
4296,0,-0.04,-0.05,0.02,0.06,-0.88,0.06,-0.0131,-0.0012,0.0654,-0.9978,$GPGGA,132416.500,3850.1218,N,07730.3467,W,2,07,1.20,54.9,M,-33.4,M,0000,0000*6F
4297,0,-0.04,-0.01,0.04,0.00,0.50,-0.06,-0.0131,-0.0013,0.0654,-0.9978,$GPGGA,132416.600,3850.1218,N,07730.3467,W,2,07,1.20,54.9,M,-33.4,M,0000,0000*6C
4298,0,0.00,-0.03,0.03,-0.19,0.25,0.00,-0.0131,-0.0014,0.0654,-0.9978,$GPGGA,132416.700,3850.1218,N,07730.3467,W,2,07,1.20,54.9,M,-33.4,M,0000,0000*6D
4299,0,-0.05,-0.05,-0.10,0.06,-0.69,0.00,-0.0131,-0.0014,0.0654,-0.9978,$GPGGA,132416.800,3850.1218,N,07730.3467,W,2,07,1.20,54.9,M,-33.4,M,0000,0000*62
4300,0,-0.02,0.00,-0.01,0.13,0.06,-0.13,-0.0131,-0.0014,0.0654,-0.9978,$GPGGA,132416.900,3850.1218,N,07730.3467,W,2,07,1.20,54.8,M,-33.4,M,0000,0000*62
4301,0,-0.01,-0.01,0.04,0.06,-0.13,-0.06,-0.0131,-0.0014,0.0654,-0.9978,$GPGGA,132417.000,3850.1218,N,07730.3467,W,2,07,1.20,54.8,M,-33.4,M,0000,0000*6A
4302,0,-0.01,-0.03,0.00,-0.06,-0.13,0.00,-0.0131,-0.0014,0.0654,-0.9978,$GPGGA,132417.100,3850.1218,N,07730.3467,W,2,07,1.20,54.8,M,-33.4,M,0000,0000*6B
4303,0,-0.03,-0.01,0.04,0.13,0.44,0.00,-0.0131,-0.0014,0.0654,-0.9978,$GPGGA,132417.200,3850.1218,N,07730.3467,W,2,07,1.20,54.8,M,-33.4,M,0000,0000*68
4304,0,2.05,0.00,-0.19,0.31,2.56,-0.13,-0.0131,-0.0006,0.0654,-0.9978,$GPGGA,132417.300,3850.1218,N,07730.3467,W,2,07,1.20,54.8,M,-33.4,M,0000,0000*69
4305,0,0.22,-0.33,0.48,-0.44,0.81,-0.13,-0.0130,-0.0015,0.0655,-0.9977,$GPGGA,132417.400,3850.1218,N,07730.3467,W,2,07,1.20,54.8,M,-33.4,M,0000,0000*6E
4306,0,-0.20,0.33,0.01,0.94,-1.25,0.19,-0.0130,-0.0013,0.0656,-0.9977,$GPGGA,132417.500,3850.1218,N,07730.3467,W,2,07,1.20,54.8,M,-33.4,M,0000,0000*6F
4307,0,0.19,0.00,-0.19,0.31,1.06,-0.31,-0.0130,-0.0011,0.0656,-0.9977,$GPGGA,132417.600,3850.1218,N,07730.3467,W,2,07,1.20,54.8,M,-33.4,M,0000,0000*6C
4308,0,-0.12,0.16,-0.65,-0.88,-1.06,0.06,-0.0130,-0.0016,0.0656,-0.9977,$GPGGA,132417.700,3850.1218,N,07730.3467,W,2,07,1.20,54.8,M,-33.4,M,0000,0000*6D
4309,0,-0.21,0.00,-0.69,-0.56,-1.94,0.19,-0.0130,-0.0013,0.0657,-0.9977,$GPGGA,132417.800,3850.1218,N,07730.3467,W,2,07,1.20,54.8,M,-33.4,M,0000,0000*62
4310,0,-0.15,-0.23,-0.07,-0.37,0.25,0.00,-0.0130,-0.0010,0.0657,-0.9977,$GPGGA,132417.900,3850.1218,N,07730.3467,W,2,07,1.20,54.8,M,-33.4,M,0000,0000*63
4311,0,0.16,-0.22,0.36,0.50,-0.69,0.37,-0.0130,-0.0013,0.0657,-0.9977,$GPGGA,132418.000,3850.1218,N,07730.3467,W,2,07,1.20,54.8,M,-33.4,M,0000,0000*65
4312,0,0.25,0.00,0.33,0.50,0.31,0.00,-0.0131,-0.0009,0.0658,-0.9977,$GPGGA,132418.000,3850.1218,N,07730.3467,W,2,07,1.20,54.8,M,-33.4,M,0000,0000*65
4313,0,-0.26,0.14,0.13,-0.69,1.06,-0.37,-0.0130,-0.0010,0.0659,-0.9977,$GPGGA,132418.200,3850.1218,N,07730.3467,W,2,07,1.20,54.8,M,-33.4,M,0000,0000*67
4314,0,-0.19,-0.13,-0.25,-0.31,-0.81,0.19,-0.0130,-0.0011,0.0659,-0.9977,$GPGGA,132418.300,3850.1218,N,07730.3467,W,2,07,1.20,54.8,M,-33.4,M,0000,0000*66
4315,0,0.11,-0.21,0.18,0.69,-0.13,-0.13,-0.0130,-0.0010,0.0659,-0.9977,$GPGGA,132418.400,3850.1218,N,07730.3467,W,2,07,1.20,54.8,M,-33.4,M,0000,0000*61
4316,0,-0.11,0.15,0.31,-0.31,-0.06,-0.06,-0.0130,-0.0010,0.0660,-0.9977,$GPGGA,132418.500,3850.1218,N,07730.3467,W,2,07,1.20,54.8,M,-33.4,M,0000,0000*60
4317,0,-0.22,0.00,0.00,-0.13,-0.25,0.13,-0.0130,-0.0010,0.0660,-0.9977,$GPGGA,132418.600,3850.1218,N,07730.3467,W,2,07,1.20,54.8,M,-33.4,M,0000,0000*63
4318,0,0.20,-0.11,-0.06,0.56,0.19,-0.25,-0.0130,-0.0010,0.0661,-0.9977,$GPGGA,132418.700,3850.1218,N,07730.3467,W,2,07,1.20,54.8,M,-33.4,M,0000,0000*62
4319,0,-0.20,-0.01,0.09,-0.62,-0.19,0.19,-0.0130,-0.0010,0.0662,-0.9977,$GPGGA,132418.800,3850.1218,N,07730.3467,W,2,07,1.20,54.8,M,-33.4,M,0000,0000*6D
4320,0,0.30,-0.20,-0.09,0.56,0.13,0.25,-0.0130,-0.0010,0.0661,-0.9977,$GPGGA,132418.900,3850.1218,N,07730.3467,W,2,07,1.20,54.8,M,-33.4,M,0000,0000*6C
4321,0,-0.11,0.18,-0.15,0.69,0.06,0.00,-0.0130,-0.0011,0.0663,-0.9977,$GPGGA,132419.000,3850.1218,N,07730.3467,W,2,07,1.20,54.8,M,-33.4,M,0000,0000*64
4322,0,0.00,-0.10,-0.03,-0.37,-0.13,0.19,-0.0130,-0.0010,0.0663,-0.9977,$GPGGA,132419.100,3850.1218,N,07730.3467,W,2,07,1.20,54.8,M,-33.4,M,0000,0000*65
4323,0,0.12,-0.07,0.02,0.75,-0.13,-0.13,-0.0130,-0.0011,0.0663,-0.9977,$GPGGA,132419.200,3850.1218,N,07730.3467,W,2,07,1.20,54.8,M,-33.4,M,0000,0000*66
4324,0,-0.15,0.14,-0.04,-0.69,0.13,0.00,-0.0130,-0.0011,0.0663,-0.9977,$GPGGA,132419.300,3850.1218,N,07730.3467,W,2,07,1.20,54.8,M,-33.4,M,0000,0000*67
4325,0,0.14,-0.28,0.00,0.31,0.19,-0.06,-0.0130,-0.0012,0.0664,-0.9977,$GPGGA,132419.400,3850.1218,N,07730.3467,W,2,07,1.20,54.8,M,-33.4,M,0000,0000*60
4326,0,0.00,0.17,0.16,0.00,-0.13,-0.19,-0.0130,-0.0011,0.0665,-0.9977,$GPGGA,132419.500,3850.1218,N,07730.3467,W,2,07,1.20,54.8,M,-33.4,M,0000,0000*61
4327,0,-0.14,0.05,-0.06,-0.31,-0.19,0.19,-0.0130,-0.0010,0.0663,-0.9977,$GPGGA,132419.600,3850.1218,N,07730.3467,W,2,07,1.20,54.8,M,-33.4,M,0000,0000*62
4328,0,0.24,-0.36,0.03,0.75,0.13,-0.19,-0.0130,-0.0010,0.0664,-0.9977,$GPGGA,132419.700,3850.1218,N,07730.3467,W,2,07,1.20,54.8,M,-33.4,M,0000,0000*63
4329,0,-0.29,0.15,-0.06,-0.81,0.00,0.00,-0.0130,-0.0010,0.0666,-0.9977,$GPGGA,132419.800,3850.1218,N,07730.3467,W,2,07,1.20,54.8,M,-33.4,M,0000,0000*6C
4330,0,0.06,-0.39,0.11,0.56,0.19,0.00,-0.0130,-0.0011,0.0666,-0.9977,$GPGGA,132419.900,3850.1218,N,07730.3467,W,2,07,1.20,54.8,M,-33.4,M,0000,0000*6D
4331,0,0.00,0.15,0.00,-0.31,0.06,-0.19,-0.0130,-0.0010,0.0666,-0.9977,$GPGGA,132420.000,3850.1218,N,07730.3467,W,2,07,1.20,54.8,M,-33.4,M,0000,0000*6E
4332,0,-0.22,-0.01,0.05,0.00,0.06,0.13,-0.0130,-0.0010,0.0667,-0.9977,$GPGGA,132420.100,3850.1218,N,07730.3467,W,2,07,1.20,54.8,M,-33.4,M,0000,0000*6F
4333,0,0.33,-0.14,-0.08,0.81,0.13,-0.06,-0.0130,-0.0009,0.0666,-0.9977,$GPGGA,132420.200,3850.1218,N,07730.3467,W,2,07,1.20,54.8,M,-33.4,M,0000,0000*6C
4334,0,-0.23,-0.02,0.05,-0.62,0.13,-0.13,-0.0130,-0.0010,0.0667,-0.9977,$GPGGA,132420.300,3850.1218,N,07730.3467,W,2,07,1.20,54.8,M,-33.4,M,0000,0000*6D
4335,0,0.16,-0.32,-0.04,0.44,0.13,0.06,-0.0130,-0.0010,0.0668,-0.9977,$GPGGA,132420.400,3850.1218,N,07730.3467,W,2,07,1.20,54.8,M,-33.4,M,0000,0000*6A
4336,0,-0.28,0.28,0.00,-0.69,-0.13,-0.13,-0.0130,-0.0009,0.0669,-0.9977,$GPGGA,132420.400,3850.1218,N,07730.3467,W,2,07,1.20,54.8,M,-33.4,M,0000,0000*6A
4337,0,0.21,-0.22,0.08,0.37,0.56,0.00,-0.0130,-0.0010,0.0670,-0.9977,$GPGGA,132420.600,3850.1218,N,07730.3467,W,2,07,1.20,54.8,M,-33.4,M,0000,0000*68
4338,0,0.00,0.12,-0.03,0.00,0.13,-0.19,-0.0130,-0.0010,0.0670,-0.9977,$GPGGA,132420.700,3850.1218,N,07730.3467,W,2,07,1.20,54.8,M,-33.4,M,0000,0000*69
4339,0,-0.11,-0.06,0.01,-0.19,-0.13,0.19,-0.0130,-0.0010,0.0670,-0.9977,$GPGGA,132420.800,3850.1218,N,07730.3467,W,2,07,1.20,54.8,M,-33.4,M,0000,0000*66
4340,0,0.12,-0.05,0.16,0.56,0.13,-0.13,-0.0130,-0.0010,0.0671,-0.9977,$GPGGA,132420.900,3850.1218,N,07730.3467,W,2,07,1.20,54.8,M,-33.4,M,0000,0000*67
4341,0,-0.27,0.20,0.04,-0.81,-0.31,0.19,-0.0130,-0.0011,0.0670,-0.9977,$GPGGA,132420.900,3850.1218,N,07730.3467,W,2,07,1.20,54.8,M,-33.4,M,0000,0000*67
4342,0,0.27,-0.27,0.03,0.75,0.25,-0.06,-0.0130,-0.0011,0.0671,-0.9977,$GPGGA,132421.000,3850.1218,N,07730.3467,W,2,07,1.20,54.8,M,-33.4,M,0000,0000*6F
4343,0,-0.04,0.26,-0.13,-0.56,-0.06,0.06,-0.0130,-0.0011,0.0671,-0.9977,$GPGGA,132421.200,3850.1218,N,07730.3467,W,2,07,1.20,54.8,M,-33.4,M,0000,0000*6D
4344,0,0.00,0.00,0.00,-0.37,-0.13,0.13,-0.0131,-0.0012,0.0671,-0.9977,$GPGGA,132421.300,3850.1218,N,07730.3467,W,2,07,1.20,54.8,M,-33.4,M,0000,0000*6C
4345,0,0.06,0.06,0.06,0.69,0.13,-0.19,-0.0131,-0.0012,0.0673,-0.9977,$GPGGA,132421.400,3850.1218,N,07730.3467,W,2,07,1.20,54.8,M,-33.4,M,0000,0000*6B
4346,0,-0.48,0.19,0.12,-0.81,0.00,-0.06,-0.0131,-0.0012,0.0672,-0.9977,$GPGGA,132421.500,3850.1218,N,07730.3467,W,2,07,1.20,54.8,M,-33.4,M,0000,0000*6A
4347,0,0.03,-0.03,-0.30,-0.19,0.00,0.13,-0.0131,-0.0013,0.0671,-0.9977,$GPGGA,132421.600,3850.1218,N,07730.3467,W,2,07,1.20,54.8,M,-33.4,M,0000,0000*69
4348,0,-0.15,0.21,-0.90,-0.44,-2.00,-0.13,-0.0131,-0.0013,0.0671,-0.9977,$GPGGA,132421.700,3850.1218,N,07730.3467,W,2,07,1.20,54.8,M,-33.4,M,0000,0000*68
4349,0,-0.12,-0.10,0.44,0.37,1.44,0.62,-0.0130,-0.0011,0.0672,-0.9977,$GPGGA,132421.800,3850.1218,N,07730.3467,W,2,07,1.20,54.8,M,-33.4,M,0000,0000*67
4350,0,-0.62,0.02,0.31,0.62,-1.12,-0.06,-0.0129,-0.0013,0.0671,-0.9977,$GPGGA,132421.900,3850.1218,N,07730.3467,W,2,07,1.20,54.8,M,-33.4,M,0000,0000*66
4351,0,-0.60,0.07,-0.62,0.50,-0.81,0.06,-0.0129,-0.0015,0.0671,-0.9977,$GPGGA,132422.000,3850.1218,N,07730.3467,W,2,07,1.20,54.8,M,-33.4,M,0000,0000*6C
4352,0,2.02,-0.55,-0.29,-0.56,-7.06,0.19,-0.0129,-0.0018,0.0670,-0.9977,$GPGGA,132422.100,3850.1218,N,07730.3467,W,2,07,1.20,54.8,M,-33.4,M,0000,0000*6D
4353,0,-0.37,0.55,0.89,-1.25,13.00,-0.13,-0.0129,-0.0012,0.0671,-0.9977,$GPGGA,132422.200,3850.1218,N,07730.3466,W,2,07,1.20,54.8,M,-33.4,M,0000,0000*6F
4354,0,-4.37,0.55,3.18,0.62,-6.06,0.13,-0.0129,-0.0024,0.0670,-0.9977,$GPGGA,132422.300,3850.1218,N,07730.3466,W,2,07,1.20,54.8,M,-33.4,M,0000,0000*6E
4355,0,-0.43,0.48,2.10,-1.00,-1.87,0.19,-0.0129,-0.0018,0.0668,-0.9977,$GPGGA,132422.400,3850.1218,N,07730.3466,W,2,07,1.20,54.8,M,-33.4,M,0000,0000*69
4356,0,4.48,-0.16,-2.55,0.88,-6.50,0.56,-0.0131,-0.0009,0.0667,-0.9977,$GPGGA,132422.500,3850.1218,N,07730.3466,W,2,07,1.20,54.8,M,-33.4,M,0000,0000*68
4357,0,4.73,-0.85,-0.31,0.88,-5.94,2.06,-0.0128,-0.0015,0.0665,-0.9977,$GPGGA,132422.600,3850.1218,N,07730.3466,W,2,07,1.20,54.8,M,-33.4,M,0000,0000*6B
4358,0,-6.72,-1.75,-1.42,-1.94,-0.81,0.88,-0.0121,-0.0024,0.0661,-0.9977,$GPGGA,132422.700,3850.1218,N,07730.3466,W,2,07,1.20,54.8,M,-33.4,M,0000,0000*6A
4359,0,7.50,-0.87,-0.31,-3.94,-1.87,-3.00,-0.0128,-0.0028,0.0699,-0.9975,$GPGGA,132422.800,3850.1218,N,07730.3466,W,2,07,1.20,54.8,M,-33.4,M,0000,0000*65
4360,0,0.73,-2.92,-1.49,3.06,15.94,0.13,-0.0128,-0.0031,0.0618,-0.9980,$GPGGA,132422.900,3850.1218,N,07730.3467,W,2,07,1.20,54.8,M,-33.4,M,0000,0000*65
4361,0,6.16,-1.23,-2.39,-10.94,5.62,-4.44,-0.0135,0.0103,0.0679,-0.9976,$GPGGA,132423.000,3850.1218,N,07730.3467,W,2,07,1.20,54.8,M,-33.4,M,0000,0000*6D
4362,0,8.56,-2.67,-1.54,6.44,-4.25,-1.56,-0.0154,-0.0002,0.0627,-0.9979,$GPGGA,132423.100,3850.1218,N,07730.3467,W,2,07,1.20,54.8,M,-33.4,M,0000,0000*6C
4363,0,-4.69,-3.89,-1.23,-19.37,26.37,6.62,-0.0138,0.0132,0.0620,-0.9979,$GPGGA,132423.200,3850.1218,N,07730.3467,W,2,07,1.20,54.8,M,-33.4,M,0000,0000*6F
4364,0,-0.43,-1.34,1.10,12.38,-21.75,3.37,-0.0104,0.0208,0.0687,-0.9974,$GPGGA,132423.300,3850.1218,N,07730.3467,W,2,07,1.20,54.8,M,-33.4,M,0000,0000*6E
4365,0,4.45,-2.39,-0.07,-14.31,-8.50,-2.06,-0.0087,-0.0079,0.0671,-0.9977,$GPGGA,132423.400,3850.1218,N,07730.3467,W,2,07,1.18,54.8,M,-33.4,M,0000,0000*62
4366,0,-6.83,-3.84,-6.55,-2.87,15.88,2.25,-0.0079,0.0075,0.0793,-0.9968,$GPGGA,132423.500,3850.1217,N,07730.3468,W,2,07,1.18,54.8,M,-33.4,M,0000,0000*63
4367,0,19.07,-0.52,-7.40,12.50,-1.81,3.69,-0.0075,0.0079,0.0683,-0.9976,$GPGGA,132423.600,3850.1217,N,07730.3469,W,2,07,1.18,54.8,M,-33.4,M,0000,0000*61
4368,0,2.40,-2.26,-10.07,-16.81,24.62,5.19,-0.0026,0.0194,0.0756,-0.9969,$GPGGA,132423.700,3850.1216,N,07730.3471,W,2,07,1.20,54.7,M,-33.4,M,0000,0000*6C
4369,0,-9.35,-4.20,3.19,5.56,-63.06,-4.56,-0.0007,-0.0002,0.0739,-0.9973,$GPGGA,132423.800,3850.1216,N,07730.3472,W,2,07,1.20,54.7,M,-33.4,M,0000,0000*60
4370,0,17.66,-1.61,-3.06,-6.12,58.75,8.25,0.0002,0.0131,0.0775,-0.9969,$GPGGA,132423.900,3850.1215,N,07730.3474,W,2,07,1.20,54.7,M,-33.4,M,0000,0000*64
4371,0,1.12,-1.86,-4.05,-1.56,-14.75,2.00,0.0025,0.0350,0.0867,-0.9956,$GPGGA,132424.000,3850.1214,N,07730.3476,W,2,07,1.20,54.7,M,-33.4,M,0000,0000*69
4372,0,8.17,-0.80,-7.15,-12.38,18.81,1.75,0.0040,-0.0001,0.0895,-0.9960,$GPGGA,132424.100,3850.1213,N,07730.3478,W,2,07,1.20,54.7,M,-33.4,M,0000,0000*61
4373,0,2.20,-1.96,-1.92,27.81,-0.19,7.37,0.0063,0.0255,0.0898,-0.9956,$GPGGA,132424.200,3850.1213,N,07730.3480,W,2,07,1.20,54.6,M,-33.4,M,0000,0000*64
4374,0,-9.96,-4.19,-2.58,-13.38,13.19,3.56,0.0096,0.0198,0.0776,-0.9968,$GPGGA,132424.300,3850.1212,N,07730.3483,W,2,07,1.20,54.6,M,-33.4,M,0000,0000*67
4375,0,2.61,-3.55,18.41,-6.75,-20.12,0.75,0.0123,0.0183,0.0922,-0.9955,$GPGGA,132424.400,3850.1211,N,07730.3485,W,2,07,1.20,54.6,M,-33.4,M,0000,0000*65
4376,0,0.20,-1.73,-5.72,1.00,-30.19,0.37,0.0149,0.0066,0.0884,-0.9960,$GPGGA,132424.500,3850.1210,N,07730.3487,W,2,07,1.20,54.6,M,-33.4,M,0000,0000*67
4377,0,16.41,-0.75,1.45,-1.94,-21.87,-1.19,0.0173,0.0112,0.0756,-0.9969,$GPGGA,132424.600,3850.1209,N,07730.3490,W,2,07,1.20,54.6,M,-33.4,M,0000,0000*6A
4378,0,-5.02,-2.89,-5.46,-17.87,-2.06,-0.56,0.0184,-0.0090,0.0876,-0.9960,$GPGGA,132424.700,3850.1208,N,07730.3492,W,2,07,1.18,54.6,M,-33.4,M,0000,0000*63
4379,0,14.11,-0.98,-10.78,8.25,2.50,2.87,0.0198,-0.0122,0.0759,-0.9968,$GPGGA,132424.800,3850.1207,N,07730.3495,W,2,07,1.20,54.6,M,-33.4,M,0000,0000*6F
4380,0,-0.22,-0.34,-1.15,-17.31,3.31,2.75,0.0217,0.0044,0.0911,-0.9956,$GPGGA,132424.900,3850.1206,N,07730.3498,W,2,07,1.20,54.5,M,-33.4,M,0000,0000*61
4381,0,1.14,0.12,-13.85,20.87,-39.94,1.69,0.0249,-0.0100,0.0876,-0.9958,$GPGGA,132425.000,3850.1205,N,07730.3501,W,2,07,1.20,54.5,M,-33.4,M,0000,0000*6B
4382,0,-4.76,-2.69,8.56,4.31,31.62,5.44,0.0284,-0.0073,0.0811,-0.9963,$GPGGA,132425.100,3850.1203,N,07730.3504,W,2,07,1.20,54.5,M,-33.4,M,0000,0000*69
4383,0,8.57,-1.68,-2.74,-10.88,-0.37,9.25,0.0325,0.0119,0.0854,-0.9957,$GPGGA,132425.200,3850.1202,N,07730.3508,W,2,07,1.20,54.5,M,-33.4,M,0000,0000*67
4384,0,-3.60,-2.90,7.49,-32.56,-63.19,3.81,0.0374,0.0137,0.0939,-0.9948,$GPGGA,132425.300,3850.1200,N,07730.3511,W,2,07,1.20,54.5,M,-33.4,M,0000,0000*6C
4385,0,0.97,-1.34,3.39,1.37,-15.63,1.50,0.0419,0.0059,0.0939,-0.9947,$GPGGA,132425.400,3850.1199,N,07730.3515,W,2,07,1.20,54.5,M,-33.4,M,0000,0000*6C
4386,0,5.63,-4.41,-8.13,-6.37,14.31,5.94,0.0458,0.0027,0.0898,-0.9949,$GPGGA,132425.500,3850.1198,N,07730.3518,W,2,07,1.20,54.5,M,-33.4,M,0000,0000*61
4387,0,7.30,-3.45,3.98,-0.50,9.63,2.44,0.0485,0.0156,0.0915,-0.9945,$GPGGA,132425.600,3850.1196,N,07730.3522,W,2,07,1.20,54.5,M,-33.4,M,0000,0000*65
4388,0,15.63,-0.98,4.97,-2.81,-8.19,3.37,0.0516,-0.0051,0.0978,-0.9938,$GPGGA,132425.700,3850.1195,N,07730.3526,W,2,07,1.18,54.5,M,-33.4,M,0000,0000*68
4389,0,-8.28,-3.83,-0.09,40.19,27.75,4.44,0.0545,-0.0049,0.0861,-0.9948,$GPGGA,132425.800,3850.1193,N,07730.3530,W,2,07,1.18,54.5,M,-33.4,M,0000,0000*66
4392,0,1.60,-1.85,2.14,17.50,9.44,1.56,0.0600,-0.0027,0.0876,-0.9943,$GPGGA,132426.100,3850.1189,N,07730.3542,W,2,07,1.20,54.5,M,-33.4,M,0000,0000*69
4393,0,-4.13,-1.15,-4.28,-32.31,-6.44,5.50,0.0621,0.0064,0.0884,-0.9941,$GPGGA,132426.200,3850.1187,N,07730.3546,W,2,07,1.20,54.5,M,-33.4,M,0000,0000*60
4394,0,-2.45,-3.26,-0.98,-7.25,4.31,2.44,0.0641,0.0107,0.1008,-0.9928,$GPGGA,132426.300,3850.1185,N,07730.3550,W,2,07,1.20,54.5,M,-33.4,M,0000,0000*64
4395,0,0.53,-2.40,-2.57,12.50,-13.63,3.19,0.0667,0.0086,0.0944,-0.9933,$GPGGA,132426.400,3850.1183,N,07730.3555,W,2,07,1.20,54.5,M,-33.4,M,0000,0000*60
4396,0,-2.16,-5.48,-4.67,22.69,-7.44,5.50,0.0710,0.0030,0.0772,-0.9945,$GPGGA,132426.500,3850.1181,N,07730.3560,W,2,07,1.20,54.5,M,-33.4,M,0000,0000*65
4397,0,-8.30,-3.38,0.50,-2.50,12.81,4.44,0.0758,-0.0008,0.0733,-0.9944,$GPGGA,132426.600,3850.1178,N,07730.3566,W,2,07,1.20,54.5,M,-33.4,M,0000,0000*66
4398,0,12.73,-2.29,-6.46,-0.50,-8.19,4.19,0.0797,-0.0053,0.0761,-0.9939,$GPGGA,132426.700,3850.1176,N,07730.3571,W,2,07,1.18,54.5,M,-33.4,M,0000,0000*64
4399,0,-0.22,-4.39,-2.13,6.56,-7.19,4.62,0.0840,-0.0123,0.0729,-0.9937,$GPGGA,132426.800,3850.1174,N,07730.3576,W,2,07,1.18,54.5,M,-33.4,M,0000,0000*6E
4400,0,1.17,-4.62,-4.01,10.00,1.75,4.44,0.0878,-0.0112,0.0664,-0.9938,$GPGGA,132426.900,3850.1172,N,07730.3581,W,2,07,1.20,54.5,M,-33.4,M,0000,0000*6A
4401,0,-8.08,-5.05,-0.80,10.56,10.13,3.19,0.0908,-0.0078,0.0580,-0.9941,$GPGGA,132427.000,3850.1169,N,07730.3587,W,2,07,1.20,54.6,M,-33.4,M,0000,0000*6D
4402,0,-10.90,-2.70,2.28,-8.38,-22.81,0.75,0.0922,-0.0182,0.0593,-0.9938,$GPGGA,132427.100,3850.1167,N,07730.3593,W,2,07,1.20,54.6,M,-33.4,M,0000,0000*67
4403,0,1.85,-3.26,-2.01,-10.94,-5.50,-0.50,0.0920,-0.0209,0.0721,-0.9929,$GPGGA,132427.200,3850.1164,N,07730.3599,W,2,07,1.20,54.6,M,-33.4,M,0000,0000*6D
4404,0,-2.32,-3.37,-1.02,3.94,-7.69,-2.81,0.0904,-0.0247,0.0724,-0.9930,$GPGGA,132427.300,3850.1161,N,07730.3605,W,2,07,1.20,54.6,M,-33.4,M,0000,0000*6F
4405,0,-3.42,-5.01,0.16,8.38,-7.00,-3.56,0.0884,-0.0332,0.0655,-0.9934,$GPGGA,132427.400,3850.1158,N,07730.3612,W,2,07,1.20,54.6,M,-33.4,M,0000,0000*64
4406,0,1.36,-1.73,-2.22,4.69,-13.38,-4.06,0.0857,-0.0420,0.0578,-0.9938,$GPGGA,132427.500,3850.1155,N,07730.3619,W,2,07,1.20,54.6,M,-33.4,M,0000,0000*63
4407,0,-2.29,-3.09,-1.82,5.37,-11.31,-4.37,0.0829,-0.0518,0.0507,-0.9939,$GPGGA,132427.600,3850.1151,N,07730.3625,W,2,07,1.20,54.5,M,-33.4,M,0000,0000*68
4408,0,-3.38,-5.12,0.60,0.88,-12.69,-5.31,0.0795,-0.0630,0.0463,-0.9938,$GPGGA,132427.700,3850.1147,N,07730.3632,W,2,07,1.18,54.5,M,-33.4,M,0000,0000*63
4409,0,0.21,-5.45,0.14,-2.00,-7.31,-5.44,0.0751,-0.0704,0.0466,-0.9936,$GPGGA,132427.800,3850.1143,N,07730.3640,W,2,07,1.18,54.5,M,-33.4,M,0000,0000*6D
4410,0,1.26,-3.71,0.22,-8.44,-1.25,-6.56,0.0696,-0.0701,0.0511,-0.9938,$GPGGA,132427.900,3850.1139,N,07730.3648,W,2,07,1.20,54.6,M,-33.4,M,0000,0000*61
4411,0,1.76,-1.66,0.80,-9.50,8.88,-8.31,0.0630,-0.0666,0.0586,-0.9941,$GPGGA,132428.000,3850.1130,N,07730.3658,W,2,07,1.20,54.5,M,-33.4,M,0000,0000*6C
4412,0,-3.75,-1.99,1.47,-14.06,6.75,-9.50,0.0543,-0.0621,0.0699,-0.9941,$GPGGA,132428.100,3850.1126,N,07730.3666,W,2,07,1.20,54.6,M,-33.4,M,0000,0000*64
4413,0,-2.89,-3.97,2.95,-12.25,5.56,-9.63,0.0450,-0.0586,0.0804,-0.9940,$GPGGA,132428.200,3850.1122,N,07730.3673,W,2,07,1.20,54.6,M,-33.4,M,0000,0000*67
4414,0,-0.70,-4.47,4.61,-10.13,3.56,-8.69,0.0366,-0.0557,0.0889,-0.9938,$GPGGA,132428.300,3850.1118,N,07730.3682,W,2,07,1.20,54.6,M,-33.4,M,0000,0000*61
4415,0,2.94,-3.41,2.77,-9.06,1.37,-7.44,0.0294,-0.0555,0.0958,-0.9934,$GPGGA,132428.400,3850.1113,N,07730.3690,W,2,07,1.20,54.6,M,-33.4,M,0000,0000*6E
4416,0,0.46,-0.45,0.63,-9.63,-0.44,-6.37,0.0231,-0.0556,0.1030,-0.9929,$GPGGA,132428.500,3850.1109,N,07730.3698,W,2,07,1.20,54.6,M,-33.4,M,0000,0000*6C
4417,0,-3.32,-0.35,2.16,-10.44,4.06,-5.12,0.0176,-0.0551,0.1113,-0.9921,$GPGGA,132428.600,3850.1105,N,07730.3707,W,2,07,1.20,54.6,M,-33.4,M,0000,0000*64
4418,0,-5.41,-3.04,5.02,-10.31,7.62,-5.00,0.0127,-0.0529,0.1195,-0.9913,$GPGGA,132428.700,3850.1101,N,07730.3715,W,2,07,1.18,54.6,M,-33.4,M,0000,0000*69
4419,0,-2.15,-3.44,4.54,-8.06,7.12,-4.75,0.0078,-0.0483,0.1264,-0.9908,$GPGGA,132428.800,3850.1097,N,07730.3723,W,2,07,1.18,54.6,M,-33.4,M,0000,0000*6D
4420,0,-5.27,-1.73,3.37,-7.25,9.50,-4.00,0.0027,-0.0419,0.1324,-0.9903,$GPGGA,132428.900,3850.1093,N,07730.3732,W,2,07,1.18,54.6,M,-33.4,M,0000,0000*68
4421,0,-2.57,-1.80,3.71,-8.13,9.94,-2.75,-0.0016,-0.0337,0.1385,-0.9898,$GPGGA,132429.000,3850.1089,N,07730.3741,W,2,07,1.18,54.6,M,-33.4,M,0000,0000*6F
4422,0,-2.97,-1.50,2.88,-8.88,19.06,-1.94,-0.0051,-0.0222,0.1446,-0.9893,$GPGGA,132429.100,3850.1085,N,07730.3750,W,2,07,1.18,54.6,M,-33.4,M,0000,0000*62
4423,0,-3.22,-1.30,5.10,-7.31,15.81,-0.62,-0.0082,-0.0076,0.1509,-0.9885,$GPGGA,132429.200,3850.1081,N,07730.3760,W,2,07,1.20,54.6,M,-33.4,M,0000,0000*6D
4424,0,-1.25,-0.79,3.84,-6.25,7.87,0.69,-0.0096,0.0013,0.1564,-0.9876,$GPGGA,132429.300,3850.1078,N,07730.3770,W,2,07,1.18,54.6,M,-33.4,M,0000,0000*60
4425,0,-3.45,-0.85,3.97,-3.94,7.31,0.75,-0.0102,0.0087,0.1605,-0.9869,$GPGGA,132429.400,3850.1074,N,07730.3780,W,2,07,1.20,54.6,M,-33.4,M,0000,0000*6F
4426,0,-2.26,-0.68,1.68,-3.19,0.81,0.19,-0.0107,0.0154,0.1633,-0.9864,$GPGGA,132429.500,3850.1070,N,07730.3790,W,2,07,1.20,54.7,M,-33.4,M,0000,0000*6A
4427,0,-1.38,0.11,2.58,-3.19,2.69,1.06,-0.0109,0.0185,0.1661,-0.9859,$GPGGA,132429.600,3850.1066,N,07730.3800,W,2,07,1.18,54.7,M,-33.4,M,0000,0000*63
4428,0,-2.70,-0.59,2.49,-3.25,3.19,1.37,-0.0105,0.0222,0.1688,-0.9854,$GPGGA,132429.700,3850.1063,N,07730.3810,W,2,07,1.18,54.7,M,-33.4,M,0000,0000*66
4429,0,-1.04,-1.94,3.49,-0.81,2.87,2.25,-0.0095,0.0252,0.1705,-0.9850,$GPGGA,132429.800,3850.1060,N,07730.3819,W,2,07,1.18,54.8,M,-33.4,M,0000,0000*6C
4430,0,2.71,-1.34,0.43,-0.44,3.06,3.50,-0.0072,0.0263,0.1711,-0.9849,$GPGGA,132429.900,3850.1057,N,07730.3829,W,2,07,1.18,54.8,M,-33.4,M,0000,0000*6A
4431,0,1.65,1.67,-2.03,-0.50,2.69,4.87,-0.0039,0.0284,0.1716,-0.9847,$GPGGA,132429.900,3850.1057,N,07730.3829,W,2,07,1.18,54.8,M,-33.4,M,0000,0000*6A
4432,0,0.51,2.00,-1.44,-1.50,-5.00,5.56,0.0009,0.0277,0.1728,-0.9846,$GPGGA,132430.000,3850.1053,N,07730.3838,W,2,07,1.18,54.9,M,-33.4,M,0000,0000*6E
4433,0,0.19,1.95,-0.54,-0.25,-6.87,6.19,0.0068,0.0240,0.1736,-0.9845,$GPGGA,132430.200,3850.1048,N,07730.3856,W,2,07,1.20,55.0,M,-33.4,M,0000,0000*6D
4434,0,0.03,-1.85,0.93,2.06,-7.06,7.06,0.0135,0.0189,0.1732,-0.9846,$GPGGA,132430.300,3850.1045,N,07730.3865,W,2,07,1.20,55.1,M,-33.4,M,0000,0000*60
4435,0,1.38,-0.28,2.42,1.31,-9.19,7.75,0.0202,0.0135,0.1717,-0.9849,$GPGGA,132430.300,3850.1045,N,07730.3865,W,2,07,1.20,55.1,M,-33.4,M,0000,0000*60
4436,0,1.92,2.83,-2.47,5.50,-10.94,7.94,0.0284,0.0071,0.1686,-0.9852,$GPGGA,132430.500,3850.1038,N,07730.3884,W,2,07,1.20,55.3,M,-33.4,M,0000,0000*61
4437,0,1.20,-0.09,1.07,5.00,-7.87,2.81,0.0340,0.0015,0.1638,-0.9859,$GPGGA,132430.500,3850.1038,N,07730.3884,W,2,07,1.20,55.3,M,-33.4,M,0000,0000*61
4438,0,-0.36,1.48,-3.00,6.62,-5.19,-0.75,0.0357,-0.0048,0.1580,-0.9868,$GPGGA,132430.700,3850.1031,N,07730.3903,W,2,07,1.18,55.5,M,-33.4,M,0000,0000*69
4439,0,4.43,2.66,-2.16,8.31,-2.06,-1.50,0.0349,-0.0081,0.1521,-0.9877,$GPGGA,132430.700,3850.1031,N,07730.3903,W,2,07,1.18,55.5,M,-33.4,M,0000,0000*69
4440,0,5.95,2.15,-1.26,8.81,-2.31,-1.56,0.0331,-0.0082,0.1459,-0.9887,$GPGGA,132430.900,3850.1024,N,07730.3922,W,2,07,1.18,55.6,M,-33.4,M,0000,0000*63
4441,0,5.50,2.34,-0.97,9.00,3.25,-2.81,0.0313,-0.0087,0.1387,-0.9898,$GPGGA,132431.000,3850.1020,N,07730.3932,W,2,07,1.18,55.7,M,-33.4,M,0000,0000*6F
4442,0,4.79,2.77,-2.46,7.37,-1.56,-3.00,0.0293,-0.0112,0.1314,-0.9908,$GPGGA,132431.100,3850.1016,N,07730.3942,W,2,07,1.20,55.8,M,-33.4,M,0000,0000*68
4443,0,4.55,2.95,-2.92,5.62,-7.12,-2.12,0.0282,-0.0176,0.1246,-0.9916,$GPGGA,132431.200,3850.1011,N,07730.3953,W,2,07,1.18,55.9,M,-33.4,M,0000,0000*66
4444,0,2.40,2.41,-3.46,3.94,-6.50,-0.56,0.0278,-0.0220,0.1201,-0.9921,$GPGGA,132431.300,3850.1005,N,07730.3965,W,2,07,1.20,56.0,M,-33.4,M,0000,0000*66
4445,0,0.66,2.53,-4.06,3.62,-6.31,1.00,0.0283,-0.0242,0.1173,-0.9924,$GPGGA,132431.400,3850.0999,N,07730.3976,W,2,07,1.20,56.1,M,-33.4,M,0000,0000*6F
4446,0,-1.96,0.74,-2.14,2.37,-1.75,1.50,0.0291,-0.0254,0.1159,-0.9925,$GPGGA,132431.500,3850.0989,N,07730.3991,W,2,07,1.20,56.2,M,-33.4,M,0000,0000*65
4447,0,-3.66,0.22,-1.12,-0.19,4.81,1.25,0.0299,-0.0237,0.1160,-0.9925,$GPGGA,132431.600,3850.0982,N,07730.4004,W,2,07,1.20,56.3,M,-33.4,M,0000,0000*6E
4448,0,5.04,2.75,-1.75,-2.06,11.81,2.25,0.0305,-0.0162,0.1174,-0.9925,$GPGGA,132431.700,3850.0977,N,07730.4015,W,2,07,1.18,56.3,M,-33.4,M,0000,0000*6E
4449,0,0.48,-1.11,2.06,0.37,13.19,3.81,0.0318,-0.0049,0.1185,-0.9924,$GPGGA,132431.800,3850.0972,N,07730.4027,W,2,07,1.18,56.3,M,-33.4,M,0000,0000*65
4450,0,3.69,-0.13,1.56,1.44,13.69,4.56,0.0336,0.0073,0.1195,-0.9922,$GPGGA,132431.900,3850.0966,N,07730.4038,W,2,07,1.18,56.3,M,-33.4,M,0000,0000*6F
4451,0,6.31,1.08,0.56,0.88,15.13,4.75,0.0359,0.0218,0.1199,-0.9919,$GPGGA,132432.000,3850.0961,N,07730.4049,W,2,07,1.20,56.4,M,-33.4,M,0000,0000*68
4452,0,7.56,2.25,-0.82,1.94,7.44,4.62,0.0388,0.0305,0.1196,-0.9916,$GPGGA,132432.100,3850.0956,N,07730.4060,W,2,07,1.20,56.5,M,-33.4,M,0000,0000*67
4453,0,6.04,2.62,-1.93,-0.19,9.31,5.25,0.0424,0.0380,0.1187,-0.9913,$GPGGA,132432.200,3850.0951,N,07730.4071,W,2,07,1.20,56.6,M,-33.4,M,0000,0000*60
4454,0,2.06,2.19,-2.45,0.44,5.75,6.31,0.0472,0.0430,0.1167,-0.9911,$GPGGA,132432.300,3850.0946,N,07730.4082,W,2,07,1.20,56.7,M,-33.4,M,0000,0000*6A
4455,0,-2.15,0.01,-2.20,3.44,-3.19,8.13,0.0527,0.0441,0.1146,-0.9910,$GPGGA,132432.400,3850.0941,N,07730.4093,W,2,07,1.20,56.8,M,-33.4,M,0000,0000*65
4456,0,-4.60,-1.31,-1.28,3.44,-7.87,8.56,0.0597,0.0413,0.1120,-0.9910,$GPGGA,132432.500,3850.0936,N,07730.4104,W,2,07,1.20,56.9,M,-33.4,M,0000,0000*6A
4457,0,-4.15,-2.02,0.14,1.06,-8.00,8.38,0.0674,0.0367,0.1104,-0.9909,$GPGGA,132432.600,3850.0932,N,07730.4115,W,2,07,1.20,57.0,M,-33.4,M,0000,0000*65
4458,0,-1.90,-2.08,1.32,-1.56,-9.38,7.81,0.0756,0.0285,0.1090,-0.9907,$GPGGA,132432.700,3850.0927,N,07730.4126,W,2,07,1.18,57.1,M,-33.4,M,0000,0000*6A
4459,0,3.04,-0.72,1.45,3.50,-14.50,7.81,0.0833,0.0190,0.1071,-0.9906,$GPGGA,132432.800,3850.0923,N,07730.4136,W,2,07,1.18,57.1,M,-33.4,M,0000,0000*60
4460,0,6.37,1.24,0.13,3.31,-16.37,5.94,0.0899,0.0071,0.1048,-0.9904,$GPGGA,132432.900,3850.0918,N,07730.4147,W,2,07,1.20,57.2,M,-33.4,M,0000,0000*67
4461,0,-3.40,-2.40,1.41,1.19,-15.31,3.94,0.0955,-0.0062,0.1021,-0.9902,$GPGGA,132433.000,3850.0913,N,07730.4158,W,2,07,1.20,57.2,M,-33.4,M,0000,0000*6A
4462,0,1.01,-1.14,2.71,-0.06,-16.19,2.12,0.1000,-0.0216,0.0988,-0.9898,$GPGGA,132433.100,3850.0908,N,07730.4168,W,2,07,1.20,57.3,M,-33.4,M,0000,0000*63
4463,0,4.88,-0.08,0.67,3.62,-30.19,0.62,0.1031,-0.0416,0.0941,-0.9893,$GPGGA,132433.200,3850.0904,N,07730.4179,W,2,07,1.20,57.4,M,-33.4,M,0000,0000*6B
4464,0,6.20,1.09,-0.96,5.69,-26.00,-0.56,0.1051,-0.0629,0.0882,-0.9885,$GPGGA,132433.300,3850.0899,N,07730.4189,W,2,07,1.20,57.6,M,-33.4,M,0000,0000*62
4465,0,-1.56,-2.07,0.86,4.50,-21.56,-2.75,0.1051,-0.0822,0.0826,-0.9876,$GPGGA,132433.400,3850.0895,N,07730.4199,W,2,07,1.20,57.7,M,-33.4,M,0000,0000*69
4466,0,2.68,-0.89,1.08,1.12,-10.69,-4.19,0.1038,-0.0963,0.0781,-0.9868,$GPGGA,132433.500,3850.0890,N,07730.4209,W,2,07,1.20,57.9,M,-33.4,M,0000,0000*69
4467,0,3.91,1.15,-0.30,1.06,-11.25,-5.50,0.1010,-0.1063,0.0745,-0.9864,$GPGGA,132433.600,3850.0885,N,07730.4219,W,2,07,1.20,58.0,M,-33.4,M,0000,0000*69
4468,0,4.90,1.40,-1.39,2.50,0.25,-4.87,0.0973,-0.1088,0.0711,-0.9868,$GPGGA,132433.700,3850.0880,N,07730.4229,W,2,07,1.18,58.0,M,-33.4,M,0000,0000*65
4469,0,2.98,1.68,-2.95,3.87,-0.94,-5.44,0.0930,-0.1066,0.0681,-0.9876,$GPGGA,132433.800,3850.0874,N,07730.4239,W,2,07,1.18,58.0,M,-33.4,M,0000,0000*60
4470,0,-0.17,1.69,-3.97,6.37,5.94,-5.12,0.0882,-0.1013,0.0645,-0.9888,$GPGGA,132433.900,3850.0869,N,07730.4250,W,2,07,1.18,58.1,M,-33.4,M,0000,0000*63
4471,0,-2.62,-0.46,-2.72,3.06,17.25,-7.62,0.0829,-0.0922,0.0612,-0.9904,$GPGGA,132434.000,3850.0863,N,07730.4260,W,2,07,1.20,58.1,M,-33.4,M,0000,0000*6F
4472,0,-5.13,-1.02,-0.31,1.69,18.75,-8.50,0.0760,-0.0794,0.0581,-0.9922,$GPGGA,132434.100,3850.0858,N,07730.4269,W,2,07,1.20,58.2,M,-33.4,M,0000,0000*6C
4473,0,-6.50,-2.93,1.39,4.81,12.94,-9.38,0.0678,-0.0668,0.0546,-0.9940,$GPGGA,132434.200,3850.0853,N,07730.4279,W,2,07,1.20,58.3,M,-33.4,M,0000,0000*64
4474,0,-5.05,-3.49,1.97,5.69,12.81,-8.56,0.0596,-0.0536,0.0512,-0.9955,$GPGGA,132434.300,3850.0849,N,07730.4289,W,2,07,1.20,58.4,M,-33.4,M,0000,0000*66
4475,0,-1.51,0.41,-2.70,4.50,8.25,-7.37,0.0521,-0.0439,0.0485,-0.9965,$GPGGA,132434.400,3850.0844,N,07730.4298,W,2,07,1.20,58.4,M,-33.4,M,0000,0000*6C
4476,0,-3.82,-1.08,-1.65,1.37,11.13,-5.75,0.0464,-0.0359,0.0468,-0.9972,$GPGGA,132434.500,3850.0839,N,07730.4309,W,2,07,1.20,58.5,M,-33.4,M,0000,0000*6F
4477,0,-4.72,-1.09,-1.52,-1.19,11.69,-3.31,0.0426,-0.0275,0.0461,-0.9976,$GPGGA,132434.600,3850.0834,N,07730.4319,W,2,07,1.20,58.6,M,-33.4,M,0000,0000*63
4478,0,-5.96,-2.57,-0.96,-1.87,6.37,-1.25,0.0405,-0.0202,0.0460,-0.9979,$GPGGA,132434.700,3850.0828,N,07730.4329,W,2,07,1.18,58.7,M,-33.4,M,0000,0000*66
4479,0,3.56,1.81,-3.07,-1.37,5.81,-0.13,0.0399,-0.0141,0.0468,-0.9980,$GPGGA,132434.800,3850.0824,N,07730.4339,W,2,07,1.18,58.8,M,-33.4,M,0000,0000*6B
4480,0,2.54,1.20,-3.50,0.25,7.87,1.69,0.0399,-0.0060,0.0483,-0.9980,$GPGGA,132434.900,3850.0818,N,07730.4350,W,2,07,1.20,58.9,M,-33.4,M,0000,0000*60
4481,0,1.32,1.02,-2.19,-2.56,-2.37,2.44,0.0412,-0.0029,0.0512,-0.9979,$GPGGA,132435.000,3850.0813,N,07730.4361,W,2,07,1.20,58.9,M,-33.4,M,0000,0000*61
4482,0,-0.24,1.20,-2.29,-4.50,-8.19,1.69,0.0430,-0.0089,0.0554,-0.9975,$GPGGA,132435.100,3850.0808,N,07730.4371,W,2,07,1.20,59.0,M,-33.4,M,0000,0000*63
4483,0,-1.63,0.72,-1.55,-6.12,-19.37,1.25,0.0452,-0.0247,0.0594,-0.9969,$GPGGA,132435.200,3850.0804,N,07730.4381,W,2,07,1.20,59.1,M,-33.4,M,0000,0000*62
4484,0,-3.35,0.32,-0.16,-7.25,-24.56,1.81,0.0477,-0.0444,0.0626,-0.9959,$GPGGA,132435.300,3850.0798,N,07730.4392,W,2,07,1.20,59.2,M,-33.4,M,0000,0000*68
4485,0,-4.32,-0.16,0.08,-6.75,-29.81,2.87,0.0513,-0.0682,0.0658,-0.9942,$GPGGA,132435.400,3850.0793,N,07730.4402,W,2,07,1.20,59.3,M,-33.4,M,0000,0000*6B
4486,0,-4.48,-0.26,-0.30,-6.12,-34.56,4.00,0.0561,-0.0966,0.0685,-0.9914,$GPGGA,132435.500,3850.0788,N,07730.4413,W,2,07,1.20,59.4,M,-33.4,M,0000,0000*67
4487,0,-5.33,-0.04,-0.20,-4.50,-44.13,1.37,0.0605,-0.1282,0.0710,-0.9874,$GPGGA,132435.600,3850.0783,N,07730.4423,W,2,07,1.20,59.5,M,-33.4,M,0000,0000*6D
4488,0,-6.54,0.00,-1.71,-3.00,-44.44,-1.19,0.0622,-0.1648,0.0726,-0.9817,$GPGGA,132435.700,3850.0778,N,07730.4434,W,2,07,1.18,59.5,M,-33.4,M,0000,0000*65
4489,0,2.99,2.66,-2.32,-4.19,-32.19,-2.00,0.0621,-0.1945,0.0754,-0.9760,$GPGGA,132435.800,3850.0773,N,07730.4444,W,2,07,1.18,59.6,M,-33.4,M,0000,0000*65
4490,0,2.96,3.40,-2.07,-5.19,-22.56,-7.94,0.0583,-0.2176,0.0784,-0.9711,$GPGGA,132435.900,3850.0768,N,07730.4455,W,2,07,1.20,59.6,M,-33.4,M,0000,0000*65
4491,0,2.57,2.64,-1.70,-4.62,-17.00,-13.81,0.0495,-0.2347,0.0799,-0.9675,$GPGGA,132436.000,3850.0763,N,07730.4466,W,2,07,1.20,59.7,M,-33.4,M,0000,0000*65
4492,0,-0.03,1.75,-1.36,-5.19,-10.38,-19.12,0.0366,-0.2504,0.0788,-0.9642,$GPGGA,132436.100,3850.0758,N,07730.4477,W,2,07,1.20,59.7,M,-33.4,M,0000,0000*6C
4493,0,-3.40,-0.75,4.91,-6.69,-9.63,-23.00,0.0194,-0.2618,0.0770,-0.9619,$GPGGA,132436.200,3850.0752,N,07730.4489,W,2,07,1.20,59.8,M,-33.4,M,0000,0000*6B
4494,0,-1.99,-1.31,4.36,-7.87,-13.63,-24.12,-0.0001,-0.2737,0.0758,-0.9589,$GPGGA,132436.300,3850.0747,N,07730.4500,W,2,07,1.20,59.8,M,-33.4,M,0000,0000*6E
4495,0,-2.85,-1.53,4.89,-9.06,-13.63,-23.00,-0.0184,-0.2832,0.0770,-0.9558,$GPGGA,132436.400,3850.0742,N,07730.4511,W,2,07,1.20,59.9,M,-33.4,M,0000,0000*6D
4496,0,-1.91,-1.63,5.13,-9.31,-13.44,-20.44,-0.0380,-0.2932,0.0802,-0.9520,$GPGGA,132436.500,3850.0737,N,07730.4523,W,2,07,1.20,60.0,M,-33.4,M,0000,0000*6C
4497,0,-2.83,-1.36,5.70,-10.25,-11.06,-17.87,-0.0562,-0.3017,0.0856,-0.9479,$GPGGA,132436.600,3850.0733,N,07730.4534,W,2,07,1.20,60.0,M,-33.4,M,0000,0000*6D
4498,0,-2.41,-1.63,5.48,-12.31,-6.50,-15.44,-0.0726,-0.3086,0.0925,-0.9439,$GPGGA,132436.700,3850.0728,N,07730.4545,W,2,07,1.18,60.1,M,-33.4,M,0000,0000*6A
4499,0,-2.37,-1.24,5.63,-14.06,-5.12,-14.44,-0.0875,-0.3143,0.1003,-0.9399,$GPGGA,132436.800,3850.0723,N,07730.4557,W,2,07,1.18,60.1,M,-33.4,M,0000,0000*6D
4500,0,-2.83,-1.64,7.15,-15.63,1.25,-14.13,-0.1024,-0.3167,0.1090,-0.9366,$GPGGA,132436.900,3850.0719,N,07730.4569,W,2,07,1.20,60.2,M,-33.4,M,0000,0000*60
4501,0,-2.28,-1.72,7.45,-17.25,13.38,-13.31,-0.1176,-0.3121,0.1174,-0.9354,$GPGGA,132437.000,3850.0716,N,07730.4582,W,2,07,1.20,60.3,M,-33.4,M,0000,0000*63
4502,0,-2.66,-1.65,7.39,-18.06,19.37,-14.13,-0.1335,-0.3014,0.1246,-0.9359,$GPGGA,132437.100,3850.0712,N,07730.4594,W,2,07,1.20,60.5,M,-33.4,M,0000,0000*67
4503,0,-1.35,-1.97,7.77,-17.62,15.50,-15.06,-0.1503,-0.2881,0.1311,-0.9366,$GPGGA,132437.200,3850.0709,N,07730.4606,W,2,07,1.20,60.6,M,-33.4,M,0000,0000*65
4504,0,-9.79,-0.02,3.16,-15.88,12.88,-15.56,-0.1677,-0.2758,0.1372,-0.9365,$GPGGA,132437.300,3850.0706,N,07730.4619,W,2,07,1.20,60.8,M,-33.4,M,0000,0000*6B
4505,0,-9.60,-0.10,3.08,-11.63,11.44,-16.37,-0.1852,-0.2656,0.1425,-0.9353,$GPGGA,132437.400,3850.0703,N,07730.4632,W,2,07,1.20,60.8,M,-33.4,M,0000,0000*60
4506,0,0.67,1.55,3.30,-13.25,9.75,-17.44,-0.2037,-0.2558,0.1484,-0.9333,$GPGGA,132437.500,3850.0700,N,07730.4644,W,2,07,1.20,60.9,M,-33.4,M,0000,0000*62
4507,0,0.77,1.09,3.65,-14.38,14.81,-16.81,-0.2220,-0.2458,0.1548,-0.9308,$GPGGA,132437.600,3850.0697,N,07730.4657,W,2,07,1.20,60.9,M,-33.4,M,0000,0000*6C
4508,0,1.01,1.31,3.91,-13.50,13.38,-15.25,-0.2398,-0.2334,0.1611,-0.9285,$GPGGA,132437.700,3850.0694,N,07730.4670,W,2,07,1.18,61.0,M,-33.4,M,0000,0000*68
4509,0,1.26,1.52,3.94,-12.75,14.63,-14.25,-0.2548,-0.2219,0.1665,-0.9264,$GPGGA,132437.800,3850.0691,N,07730.4683,W,2,07,1.18,61.0,M,-33.4,M,0000,0000*6E
4510,0,1.12,1.19,3.40,-11.69,14.19,-13.81,-0.2699,-0.2103,0.1711,-0.9240,$GPGGA,132437.900,3850.0689,N,07730.4696,W,2,07,1.20,61.1,M,-33.4,M,0000,0000*68
4511,0,1.64,1.22,3.49,-13.13,14.88,-13.50,-0.2844,-0.1989,0.1753,-0.9213,$GPGGA,132438.000,3850.0687,N,07730.4709,W,2,07,1.20,61.1,M,-33.4,M,0000,0000*67
4512,0,1.77,1.85,3.44,-14.25,15.44,-13.13,-0.2983,-0.1882,0.1795,-0.9183,$GPGGA,132438.100,3850.0688,N,07730.4721,W,2,07,1.20,61.2,M,-33.4,M,0000,0000*60
4513,0,1.56,2.12,2.24,-14.81,14.81,-11.88,-0.3117,-0.1760,0.1835,-0.9155,$GPGGA,132438.200,3850.0687,N,07730.4735,W,2,07,1.20,61.3,M,-33.4,M,0000,0000*68
4514,0,1.27,2.89,1.78,-12.75,10.44,-11.38,-0.3245,-0.1646,0.1877,-0.9124,$GPGGA,132438.300,3850.0686,N,07730.4747,W,2,07,1.20,61.3,M,-33.4,M,0000,0000*6D
4515,0,1.04,3.22,0.90,-9.25,5.75,-10.13,-0.3358,-0.1559,0.1921,-0.9089,$GPGGA,132438.400,3850.0685,N,07730.4760,W,2,07,1.18,61.3,M,-33.4,M,0000,0000*67
4516,0,1.39,3.61,0.26,-7.31,6.31,-9.38,-0.3464,-0.1478,0.1957,-0.9055,$GPGGA,132438.500,3850.0684,N,07730.4772,W,2,07,1.20,61.3,M,-33.4,M,0000,0000*6F
4517,0,-2.80,-1.07,5.11,-8.00,8.19,-10.50,-0.3563,-0.1417,0.1989,-0.9019,$GPGGA,132438.600,3850.0684,N,07730.4784,W,2,07,1.20,61.4,M,-33.4,M,0000,0000*62
4518,0,-1.45,-0.92,4.75,-9.56,7.69,-10.63,-0.3659,-0.1365,0.2020,-0.8981,$GPGGA,132438.700,3850.0683,N,07730.4796,W,2,07,1.18,61.4,M,-33.4,M,0000,0000*6C
4519,0,-0.34,-0.02,3.79,-9.75,3.37,-9.63,-0.3746,-0.1335,0.2060,-0.8941,$GPGGA,132438.800,3850.0683,N,07730.4808,W,2,07,1.18,61.4,M,-33.4,M,0000,0000*6B
4520,0,-9.14,-1.17,2.58,-6.62,-5.56,-9.81,-0.3829,-0.1331,0.2101,-0.8896,$GPGGA,132438.900,3850.0683,N,07730.4820,W,2,07,1.18,61.5,M,-33.4,M,0000,0000*61
4521,0,-8.42,-1.65,4.33,-2.56,-7.00,-8.25,-0.3896,-0.1371,0.2151,-0.8849,$GPGGA,132439.000,3850.0683,N,07730.4832,W,2,07,1.18,61.5,M,-33.4,M,0000,0000*6A
4522,0,-6.76,-2.26,5.23,-1.00,-5.06,-8.44,-0.3957,-0.1400,0.2180,-0.8811,$GPGGA,132439.100,3850.0684,N,07730.4843,W,2,07,1.18,61.6,M,-33.4,M,0000,0000*69
4523,0,-3.53,-0.92,4.29,-1.31,-0.94,-10.88,-0.4023,-0.1439,0.2197,-0.8770,$GPGGA,132439.200,3850.0685,N,07730.4855,W,2,07,1.18,61.6,M,-33.4,M,0000,0000*6C
4524,0,-1.18,-0.52,4.06,-0.56,-4.37,-12.19,-0.4102,-0.1491,0.2209,-0.8721,$GPGGA,132439.300,3850.0685,N,07730.4866,W,2,07,1.18,61.7,M,-33.4,M,0000,0000*6C
4525,0,2.69,1.30,2.33,-3.12,-2.37,-13.19,-0.4186,-0.1545,0.2218,-0.8670,$GPGGA,132439.400,3850.0687,N,07730.4878,W,2,07,1.18,61.7,M,-33.4,M,0000,0000*66
4526,0,2.46,1.27,2.39,-2.37,-7.69,-12.75,-0.4266,-0.1623,0.2233,-0.8613,$GPGGA,132439.500,3850.0690,N,07730.4888,W,2,07,1.20,61.6,M,-33.4,M,0000,0000*64
4527,0,2.26,3.24,-2.00,1.62,-21.25,-13.81,-0.4332,-0.1729,0.2255,-0.8553,$GPGGA,132439.600,3850.0693,N,07730.4899,W,2,07,1.20,61.6,M,-33.4,M,0000,0000*64
4528,0,-2.08,2.31,-2.95,0.44,-16.06,-16.87,-0.4405,-0.1896,0.2291,-0.8470,$GPGGA,132439.700,3850.0697,N,07730.4909,W,2,07,1.18,61.6,M,-33.4,M,0000,0000*62
4529,0,-6.94,0.42,-1.16,-2.75,-5.56,-17.94,-0.4503,-0.2023,0.2315,-0.8383,$GPGGA,132439.800,3850.0702,N,07730.4918,W,2,07,1.20,61.8,M,-33.4,M,0000,0000*65
4530,0,-6.04,-0.18,-1.25,-2.50,-7.50,-18.50,-0.4614,-0.2117,0.2327,-0.8296,$GPGGA,132439.900,3850.0708,N,07730.4927,W,2,07,1.20,61.9,M,-33.4,M,0000,0000*63
4531,0,1.15,1.23,0.08,-1.12,-10.06,-19.31,-0.4733,-0.2210,0.2336,-0.8201,$GPGGA,132440.000,3850.0713,N,07730.4937,W,2,07,1.20,62.0,M,-33.4,M,0000,0000*65
4532,0,-0.12,2.51,-2.44,-0.69,-1.62,-19.50,-0.4866,-0.2269,0.2325,-0.8110,$GPGGA,132440.100,3850.0718,N,07730.4946,W,2,07,1.20,62.2,M,-33.4,M,0000,0000*6B
4533,0,-4.90,1.68,-2.69,-5.75,4.37,-19.81,-0.5015,-0.2272,0.2308,-0.8022,$GPGGA,132440.200,3850.0722,N,07730.4956,W,2,07,1.20,62.3,M,-33.4,M,0000,0000*61
4534,0,0.99,0.52,1.33,-12.13,9.31,-20.50,-0.5179,-0.2223,0.2299,-0.7934,$GPGGA,132440.300,3850.0726,N,07730.4966,W,2,07,1.20,62.4,M,-33.4,M,0000,0000*60
4535,0,-0.67,2.04,-0.81,-14.38,6.00,-19.19,-0.5346,-0.2164,0.2308,-0.7836,$GPGGA,132440.400,3850.0730,N,07730.4976,W,2,07,1.20,62.6,M,-33.4,M,0000,0000*63
4536,0,-1.23,1.56,0.00,-14.94,6.81,-18.31,-0.5511,-0.2083,0.2332,-0.7736,$GPGGA,132440.500,3850.0735,N,07730.4985,W,2,07,1.20,62.7,M,-33.4,M,0000,0000*6A
4537,0,-0.29,2.00,1.39,-17.87,7.62,-17.56,-0.5669,-0.1998,0.2371,-0.7632,$GPGGA,132440.600,3850.0743,N,07730.4993,W,2,07,1.20,63.0,M,-33.4,M,0000,0000*69
4538,0,0.19,1.78,2.13,-18.00,7.50,-16.44,-0.5821,-0.1896,0.2407,-0.7532,$GPGGA,132440.700,3850.0747,N,07730.5003,W,2,07,1.20,63.1,M,-33.4,M,0000,0000*6C
4539,0,1.04,0.73,3.28,-16.19,11.25,-14.81,-0.5966,-0.1781,0.2431,-0.7438,$GPGGA,132440.800,3850.0754,N,07730.5011,W,2,07,1.20,63.4,M,-33.4,M,0000,0000*67
4540,0,0.44,0.24,4.12,-11.44,9.94,-13.25,-0.6089,-0.1663,0.2432,-0.7365,$GPGGA,132440.900,3850.0762,N,07730.5019,W,2,07,1.20,63.7,M,-33.4,M,0000,0000*68
4541,0,-1.27,-1.10,5.34,-11.19,7.06,-12.75,-0.6213,-0.1550,0.2443,-0.7282,$GPGGA,132441.000,3850.0770,N,07730.5026,W,2,07,1.20,63.9,M,-33.4,M,0000,0000*61
4542,0,-3.23,-2.16,6.42,-12.44,14.50,-12.81,-0.6339,-0.1426,0.2448,-0.7197,$GPGGA,132441.100,3850.0777,N,07730.5034,W,2,07,1.20,64.1,M,-33.4,M,0000,0000*6B
4543,0,-4.36,-2.76,6.18,-12.44,16.56,-13.19,-0.6471,-0.1270,0.2430,-0.7114,$GPGGA,132441.200,3850.0783,N,07730.5042,W,2,07,1.20,64.2,M,-33.4,M,0000,0000*61
4544,0,-7.81,-3.82,7.59,-13.50,10.75,-13.38,-0.6601,-0.1120,0.2424,-0.7021,$GPGGA,132441.300,3850.0790,N,07730.5049,W,2,07,1.20,64.3,M,-33.4,M,0000,0000*68
4545,0,-2.04,2.34,1.00,-11.75,13.19,-13.69,-0.6726,-0.0979,0.2419,-0.6924,$GPGGA,132441.400,3850.0797,N,07730.5057,W,2,07,1.20,64.5,M,-33.4,M,0000,0000*61
4546,0,0.24,2.96,0.71,-8.06,9.38,-12.44,-0.6836,-0.0875,0.2406,-0.6835,$GPGGA,132441.500,3850.0804,N,07730.5064,W,2,07,1.20,64.6,M,-33.4,M,0000,0000*66
4547,0,1.21,2.33,1.08,-6.44,5.00,-12.38,-0.6929,-0.0812,0.2405,-0.6749,$GPGGA,132441.600,3850.0812,N,07730.5071,W,2,07,1.20,64.7,M,-33.4,M,0000,0000*67
4548,0,-8.15,-2.69,5.41,-6.31,5.12,-11.69,-0.7010,-0.0767,0.2415,-0.6666,$GPGGA,132441.700,3850.0819,N,07730.5078,W,2,07,1.20,64.8,M,-33.4,M,0000,0000*6B
4549,0,-9.00,-2.12,4.94,-6.25,3.87,-11.81,-0.7088,-0.0726,0.2423,-0.6584,$GPGGA,132441.800,3850.0826,N,07730.5084,W,2,07,1.20,65.0,M,-33.4,M,0000,0000*62
4550,0,-8.58,-1.63,3.39,-6.44,6.75,-12.13,-0.7166,-0.0693,0.2432,-0.6501,$GPGGA,132441.900,3850.0834,N,07730.5089,W,2,07,1.20,65.1,M,-33.4,M,0000,0000*6C
4551,0,-7.90,0.28,1.31,-7.87,2.69,-13.06,-0.7242,-0.0663,0.2448,-0.6412,$GPGGA,132442.000,3850.0842,N,07730.5094,W,2,07,1.20,65.2,M,-33.4,M,0000,0000*68
4552,0,-6.43,0.81,0.03,-8.75,5.94,-12.44,-0.7316,-0.0628,0.2469,-0.6323,$GPGGA,132442.100,3850.0851,N,07730.5098,W,2,07,1.20,65.3,M,-33.4,M,0000,0000*66
4553,0,-4.00,2.64,-1.20,-9.50,1.00,-12.63,-0.7379,-0.0604,0.2502,-0.6240,$GPGGA,132442.200,3850.0859,N,07730.5102,W,2,07,1.20,65.4,M,-33.4,M,0000,0000*68
4554,0,-1.65,2.60,-0.10,-11.44,0.37,-11.94,-0.7439,-0.0584,0.2564,-0.6144,$GPGGA,132442.300,3850.0868,N,07730.5106,W,2,07,1.20,65.6,M,-33.4,M,0000,0000*6D
4555,0,0.90,3.32,0.24,-12.25,1.06,-11.44,-0.7496,-0.0556,0.2626,-0.6049,$GPGGA,132442.400,3850.0877,N,07730.5110,W,2,07,1.20,65.7,M,-33.4,M,0000,0000*62
4556,0,0.75,1.78,2.17,-11.44,2.25,-11.94,-0.7554,-0.0526,0.2679,-0.5956,$GPGGA,132442.500,3850.0886,N,07730.5114,W,2,07,1.20,65.8,M,-33.4,M,0000,0000*66
4557,0,1.53,1.52,3.12,-10.69,-3.87,-13.38,-0.7610,-0.0520,0.2748,-0.5854,$GPGGA,132442.600,3850.0895,N,07730.5117,W,2,07,1.20,65.9,M,-33.4,M,0000,0000*65
4558,0,-0.39,0.03,4.25,-9.31,0.13,-14.13,-0.7671,-0.0521,0.2803,-0.5748,$GPGGA,132442.700,3850.0903,N,07730.5120,W,2,07,1.20,66.0,M,-33.4,M,0000,0000*64
4559,0,-2.01,-0.85,4.52,-9.38,-0.25,-15.19,-0.7737,-0.0520,0.2846,-0.5637,$GPGGA,132442.800,3850.0912,N,07730.5124,W,2,07,1.20,66.1,M,-33.4,M,0000,0000*6E
4560,0,-7.37,0.24,0.71,-9.88,-3.87,-13.88,-0.7795,-0.0535,0.2907,-0.5523,$GPGGA,132442.900,3850.0920,N,07730.5126,W,2,07,1.20,66.2,M,-33.4,M,0000,0000*6F
4561,0,-6.31,0.43,0.36,-8.63,-8.88,-13.63,-0.7841,-0.0562,0.2984,-0.5413,$GPGGA,132443.000,3850.0929,N,07730.5128,W,2,07,1.20,66.4,M,-33.4,M,0000,0000*66
4562,0,-0.94,0.51,3.07,-5.44,-13.31,-12.38,-0.7875,-0.0602,0.3080,-0.5303,$GPGGA,132443.100,3850.0938,N,07730.5130,W,2,07,1.20,66.5,M,-33.4,M,0000,0000*6F
4563,0,-2.26,-0.66,3.25,-6.69,-13.38,-12.88,-0.7908,-0.0638,0.3176,-0.5193,$GPGGA,132443.200,3850.0947,N,07730.5131,W,2,07,1.20,66.6,M,-33.4,M,0000,0000*66
4564,0,-2.37,-0.75,4.84,-6.81,-6.81,-13.81,-0.7946,-0.0657,0.3242,-0.5091,$GPGGA,132443.300,3850.0956,N,07730.5132,W,2,07,1.20,66.8,M,-33.4,M,0000,0000*6A
4565,0,-3.89,-0.53,3.77,-4.81,-7.19,-15.38,-0.7996,-0.0679,0.3303,-0.4969,$GPGGA,132443.400,3850.0965,N,07730.5133,W,2,07,1.20,66.9,M,-33.4,M,0000,0000*6D
4566,0,-5.42,-1.30,4.38,-5.87,-6.12,-16.94,-0.8055,-0.0696,0.3358,-0.4833,$GPGGA,132443.500,3850.0975,N,07730.5134,W,2,07,1.20,67.0,M,-33.4,M,0000,0000*62
4567,0,-7.43,-2.26,4.54,-6.19,-7.44,-18.44,-0.8121,-0.0711,0.3408,-0.4683,$GPGGA,132443.600,3850.0984,N,07730.5134,W,2,07,1.20,67.2,M,-33.4,M,0000,0000*6D
4568,0,-7.62,-2.66,4.62,-7.44,-4.81,-19.44,-0.8189,-0.0725,0.3460,-0.4521,$GPGGA,132443.700,3850.0993,N,07730.5134,W,2,07,1.20,67.3,M,-33.4,M,0000,0000*6B
4569,0,-8.76,-2.44,4.52,-8.00,-1.50,-21.00,-0.8265,-0.0727,0.3499,-0.4351,$GPGGA,132443.800,3850.1002,N,07730.5134,W,2,07,1.20,67.4,M,-33.4,M,0000,0000*63
4570,0,-9.49,-2.47,5.08,-10.75,8.06,-23.19,-0.8366,-0.0698,0.3489,-0.4165,$GPGGA,132443.900,3850.1011,N,07730.5132,W,2,07,1.20,67.6,M,-33.4,M,0000,0000*64
4571,0,-9.14,-2.27,4.53,-12.38,4.25,-24.37,-0.8477,-0.0659,0.3468,-0.3959,$GPGGA,132444.000,3850.1021,N,07730.5129,W,2,07,1.20,67.8,M,-33.4,M,0000,0000*6D
4572,0,-10.99,-2.71,5.48,-13.69,4.50,-24.25,-0.8571,-0.0627,0.3478,-0.3748,$GPGGA,132444.100,3850.1030,N,07730.5128,W,2,07,1.20,67.9,M,-33.4,M,0000,0000*6C
4573,0,-9.82,-1.06,3.95,-17.87,-0.50,-22.00,-0.8652,-0.0583,0.3506,-0.3538,$GPGGA,132444.200,3850.1039,N,07730.5126,W,2,07,1.20,68.0,M,-33.4,M,0000,0000*6E
4574,0,-8.79,-0.79,3.82,-18.50,1.56,-20.50,-0.8712,-0.0538,0.3560,-0.3339,$GPGGA,132444.300,3850.1048,N,07730.5123,W,2,07,1.20,68.1,M,-33.4,M,0000,0000*6D
4575,0,-10.00,-3.18,7.11,-18.00,0.69,-20.00,-0.8772,-0.0482,0.3599,-0.3140,$GPGGA,132444.400,3850.1057,N,07730.5120,W,2,07,1.20,68.2,M,-33.4,M,0000,0000*64
4576,0,-10.05,-2.78,5.97,-18.44,12.69,-19.62,-0.8844,-0.0406,0.3598,-0.2946,$GPGGA,132444.500,3850.1066,N,07730.5116,W,2,07,1.20,68.2,M,-33.4,M,0000,0000*62
4577,0,-9.92,-1.50,4.67,-19.69,20.12,-18.81,-0.8942,-0.0297,0.3513,-0.2758,$GPGGA,132444.600,3850.1075,N,07730.5112,W,2,07,1.20,68.3,M,-33.4,M,0000,0000*66
4578,0,-8.61,-0.90,3.49,-18.31,20.81,-17.81,-0.9034,-0.0192,0.3409,-0.2596,$GPGGA,132444.700,3850.1084,N,07730.5108,W,2,07,1.20,68.4,M,-33.4,M,0000,0000*65
4579,0,-8.87,-0.85,2.43,-17.69,15.69,-17.81,-0.9120,-0.0084,0.3310,-0.2420,$GPGGA,132444.800,3850.1093,N,07730.5103,W,2,07,1.20,68.4,M,-33.4,M,0000,0000*67
4580,0,-7.06,0.66,2.20,-17.87,9.94,-17.75,-0.9191,0.0015,0.3242,-0.2239,$GPGGA,132444.900,3850.1101,N,07730.5096,W,2,07,1.20,68.5,M,-33.4,M,0000,0000*60
4581,0,-5.23,1.95,1.74,-16.12,7.62,-17.44,-0.9249,0.0107,0.3194,-0.2061,$GPGGA,132445.000,3850.1110,N,07730.5089,W,2,07,1.20,68.6,M,-33.4,M,0000,0000*65
4582,0,-2.24,2.26,2.06,-16.56,6.06,-15.25,-0.9291,0.0193,0.3173,-0.1891,$GPGGA,132445.100,3850.1117,N,07730.5080,W,2,07,1.20,68.7,M,-33.4,M,0000,0000*6B
4583,0,-0.33,1.49,3.66,-13.69,8.69,-12.69,-0.9329,0.0275,0.3137,-0.1747,$GPGGA,132445.200,3850.1125,N,07730.5072,W,2,07,1.20,68.8,M,-33.4,M,0000,0000*6B
4584,0,0.14,0.40,4.87,-10.94,13.81,-12.94,-0.9375,0.0345,0.3063,-0.1615,$GPGGA,132445.300,3850.1133,N,07730.5063,W,2,07,1.20,68.9,M,-33.4,M,0000,0000*6C
4585,0,-1.77,-1.58,6.29,-4.94,17.19,-13.56,-0.9432,0.0396,0.2946,-0.1484,$GPGGA,132445.400,3850.1140,N,07730.5054,W,2,07,1.20,69.0,M,-33.4,M,0000,0000*63
4586,0,-5.26,-2.60,6.16,-3.75,19.50,-14.63,-0.9497,0.0428,0.2795,-0.1346,$GPGGA,132445.500,3850.1148,N,07730.5044,W,2,07,1.20,69.1,M,-33.4,M,0000,0000*6A
4587,0,-7.40,-3.18,5.69,-1.19,12.88,-15.75,-0.9553,0.0446,0.2664,-0.1205,$GPGGA,132445.600,3850.1155,N,07730.5035,W,2,07,1.20,69.2,M,-33.4,M,0000,0000*60
4588,0,-9.55,-2.28,3.65,-0.13,6.25,-16.37,-0.9587,0.0436,0.2601,-0.1061,$GPGGA,132445.700,3850.1162,N,07730.5026,W,2,07,1.20,69.3,M,-33.4,M,0000,0000*66
4589,0,-7.02,-3.48,4.87,-0.06,5.31,-14.94,-0.9616,0.0424,0.2550,-0.0924,$GPGGA,132445.800,3850.1169,N,07730.5017,W,2,07,1.20,69.5,M,-33.4,M,0000,0000*66
4590,0,-9.42,-2.99,3.90,-0.56,18.56,-12.19,-0.9653,0.0422,0.2448,-0.0802,$GPGGA,132445.900,3850.1175,N,07730.5006,W,2,07,1.20,69.7,M,-33.4,M,0000,0000*68
4591,0,-8.49,-1.22,1.60,-0.69,28.25,-9.81,-0.9711,0.0435,0.2241,-0.0697,$GPGGA,132446.000,3850.1182,N,07730.4995,W,2,07,1.20,69.9,M,-33.4,M,0000,0000*66
