0,0,0.26,-0.57,0.07,-1.00,4.75,1.00,-0.7155,0.0499,0.0966,0.6901,$GPGGA,211428.400,4042.0710,N,07421.8323,W,2,08,1.00,99.3,M,-34.2,M,0000,0000*69
1,0,0.18,-0.86,0.42,7.25,-6.00,1.12,-0.7161,0.0483,0.0959,0.6896,$GPGGA,211428.500,4042.0707,N,07421.8328,W,2,08,1.00,99.3,M,-34.2,M,0000,0000*65
2,0,0.17,-0.74,0.66,-0.06,0.62,0.00,-0.7159,0.0530,0.1041,0.6884,$GPGGA,211428.600,4042.0704,N,07421.8332,W,2,08,1.00,99.3,M,-34.2,M,0000,0000*6E
3,0,0.23,-0.37,0.05,0.25,-0.62,-0.31,-0.7161,0.0540,0.1023,0.6884,$GPGGA,211428.700,4042.0700,N,07421.8336,W,2,08,1.00,99.4,M,-34.2,M,0000,0000*68
4,0,0.14,-0.49,-0.44,2.19,-3.19,-0.31,-0.7164,0.0572,0.1005,0.6880,$GPGGA,211428.800,4042.0697,N,07421.8341,W,2,08,1.00,99.4,M,-34.2,M,0000,0000*68
5,0,-0.01,-0.32,-0.36,0.75,-0.62,-0.25,-0.7167,0.0589,0.0995,0.6877,$GPGGA,211428.900,4042.0693,N,07421.8346,W,2,08,1.00,99.4,M,-34.2,M,0000,0000*6A
6,0,-0.31,-0.60,-0.01,-0.88,1.31,-0.13,-0.7167,0.0589,0.0986,0.6879,$GPGGA,211429.000,4042.0690,N,07421.8350,W,2,08,1.00,99.4,M,-34.2,M,0000,0000*66
7,0,-0.33,-0.31,0.04,-0.94,0.13,-0.50,-0.7172,0.0585,0.0943,0.6880,$GPGGA,211429.100,4042.0686,N,07421.8354,W,2,08,1.00,99.5,M,-34.2,M,0000,0000*65
8,0,-0.48,-0.26,-0.06,-1.56,0.69,-0.44,-0.7177,0.0583,0.0889,0.6882,$GPGGA,211429.200,4042.0682,N,07421.8359,W,2,08,1.00,99.5,M,-34.2,M,0000,0000*6F
9,0,-0.22,-0.39,0.17,-0.69,-0.13,-0.81,-0.7181,0.0594,0.0824,0.6885,$GPGGA,211429.300,4042.0678,N,07421.8363,W,2,08,1.00,99.5,M,-34.2,M,0000,0000*62
10,0,-0.13,-0.45,0.09,-0.50,0.19,-1.00,-0.7180,0.0602,0.0785,0.6890,$GPGGA,211429.400,4042.0674,N,07421.8368,W,2,08,1.00,99.5,M,-34.2,M,0000,0000*62
11,0,-0.27,-0.35,0.59,-1.44,2.75,-1.37,-0.7174,0.0608,0.0756,0.6898,$GPGGA,211429.500,4042.0670,N,07421.8373,W,2,08,1.00,99.5,M,-34.2,M,0000,0000*6D
12,0,-0.36,-0.74,-0.29,-1.00,1.06,-1.94,-0.7166,0.0605,0.0736,0.6910,$GPGGA,211429.600,4042.0666,N,07421.8377,W,2,08,1.00,99.6,M,-34.2,M,0000,0000*6E
13,0,-0.21,-0.52,0.02,-2.94,1.12,-2.19,-0.7156,0.0621,0.0693,0.6923,$GPGGA,211429.700,4042.0662,N,07421.8383,W,2,08,1.00,99.6,M,-34.2,M,0000,0000*60
14,0,-0.12,-0.41,0.13,-0.56,-0.56,-2.37,-0.7144,0.0648,0.0660,0.6936,$GPGGA,211429.800,4042.0657,N,07421.8388,W,2,08,1.00,99.6,M,-34.2,M,0000,0000*62
15,0,0.10,-0.44,0.77,-0.69,-1.19,-2.37,-0.7131,0.0671,0.0641,0.6949,$GPGGA,211429.900,4042.0652,N,07421.8393,W,2,08,1.00,99.6,M,-34.2,M,0000,0000*6C
16,0,0.03,-0.31,0.48,-0.13,-0.88,-2.19,-0.7119,0.0694,0.0630,0.6960,$GPGGA,211430.000,4042.0648,N,07421.8399,W,2,08,1.00,99.7,M,-34.2,M,0000,0000*6D
17,0,0.03,-0.16,0.32,1.62,-1.94,-1.44,-0.7108,0.0706,0.0628,0.6970,$GPGGA,211430.100,4042.0643,N,07421.8405,W,2,08,1.00,99.7,M,-34.2,M,0000,0000*65
18,0,-0.09,0.18,-0.10,1.12,-1.94,-0.25,-0.7104,0.0705,0.0635,0.6974,$GPGGA,211430.200,4042.0639,N,07421.8411,W,2,08,1.00,99.7,M,-34.2,M,0000,0000*6E
19,0,0.18,0.43,-0.07,1.44,-0.88,0.19,-0.7104,0.0696,0.0647,0.6973,$GPGGA,211430.300,4042.0634,N,07421.8416,W,2,08,1.00,99.7,M,-34.2,M,0000,0000*65
20,0,0.35,0.56,0.27,-0.06,-1.25,0.00,-0.7104,0.0694,0.0660,0.6973,$GPGGA,211430.400,4042.0630,N,07421.8422,W,2,08,1.00,99.8,M,-34.2,M,0000,0000*6E
21,0,0.08,0.36,-0.01,1.75,-2.31,-0.06,-0.7103,0.0696,0.0665,0.6973,$GPGGA,211430.500,4042.0625,N,07421.8427,W,2,08,1.00,99.8,M,-34.2,M,0000,0000*6E
22,0,0.16,-0.23,0.29,-0.94,-2.06,0.00,-0.7102,0.0707,0.0660,0.6973,$GPGGA,211430.600,4042.0620,N,07421.8433,W,2,08,1.00,99.8,M,-34.2,M,0000,0000*6D
23,0,0.07,-0.06,-0.43,-0.62,0.00,-0.06,-0.7101,0.0722,0.0663,0.6973,$GPGGA,211430.700,4042.0615,N,07421.8438,W,2,08,1.01,99.8,M,-34.2,M,0000,0000*60
24,0,0.13,-0.02,0.32,1.12,0.44,0.00,-0.7101,0.0716,0.0660,0.6973,$GPGGA,211430.800,4042.0610,N,07421.8444,W,2,08,1.00,99.8,M,-34.2,M,0000,0000*60
25,0,0.06,-0.13,-0.18,3.87,5.56,0.13,-0.7106,0.0674,0.0649,0.6974,$GPGGA,211430.900,4042.0606,N,07421.8450,W,2,08,1.00,99.8,M,-34.2,M,0000,0000*63
26,0,-0.13,0.06,-0.60,1.69,0.19,0.19,-0.7108,0.0648,0.0656,0.6973,$GPGGA,211431.000,4042.0601,N,07421.8456,W,2,08,1.01,99.9,M,-34.2,M,0000,0000*6A
27,0,-0.17,0.16,0.24,2.69,-2.31,0.25,-0.7109,0.0633,0.0672,0.6972,$GPGGA,211431.100,4042.0596,N,07421.8462,W,2,08,1.01,99.9,M,-34.2,M,0000,0000*61
28,0,-0.30,0.11,-0.14,-0.31,-2.25,0.37,-0.7109,0.0627,0.0677,0.6971,$GPGGA,211431.200,4042.0591,N,07421.8468,W,2,08,1.00,99.9,M,-34.2,M,0000,0000*6E
29,0,-0.06,0.22,0.88,-0.25,-2.37,0.00,-0.7109,0.0634,0.0681,0.6971,$GPGGA,211431.300,4042.0586,N,07421.8474,W,2,08,1.00,99.9,M,-34.2,M,0000,0000*64
30,0,-0.06,0.70,0.79,-2.44,1.81,0.06,-0.7108,0.0645,0.0670,0.6973,$GPGGA,211431.400,4042.0581,N,07421.8480,W,2,08,1.00,99.9,M,-34.2,M,0000,0000*6F
31,0,-0.14,0.14,0.67,-1.00,0.37,0.25,-0.7107,0.0652,0.0657,0.6974,$GPGGA,211431.500,4042.0575,N,07421.8487,W,2,08,1.00,99.9,M,-34.2,M,0000,0000*62
32,0,-0.25,0.31,0.45,-0.75,-0.56,0.25,-0.7106,0.0659,0.0654,0.6974,$GPGGA,211431.600,4042.0570,N,07421.8493,W,2,08,1.01,99.9,M,-34.2,M,0000,0000*60
33,0,-0.25,0.18,-0.07,-1.31,-0.75,0.50,-0.7105,0.0668,0.0652,0.6974,$GPGGA,211431.700,4042.0565,N,07421.8500,W,2,08,1.01,99.9,M,-34.2,M,0000,0000*6E
34,0,-0.23,0.36,0.29,-1.56,0.56,0.37,-0.7107,0.0670,0.0637,0.6974,$GPGGA,211431.800,4042.0560,N,07421.8507,W,2,08,1.00,99.9,M,-34.2,M,0000,0000*62
35,0,-0.18,0.29,-0.56,-0.94,1.81,0.69,-0.7109,0.0656,0.0620,0.6974,$GPGGA,211431.900,4042.0554,N,07421.8514,W,2,08,1.00,100.0,M,-34.2,M,0000,0000*5E
36,0,-0.07,-0.12,0.03,-0.81,-0.62,0.75,-0.7112,0.0649,0.0606,0.6973,$GPGGA,211432.000,4042.0549,N,07421.8521,W,2,08,1.00,100.0,M,-34.2,M,0000,0000*5E
37,0,-0.10,0.09,0.27,-0.94,-0.56,0.62,-0.7114,0.0657,0.0604,0.6970,$GPGGA,211432.100,4042.0543,N,07421.8529,W,2,08,1.01,100.0,M,-34.2,M,0000,0000*5C
38,0,-0.03,0.01,0.66,0.44,-1.75,0.75,-0.7119,0.0652,0.0602,0.6966,$GPGGA,211432.200,4042.0538,N,07421.8536,W,2,08,1.00,100.0,M,-34.2,M,0000,0000*5C
39,0,-0.16,0.31,0.14,0.50,0.69,0.81,-0.7125,0.0652,0.0602,0.6960,$GPGGA,211432.300,4042.0533,N,07421.8544,W,2,08,1.00,100.1,M,-34.2,M,0000,0000*52
40,0,-0.14,0.35,0.30,-0.13,0.19,1.06,-0.7130,0.0651,0.0596,0.6956,$GPGGA,211432.400,4042.0527,N,07421.8551,W,2,08,1.00,100.1,M,-34.2,M,0000,0000*54
41,0,-0.26,0.19,-0.35,-1.06,1.81,1.00,-0.7137,0.0642,0.0577,0.6951,$GPGGA,211432.500,4042.0521,N,07421.8558,W,2,08,1.01,100.1,M,-34.2,M,0000,0000*5B
42,0,-0.22,0.41,-0.43,-0.31,1.25,1.00,-0.7143,0.0624,0.0561,0.6948,$GPGGA,211432.600,4042.0516,N,07421.8566,W,2,08,1.01,100.1,M,-34.2,M,0000,0000*51
43,0,-0.41,0.28,-0.13,-0.13,0.19,1.06,-0.7149,0.0614,0.0543,0.6944,$GPGGA,211432.700,4042.0510,N,07421.8574,W,2,08,1.00,100.1,M,-34.2,M,0000,0000*54
44,0,-0.54,0.07,0.20,-0.06,-0.56,1.31,-0.7157,0.0597,0.0532,0.6938,$GPGGA,211432.800,4042.0504,N,07421.8582,W,2,08,1.00,100.1,M,-34.2,M,0000,0000*57
45,0,-0.49,0.40,0.63,0.13,-1.12,1.87,-0.7167,0.0574,0.0538,0.6929,$GPGGA,211432.900,4042.0498,N,07421.8589,W,2,08,1.00,100.1,M,-34.2,M,0000,0000*59
46,0,-0.58,0.73,0.02,0.81,-0.81,2.00,-0.7179,0.0565,0.0539,0.6918,$GPGGA,211433.000,4042.0492,N,07421.8597,W,2,08,1.00,100.2,M,-34.2,M,0000,0000*57
47,0,-0.48,0.30,0.85,-0.06,0.62,1.87,-0.7191,0.0565,0.0537,0.6906,$GPGGA,211433.100,4042.0486,N,07421.8604,W,2,08,1.00,100.2,M,-34.2,M,0000,0000*5A
48,0,-0.65,0.18,0.41,-0.25,1.00,1.94,-0.7202,0.0560,0.0529,0.6895,$GPGGA,211433.200,4042.0480,N,07421.8612,W,2,08,1.00,100.2,M,-34.2,M,0000,0000*58
49,0,-0.39,0.43,-0.03,-1.94,1.44,1.69,-0.7213,0.0528,0.0511,0.6888,$GPGGA,211433.300,4042.0474,N,07421.8620,W,2,08,1.00,100.2,M,-34.2,M,0000,0000*53
50,0,-0.73,-0.08,0.05,0.19,2.69,1.56,-0.7223,0.0516,0.0502,0.6878,$GPGGA,211433.400,4042.0467,N,07421.8627,W,2,08,1.00,100.2,M,-34.2,M,0000,0000*51
51,0,-0.57,0.39,-0.82,-0.37,0.00,1.69,-0.7233,0.0511,0.0493,0.6868,$GPGGA,211433.500,4042.0461,N,07421.8635,W,2,08,1.00,100.2,M,-34.2,M,0000,0000*55
52,0,-0.27,0.19,-0.12,2.12,1.00,1.81,-0.7245,0.0503,0.0494,0.6857,$GPGGA,211433.600,4042.0455,N,07421.8642,W,2,08,1.00,100.2,M,-34.2,M,0000,0000*51
53,0,-0.46,0.45,0.15,1.06,-0.88,1.69,-0.7255,0.0487,0.0500,0.6846,$GPGGA,211433.700,4042.0448,N,07421.8650,W,2,08,1.00,100.2,M,-34.2,M,0000,0000*5F
54,0,-0.42,0.51,-0.10,1.44,0.13,2.00,-0.7266,0.0469,0.0504,0.6837,$GPGGA,211433.800,4042.0442,N,07421.8657,W,2,08,1.00,100.2,M,-34.2,M,0000,0000*5D
55,0,-0.10,0.44,0.32,-0.50,-0.44,1.69,-0.7275,0.0446,0.0508,0.6827,$GPGGA,211433.900,4042.0435,N,07421.8665,W,2,08,1.00,100.2,M,-34.2,M,0000,0000*5D
56,0,-0.22,0.19,0.16,-1.50,0.81,1.62,-0.7286,0.0452,0.0498,0.6816,$GPGGA,211434.000,4042.0429,N,07421.8672,W,2,08,1.00,100.1,M,-34.2,M,0000,0000*5B
57,0,-0.25,0.39,-0.11,-2.19,1.75,1.62,-0.7294,0.0453,0.0483,0.6808,$GPGGA,211434.100,4042.0422,N,07421.8680,W,2,08,1.00,100.1,M,-34.2,M,0000,0000*5C
58,0,-0.26,0.42,0.05,-3.62,0.06,1.44,-0.7302,0.0441,0.0468,0.6802,$GPGGA,211434.200,4042.0415,N,07421.8688,W,2,08,1.00,100.1,M,-34.2,M,0000,0000*53
59,0,-0.34,0.13,0.47,1.94,-1.37,1.56,-0.7311,0.0446,0.0479,0.6791,$GPGGA,211434.300,4042.0408,N,07421.8695,W,2,08,1.00,100.1,M,-34.2,M,0000,0000*52
60,0,-0.22,0.37,-0.83,-4.19,-0.69,2.44,-0.7321,0.0466,0.0476,0.6780,$GPGGA,211434.400,4042.0402,N,07421.8703,W,2,08,1.00,100.1,M,-34.2,M,0000,0000*51
61,0,-0.10,0.18,0.55,3.69,-1.75,3.06,-0.7338,0.0461,0.0488,0.6761,$GPGGA,211434.500,4042.0395,N,07421.8711,W,2,08,1.00,100.1,M,-34.2,M,0000,0000*5A
62,0,-0.56,1.00,-0.17,-1.75,2.75,2.94,-0.7354,0.0457,0.0468,0.6745,$GPGGA,211434.600,4042.0388,N,07421.8719,W,2,08,1.00,100.1,M,-34.2,M,0000,0000*5D
63,0,-0.32,0.56,-0.49,-0.88,0.81,3.75,-0.7372,0.0413,0.0475,0.6728,$GPGGA,211434.700,4042.0382,N,07421.8727,W,2,08,1.00,100.1,M,-34.2,M,0000,0000*5B
64,0,-0.46,0.77,0.92,-3.12,1.69,4.06,-0.7394,0.0417,0.0469,0.6703,$GPGGA,211434.800,4042.0375,N,07421.8735,W,2,08,1.00,100.1,M,-34.2,M,0000,0000*5F
65,0,-0.35,0.12,0.57,-2.75,3.31,4.06,-0.7416,0.0427,0.0441,0.6680,$GPGGA,211434.900,4042.0368,N,07421.8742,W,2,08,1.00,100.0,M,-34.2,M,0000,0000*53
66,0,-0.65,1.26,-1.66,0.13,1.56,4.06,-0.7439,0.0424,0.0428,0.6656,$GPGGA,211435.000,4042.0361,N,07421.8750,W,2,08,1.00,100.0,M,-34.2,M,0000,0000*51
67,0,-0.08,0.57,-0.81,1.87,2.44,4.31,-0.7462,0.0421,0.0403,0.6631,$GPGGA,211435.100,4042.0354,N,07421.8758,W,2,08,1.01,100.0,M,-34.2,M,0000,0000*5F
68,0,-0.40,0.14,0.05,0.37,3.94,3.94,-0.7489,0.0392,0.0397,0.6603,$GPGGA,211435.200,4042.0347,N,07421.8766,W,2,08,1.00,100.0,M,-34.2,M,0000,0000*52
69,0,-0.77,0.74,-0.05,0.25,-0.44,3.37,-0.7512,0.0377,0.0400,0.6578,$GPGGA,211435.300,4042.0340,N,07421.8773,W,2,07,1.04,99.9,M,-34.2,M,0000,0000*63
70,0,-0.58,1.03,0.94,-1.50,-3.69,2.94,-0.7529,0.0379,0.0408,0.6558,$GPGGA,211435.400,4042.0333,N,07421.8781,W,2,07,1.02,99.9,M,-34.2,M,0000,0000*6B
71,0,-0.46,0.36,-0.30,-2.25,-4.62,2.62,-0.7542,0.0417,0.0412,0.6540,$GPGGA,211435.500,4042.0326,N,07421.8789,W,2,07,1.02,99.9,M,-34.2,M,0000,0000*66
72,0,-0.49,0.20,0.72,-2.06,1.94,2.87,-0.7557,0.0428,0.0402,0.6523,$GPGGA,211435.600,4042.0318,N,07421.8797,W,2,07,1.02,99.9,M,-34.2,M,0000,0000*67
73,0,-0.55,0.08,0.11,0.81,2.37,3.44,-0.7575,0.0426,0.0394,0.6503,$GPGGA,211435.700,4042.0311,N,07421.8805,W,2,08,1.00,99.8,M,-34.2,M,0000,0000*67
74,0,-0.62,0.91,-0.39,1.81,2.00,3.44,-0.7595,0.0410,0.0395,0.6479,$GPGGA,211435.800,4042.0304,N,07421.8813,W,2,08,1.01,99.8,M,-34.2,M,0000,0000*6A
75,0,-0.41,0.75,-0.20,-0.94,-1.50,3.19,-0.7614,0.0404,0.0389,0.6458,$GPGGA,211435.900,4042.0296,N,07421.8821,W,2,08,1.00,99.8,M,-34.2,M,0000,0000*61
76,0,-0.54,0.96,1.01,-1.37,-3.25,2.94,-0.7631,0.0391,0.0393,0.6439,$GPGGA,211436.000,4042.0289,N,07421.8829,W,2,08,1.00,99.8,M,-34.2,M,0000,0000*6D
77,0,-0.48,0.57,0.41,-0.50,1.00,3.44,-0.7647,0.0410,0.0397,0.6419,$GPGGA,211436.100,4042.0282,N,07421.8837,W,2,08,1.00,99.7,M,-34.2,M,0000,0000*67
78,0,-0.70,0.57,-0.46,1.37,3.06,3.31,-0.7665,0.0387,0.0386,0.6400,$GPGGA,211436.200,4042.0274,N,07421.8845,W,2,08,1.00,99.7,M,-34.2,M,0000,0000*68
79,0,-0.79,0.51,-0.10,1.56,-0.62,3.50,-0.7684,0.0373,0.0391,0.6376,$GPGGA,211436.300,4042.0267,N,07421.8853,W,2,08,1.01,99.7,M,-34.2,M,0000,0000*6D
80,0,-1.04,0.73,-0.46,-0.19,1.75,3.12,-0.7703,0.0374,0.0413,0.6353,$GPGGA,211436.400,4042.0259,N,07421.8861,W,2,08,1.00,99.6,M,-34.2,M,0000,0000*66
81,0,-0.28,0.53,-0.34,-2.62,2.87,3.06,-0.7719,0.0343,0.0417,0.6335,$GPGGA,211436.500,4042.0252,N,07421.8869,W,2,08,1.00,99.6,M,-34.2,M,0000,0000*64
82,0,-0.55,0.69,-1.46,-2.37,1.37,2.75,-0.7734,0.0347,0.0402,0.6317,$GPGGA,211436.600,4042.0244,N,07421.8877,W,2,08,1.00,99.6,M,-34.2,M,0000,0000*6F
83,0,-0.37,0.12,-0.59,3.12,2.75,3.06,-0.7751,0.0322,0.0381,0.6299,$GPGGA,211436.700,4042.0236,N,07421.8885,W,2,08,1.00,99.5,M,-34.2,M,0000,0000*65
84,0,-0.48,0.69,0.17,4.69,-3.87,3.37,-0.7771,0.0292,0.0389,0.6275,$GPGGA,211436.800,4042.0229,N,07421.8893,W,2,08,1.00,99.5,M,-34.2,M,0000,0000*63
85,0,-0.46,0.37,0.27,0.62,-0.13,2.62,-0.7787,0.0273,0.0368,0.6257,$GPGGA,211436.900,4042.0221,N,07421.8900,W,2,08,1.00,99.5,M,-34.2,M,0000,0000*61
86,0,-0.33,0.29,0.84,0.56,2.06,2.12,-0.7800,0.0237,0.0366,0.6242,$GPGGA,211437.000,4042.0213,N,07421.8908,W,2,08,1.00,99.4,M,-34.2,M,0000,0000*61
87,0,-0.52,0.45,-0.51,-0.25,-0.75,2.00,-0.7811,0.0230,0.0363,0.6229,$GPGGA,211437.100,4042.0205,N,07421.8915,W,2,08,1.00,99.4,M,-34.2,M,0000,0000*6B
88,0,-0.45,0.38,-0.73,-2.12,-5.06,2.00,-0.7822,0.0247,0.0373,0.6214,$GPGGA,211437.200,4042.0196,N,07421.8922,W,2,08,1.00,99.4,M,-34.2,M,0000,0000*65
89,0,-0.34,-0.30,-0.58,-0.50,0.56,1.87,-0.7831,0.0259,0.0372,0.6202,$GPGGA,211437.300,4042.0188,N,07421.8928,W,2,08,1.00,99.3,M,-34.2,M,0000,0000*66
90,0,-0.37,0.40,0.14,-0.56,1.37,1.81,-0.7841,0.0248,0.0356,0.6191,$GPGGA,211437.400,4042.0180,N,07421.8935,W,2,08,1.00,99.3,M,-34.2,M,0000,0000*65
91,0,-0.74,0.08,0.26,-1.50,-2.06,1.56,-0.7851,0.0245,0.0345,0.6180,$GPGGA,211437.500,4042.0172,N,07421.8942,W,2,08,1.00,99.2,M,-34.2,M,0000,0000*68
92,0,-0.26,-0.13,0.77,-2.87,-3.69,1.06,-0.7856,0.0281,0.0352,0.6170,$GPGGA,211437.600,4042.0163,N,07421.8949,W,2,08,1.00,99.2,M,-34.2,M,0000,0000*60
93,0,-0.06,-0.09,0.00,-0.94,0.06,0.37,-0.7859,0.0305,0.0359,0.6166,$GPGGA,211437.700,4042.0155,N,07421.8956,W,2,08,1.00,99.2,M,-34.2,M,0000,0000*6A
94,0,-0.54,-0.63,-0.97,0.37,1.87,0.88,-0.7861,0.0291,0.0341,0.6164,$GPGGA,211437.800,4042.0147,N,07421.8962,W,2,08,1.00,99.1,M,-34.2,M,0000,0000*62
95,0,-0.50,-0.36,-0.32,3.50,-0.37,1.25,-0.7869,0.0271,0.0335,0.6157,$GPGGA,211437.900,4042.0138,N,07421.8969,W,2,08,1.00,99.1,M,-34.2,M,0000,0000*60
96,0,-0.66,0.13,0.48,0.88,-2.31,1.37,-0.7875,0.0258,0.0363,0.6146,$GPGGA,211438.000,4042.0130,N,07421.8976,W,2,08,1.00,99.0,M,-34.2,M,0000,0000*61
97,0,-0.51,-0.03,0.05,-0.81,-3.00,0.88,-0.7880,0.0269,0.0385,0.6138,$GPGGA,211438.100,4042.0121,N,07421.8983,W,2,08,1.00,99.0,M,-34.2,M,0000,0000*6A
98,0,-0.35,0.41,0.59,-2.87,4.94,0.44,-0.7882,0.0272,0.0367,0.6137,$GPGGA,211438.200,4042.0112,N,07421.8990,W,2,08,1.01,98.9,M,-34.2,M,0000,0000*62
99,0,-0.19,-0.49,-1.26,-1.25,3.25,0.50,-0.7883,0.0264,0.0327,0.6139,$GPGGA,211438.300,4042.0104,N,07421.8996,W,2,08,1.00,98.9,M,-34.2,M,0000,0000*63
100,0,-0.24,-0.67,-0.32,0.50,0.06,0.37,-0.7884,0.0259,0.0320,0.6138,$GPGGA,211438.400,4042.0095,N,07421.9003,W,2,08,1.00,98.8,M,-34.2,M,0000,0000*68
101,0,-0.25,-0.52,0.33,2.87,0.37,0.69,-0.7887,0.0249,0.0333,0.6134,$GPGGA,211438.500,4042.0087,N,07421.9011,W,2,08,1.00,98.8,M,-34.2,M,0000,0000*69
102,0,-0.57,0.20,0.16,0.19,1.31,0.25,-0.7888,0.0236,0.0337,0.6133,$GPGGA,211438.600,4042.0078,N,07421.9017,W,2,08,1.01,98.8,M,-34.2,M,0000,0000*6D
103,0,-0.40,-0.14,-0.25,-1.25,1.00,0.06,-0.7888,0.0230,0.0321,0.6133,$GPGGA,211438.700,4042.0069,N,07421.9024,W,2,08,1.00,98.7,M,-34.2,M,0000,0000*62
104,0,-0.34,-0.68,0.34,-1.12,-1.12,-0.13,-0.7888,0.0239,0.0314,0.6134,$GPGGA,211438.800,4042.0060,N,07421.9031,W,2,08,1.00,98.7,M,-34.2,M,0000,0000*60
105,0,-0.29,-0.87,0.26,-1.06,-0.56,-0.25,-0.7888,0.0253,0.0308,0.6134,$GPGGA,211438.900,4042.0051,N,07421.9038,W,2,08,1.00,98.6,M,-34.2,M,0000,0000*6B
106,0,-0.34,-0.37,-0.34,0.69,1.56,0.00,-0.7889,0.0265,0.0276,0.6133,$GPGGA,211439.000,4042.0043,N,07421.9045,W,2,08,1.01,98.6,M,-34.2,M,0000,0000*6B
107,0,-0.43,0.01,-0.97,1.19,1.75,-0.06,-0.7889,0.0248,0.0266,0.6133,$GPGGA,211439.100,4042.0034,N,07421.9052,W,2,08,1.01,98.5,M,-34.2,M,0000,0000*6F
108,0,-0.26,-0.23,-0.40,1.81,0.00,0.00,-0.7891,0.0230,0.0250,0.6133,$GPGGA,211439.200,4042.0025,N,07421.9058,W,2,08,1.00,98.4,M,-34.2,M,0000,0000*66
109,0,-0.35,-0.64,0.46,2.31,-1.31,0.00,-0.7891,0.0218,0.0262,0.6133,$GPGGA,211439.300,4042.0016,N,07421.9065,W,2,08,1.00,98.4,M,-34.2,M,0000,0000*69
110,0,-0.33,-0.23,-0.16,1.19,0.19,0.06,-0.7892,0.0205,0.0276,0.6132,$GPGGA,211439.400,4042.0007,N,07421.9072,W,2,08,1.00,98.3,M,-34.2,M,0000,0000*6F
111,0,-0.55,0.19,0.19,1.56,1.19,0.25,-0.7892,0.0193,0.0274,0.6132,$GPGGA,211439.500,4041.9998,N,07421.9079,W,2,08,1.00,98.3,M,-34.2,M,0000,0000*60
112,0,-0.21,-0.42,0.56,0.06,-1.25,0.13,-0.7892,0.0188,0.0275,0.6132,$GPGGA,211439.600,4041.9989,N,07421.9086,W,2,08,1.00,98.2,M,-34.2,M,0000,0000*62
113,0,-0.39,0.09,0.20,-0.81,0.44,0.00,-0.7892,0.0191,0.0269,0.6132,$GPGGA,211439.700,4041.9980,N,07421.9093,W,2,08,1.01,98.2,M,-34.2,M,0000,0000*6F
114,0,-0.42,0.15,-0.19,0.81,1.44,0.19,-0.7893,0.0189,0.0267,0.6132,$GPGGA,211439.800,4041.9971,N,07421.9100,W,2,08,1.00,98.1,M,-34.2,M,0000,0000*67
115,0,-0.21,-0.36,0.00,1.19,0.88,0.31,-0.7893,0.0181,0.0259,0.6132,$GPGGA,211439.900,4041.9962,N,07421.9107,W,2,08,1.00,98.0,M,-34.2,M,0000,0000*62
116,0,-0.37,0.09,0.64,1.06,-0.13,0.62,-0.7894,0.0174,0.0266,0.6131,$GPGGA,211440.000,4041.9953,N,07421.9114,W,2,08,1.00,98.0,M,-34.2,M,0000,0000*65
117,0,-0.17,-0.02,0.40,0.19,0.25,0.19,-0.7894,0.0173,0.0273,0.6130,$GPGGA,211440.100,4041.9944,N,07421.9121,W,2,08,1.00,97.9,M,-34.2,M,0000,0000*62
118,0,-0.18,-0.26,0.18,-0.31,0.06,0.00,-0.7894,0.0168,0.0269,0.6131,$GPGGA,211440.200,4041.9935,N,07421.9128,W,2,08,1.01,97.8,M,-34.2,M,0000,0000*6E
119,0,-0.25,-0.20,-0.26,1.12,0.44,0.19,-0.7894,0.0166,0.0258,0.6130,$GPGGA,211440.300,4041.9925,N,07421.9135,W,2,08,1.00,97.8,M,-34.2,M,0000,0000*63
120,0,-0.26,-0.29,-0.09,2.56,0.56,0.37,-0.7895,0.0151,0.0264,0.6130,$GPGGA,211440.400,4041.9916,N,07421.9142,W,2,08,1.00,97.7,M,-34.2,M,0000,0000*6B
121,0,-0.46,-0.58,-0.39,2.19,1.25,0.37,-0.7896,0.0130,0.0272,0.6130,$GPGGA,211440.500,4041.9907,N,07421.9149,W,2,08,1.00,97.6,M,-34.2,M,0000,0000*60
122,0,-0.38,-0.08,0.70,1.19,-0.88,0.50,-0.7897,0.0120,0.0287,0.6127,$GPGGA,211440.600,4041.9898,N,07421.9156,W,2,08,1.00,97.5,M,-34.2,M,0000,0000*69
123,0,-0.39,-0.13,0.96,-0.37,-3.25,0.44,-0.7897,0.0133,0.0308,0.6125,$GPGGA,211440.700,4041.9889,N,07421.9164,W,2,08,1.00,97.5,M,-34.2,M,0000,0000*69
124,0,-0.40,-0.42,0.72,-0.50,-1.62,0.56,-0.7896,0.0142,0.0322,0.6125,$GPGGA,211440.800,4041.9880,N,07421.9171,W,2,08,1.01,97.4,M,-34.2,M,0000,0000*6B
125,0,-0.24,0.15,-0.25,-0.94,1.12,0.56,-0.7897,0.0148,0.0320,0.6124,$GPGGA,211440.900,4041.9870,N,07421.9179,W,2,08,1.00,97.3,M,-34.2,M,0000,0000*6B
126,0,-0.37,-0.55,0.05,1.37,1.56,0.69,-0.7901,0.0140,0.0311,0.6120,$GPGGA,211441.000,4041.9861,N,07421.9186,W,2,08,1.00,97.3,M,-34.2,M,0000,0000*63
127,0,-0.48,0.60,-0.40,0.75,-0.75,1.12,-0.7906,0.0134,0.0317,0.6113,$GPGGA,211441.100,4041.9852,N,07421.9194,W,2,08,1.00,97.2,M,-34.2,M,0000,0000*60
128,0,-0.32,0.49,0.94,1.12,-0.75,1.19,-0.7913,0.0131,0.0322,0.6104,$GPGGA,211441.200,4041.9843,N,07421.9202,W,2,08,1.00,97.1,M,-34.2,M,0000,0000*6C
129,0,-0.55,0.71,0.43,-1.56,-1.75,1.19,-0.7919,0.0143,0.0326,0.6096,$GPGGA,211441.300,4041.9834,N,07421.9210,W,2,08,1.00,97.1,M,-34.2,M,0000,0000*6E
130,0,-0.26,0.43,0.81,-2.69,-2.06,1.12,-0.7924,0.0151,0.0322,0.6089,$GPGGA,211441.400,4041.9825,N,07421.9217,W,2,08,1.00,97.0,M,-34.2,M,0000,0000*6F
131,0,-0.51,0.09,0.23,-2.00,0.31,1.12,-0.7930,0.0172,0.0314,0.6082,$GPGGA,211441.500,4041.9815,N,07421.9225,W,2,08,1.01,96.9,M,-34.2,M,0000,0000*65
132,0,-0.74,0.47,-0.70,-1.50,0.81,1.00,-0.7935,0.0184,0.0298,0.6075,$GPGGA,211441.600,4041.9806,N,07421.9233,W,2,08,1.00,96.8,M,-34.2,M,0000,0000*63
133,0,-0.56,0.19,-0.10,-0.50,-0.37,1.12,-0.7941,0.0192,0.0292,0.6069,$GPGGA,211441.700,4041.9797,N,07421.9241,W,2,08,1.01,96.8,M,-34.2,M,0000,0000*61
134,0,-0.74,0.39,0.11,-0.56,0.56,0.81,-0.7945,0.0187,0.0283,0.6063,$GPGGA,211441.800,4041.9788,N,07421.9249,W,2,08,1.00,96.7,M,-34.2,M,0000,0000*66
135,0,-0.53,-0.04,0.07,-0.81,-1.44,0.31,-0.7946,0.0189,0.0282,0.6061,$GPGGA,211441.900,4041.9779,N,07421.9257,W,2,08,1.01,96.6,M,-34.2,M,0000,0000*66
136,0,-0.68,-0.39,0.47,-0.88,-0.69,-0.44,-0.7946,0.0195,0.0277,0.6062,$GPGGA,211442.000,4041.9770,N,07421.9264,W,2,08,1.00,96.5,M,-34.2,M,0000,0000*67
137,0,-0.54,-0.20,-1.13,-0.19,-1.44,-0.37,-0.7946,0.0204,0.0273,0.6062,$GPGGA,211442.100,4041.9760,N,07421.9272,W,2,08,1.00,96.5,M,-34.2,M,0000,0000*60
138,0,-0.95,-0.35,-0.54,-0.13,2.19,-0.25,-0.7947,0.0202,0.0242,0.6062,$GPGGA,211442.200,4041.9751,N,07421.9280,W,2,08,1.00,96.4,M,-34.2,M,0000,0000*6D
139,0,-0.39,-0.30,-0.43,1.50,-1.25,-0.13,-0.7947,0.0197,0.0244,0.6062,$GPGGA,211442.300,4041.9742,N,07421.9288,W,2,08,1.01,96.3,M,-34.2,M,0000,0000*60
140,0,-0.34,-0.47,0.02,0.75,-1.00,-0.13,-0.7947,0.0195,0.0261,0.6061,$GPGGA,211442.400,4041.9732,N,07421.9296,W,2,08,1.00,96.2,M,-34.2,M,0000,0000*6F
141,0,-0.68,-0.04,-0.99,0.25,0.31,-0.44,-0.7947,0.0193,0.0247,0.6061,$GPGGA,211442.500,4041.9723,N,07421.9304,W,2,08,1.00,96.2,M,-34.2,M,0000,0000*64
142,0,-0.70,-0.50,0.19,-1.12,-0.37,-0.69,-0.7947,0.0192,0.0233,0.6063,$GPGGA,211442.600,4041.9714,N,07421.9311,W,2,08,1.00,96.1,M,-34.2,M,0000,0000*64
143,0,-0.49,0.19,0.16,-1.12,-2.62,-0.50,-0.7944,0.0209,0.0226,0.6066,$GPGGA,211442.700,4041.9704,N,07421.9319,W,2,08,1.00,96.0,M,-34.2,M,0000,0000*6D
144,0,-0.30,-0.55,0.94,-0.88,-1.19,-0.37,-0.7943,0.0226,0.0236,0.6067,$GPGGA,211442.800,4041.9695,N,07421.9327,W,2,08,1.00,96.0,M,-34.2,M,0000,0000*66
145,0,-0.53,-0.05,0.55,0.00,0.56,-0.25,-0.7943,0.0233,0.0232,0.6067,$GPGGA,211442.900,4041.9686,N,07421.9335,W,2,08,1.00,95.9,M,-34.2,M,0000,0000*6C
146,0,-0.49,-0.84,-0.20,0.37,-0.06,-0.56,-0.7943,0.0231,0.0234,0.6067,$GPGGA,211443.000,4041.9676,N,07421.9343,W,2,08,1.00,95.8,M,-34.2,M,0000,0000*6B
147,0,-0.69,-0.19,0.29,0.44,-1.37,-0.25,-0.7943,0.0233,0.0247,0.6067,$GPGGA,211443.100,4041.9667,N,07421.9350,W,2,08,1.00,95.7,M,-34.2,M,0000,0000*67
148,0,-0.37,0.10,0.62,-1.06,-1.75,-0.31,-0.7942,0.0245,0.0256,0.6066,$GPGGA,211443.200,4041.9658,N,07421.9358,W,2,08,1.00,95.7,M,-34.2,M,0000,0000*60
149,0,-0.48,-0.36,0.46,-0.25,0.88,-0.31,-0.7942,0.0254,0.0256,0.6066,$GPGGA,211443.300,4041.9648,N,07421.9365,W,2,08,1.00,95.6,M,-34.2,M,0000,0000*6F
150,0,-0.21,-0.07,-0.64,-0.88,1.06,-0.37,-0.7943,0.0253,0.0231,0.6066,$GPGGA,211443.400,4041.9639,N,07421.9373,W,2,08,1.00,95.5,M,-34.2,M,0000,0000*6A
151,0,-0.52,0.05,-0.54,0.75,1.44,-0.06,-0.7943,0.0248,0.0221,0.6067,$GPGGA,211443.500,4041.9629,N,07421.9380,W,2,08,1.00,95.5,M,-34.2,M,0000,0000*66
152,0,-0.10,-0.20,-0.69,0.19,3.19,-0.13,-0.7943,0.0238,0.0212,0.6067,$GPGGA,211443.600,4041.9620,N,07421.9388,W,2,08,1.00,95.4,M,-34.2,M,0000,0000*65
153,0,-0.30,-0.64,0.01,1.12,0.50,-0.13,-0.7943,0.0231,0.0205,0.6068,$GPGGA,211443.700,4041.9611,N,07421.9395,W,2,08,1.00,95.3,M,-34.2,M,0000,0000*6D
154,0,-0.58,0.39,0.73,0.31,-1.19,-0.13,-0.7943,0.0231,0.0211,0.6067,$GPGGA,211443.800,4041.9601,N,07421.9403,W,2,08,1.01,95.3,M,-34.2,M,0000,0000*6A
155,0,-0.45,-0.24,-0.20,0.81,-0.62,0.00,-0.7943,0.0233,0.0220,0.6067,$GPGGA,211443.900,4041.9592,N,07421.9410,W,2,08,1.00,95.2,M,-34.2,M,0000,0000*60
156,0,-0.27,0.21,-0.26,-0.50,0.94,0.00,-0.7943,0.0232,0.0219,0.6067,$GPGGA,211444.000,4041.9583,N,07421.9418,W,2,08,1.01,95.2,M,-34.2,M,0000,0000*67
157,0,-0.25,-0.46,-1.03,-0.25,-1.50,-0.25,-0.7943,0.0235,0.0217,0.6067,$GPGGA,211444.100,4041.9573,N,07421.9425,W,2,08,1.00,95.1,M,-34.2,M,0000,0000*65
158,0,-0.24,-0.21,-0.52,-0.44,0.25,-0.44,-0.7943,0.0241,0.0220,0.6067,$GPGGA,211444.200,4041.9564,N,07421.9433,W,2,08,1.00,95.1,M,-34.2,M,0000,0000*67
159,0,-0.61,-0.13,-0.74,2.50,1.44,-0.19,-0.7943,0.0223,0.0222,0.6066,$GPGGA,211444.300,4041.9555,N,07421.9440,W,2,08,1.00,95.0,M,-34.2,M,0000,0000*61
160,0,-0.70,0.38,0.08,3.25,-2.44,0.00,-0.7944,0.0208,0.0233,0.6066,$GPGGA,211444.400,4041.9545,N,07421.9448,W,2,08,1.00,95.0,M,-34.2,M,0000,0000*6F
161,0,-0.10,0.05,0.98,0.31,-4.69,-0.37,-0.7944,0.0217,0.0269,0.6065,$GPGGA,211444.500,4041.9536,N,07421.9455,W,2,08,1.00,94.9,M,-34.2,M,0000,0000*6E
162,0,-0.53,-0.62,1.25,-1.62,-2.37,-0.69,-0.7943,0.0237,0.0289,0.6065,$GPGGA,211444.600,4041.9526,N,07421.9462,W,2,08,1.00,94.8,M,-34.2,M,0000,0000*69
163,0,-0.33,-0.39,-0.16,-0.31,1.06,-0.44,-0.7939,0.0248,0.0290,0.6068,$GPGGA,211444.700,4041.9517,N,07421.9469,W,2,08,1.00,94.8,M,-34.2,M,0000,0000*61
164,0,-0.28,-1.13,-0.19,-1.37,2.00,-0.25,-0.7939,0.0243,0.0278,0.6069,$GPGGA,211444.800,4041.9507,N,07421.9477,W,2,08,1.01,94.7,M,-34.2,M,0000,0000*6E
165,0,-0.30,0.25,-0.31,1.44,-0.62,-0.13,-0.7939,0.0233,0.0281,0.6069,$GPGGA,211444.900,4041.9498,N,07421.9484,W,2,08,1.00,94.7,M,-34.2,M,0000,0000*65
166,0,-0.30,0.19,-0.13,-2.12,-0.19,-0.31,-0.7939,0.0243,0.0281,0.6069,$GPGGA,211445.000,4041.9488,N,07421.9491,W,2,08,1.00,94.6,M,-34.2,M,0000,0000*69
167,0,-0.37,-0.14,-0.09,-0.94,1.31,-0.37,-0.7938,0.0250,0.0277,0.6070,$GPGGA,211445.100,4041.9479,N,07421.9498,W,2,08,1.00,94.6,M,-34.2,M,0000,0000*6F
168,0,-0.68,-0.51,-0.56,-0.44,0.81,-0.25,-0.7938,0.0247,0.0269,0.6071,$GPGGA,211445.200,4041.9469,N,07421.9505,W,2,08,1.00,94.6,M,-34.2,M,0000,0000*68
169,0,-0.61,0.24,0.20,2.69,-1.81,0.06,-0.7939,0.0241,0.0256,0.6070,$GPGGA,211445.300,4041.9460,N,07421.9513,W,2,08,1.01,94.5,M,-34.2,M,0000,0000*65
170,0,-0.45,-0.09,1.20,2.69,-1.75,0.06,-0.7939,0.0236,0.0279,0.6069,$GPGGA,211445.400,4041.9450,N,07421.9520,W,2,08,1.00,94.5,M,-34.2,M,0000,0000*60
171,0,-0.44,0.06,0.74,0.75,-0.81,-0.25,-0.7939,0.0233,0.0298,0.6068,$GPGGA,211445.500,4041.9441,N,07421.9528,W,2,08,1.00,94.4,M,-34.2,M,0000,0000*68
172,0,-0.11,-0.04,0.02,-1.31,-0.19,-0.31,-0.7939,0.0242,0.0298,0.6068,$GPGGA,211445.600,4041.9432,N,07421.9535,W,2,08,1.00,94.4,M,-34.2,M,0000,0000*63
173,0,-0.38,-0.47,-0.03,-0.62,0.37,-0.44,-0.7939,0.0242,0.0291,0.6069,$GPGGA,211445.700,4041.9422,N,07421.9542,W,2,08,1.00,94.3,M,-34.2,M,0000,0000*64
174,0,-0.38,-0.40,0.46,-0.25,-0.62,-0.25,-0.7939,0.0244,0.0288,0.6069,$GPGGA,211445.800,4041.9413,N,07421.9550,W,2,08,1.00,94.3,M,-34.2,M,0000,0000*6A
175,0,-0.10,-0.49,-0.12,0.19,-0.69,-0.31,-0.7939,0.0248,0.0284,0.6068,$GPGGA,211445.900,4041.9403,N,07421.9557,W,2,08,1.00,94.2,M,-34.2,M,0000,0000*6C
176,0,-0.42,-0.44,-0.52,0.69,-0.19,-0.31,-0.7939,0.0247,0.0285,0.6068,$GPGGA,211446.000,4041.9394,N,07421.9564,W,2,08,1.00,94.2,M,-34.2,M,0000,0000*6F
177,0,-0.36,0.17,-1.16,1.19,0.13,-0.25,-0.7940,0.0244,0.0275,0.6068,$GPGGA,211446.100,4041.9384,N,07421.9572,W,2,08,1.00,94.1,M,-34.2,M,0000,0000*6B
178,0,-0.17,-0.81,-0.11,0.37,0.94,-0.06,-0.7940,0.0237,0.0272,0.6068,$GPGGA,211446.200,4041.9375,N,07421.9579,W,2,08,1.00,94.1,M,-34.2,M,0000,0000*6D
179,0,0.19,0.04,-0.29,0.25,0.25,-0.19,-0.7940,0.0236,0.0271,0.6068,$GPGGA,211446.300,4041.9365,N,07421.9586,W,2,08,1.01,94.1,M,-34.2,M,0000,0000*6C
180,0,0.00,-0.02,0.59,0.19,-0.19,-0.19,-0.7940,0.0240,0.0276,0.6068,$GPGGA,211446.400,4041.9356,N,07421.9593,W,2,08,1.00,94.0,M,-34.2,M,0000,0000*6F
181,0,-0.07,-0.04,0.20,0.88,0.25,0.00,-0.7940,0.0243,0.0284,0.6068,$GPGGA,211446.500,4041.9346,N,07421.9601,W,2,08,1.00,94.0,M,-34.2,M,0000,0000*67
182,0,-0.17,-0.27,-0.15,0.31,-1.00,-0.25,-0.7940,0.0240,0.0284,0.6068,$GPGGA,211446.600,4041.9337,N,07421.9608,W,2,08,1.00,93.9,M,-34.2,M,0000,0000*65
183,0,0.16,-0.26,-0.12,0.69,1.00,-0.06,-0.7940,0.0236,0.0281,0.6068,$GPGGA,211446.700,4041.9328,N,07421.9615,W,2,08,1.00,93.9,M,-34.2,M,0000,0000*66
184,0,-0.12,0.35,0.06,-1.37,-0.06,-0.31,-0.7940,0.0236,0.0276,0.6068,$GPGGA,211446.800,4041.9318,N,07421.9623,W,2,08,1.00,93.8,M,-34.2,M,0000,0000*6E
185,0,0.12,-0.25,-0.48,-1.56,0.19,-0.44,-0.7940,0.0240,0.0271,0.6068,$GPGGA,211446.900,4041.9309,N,07421.9630,W,2,08,1.00,93.8,M,-34.2,M,0000,0000*6D
186,0,0.01,0.01,0.09,-0.19,-0.69,-0.25,-0.7940,0.0246,0.0266,0.6069,$GPGGA,211447.000,4041.9299,N,07421.9638,W,2,08,1.00,93.7,M,-34.2,M,0000,0000*6A
187,0,0.41,0.06,0.84,0.25,-0.06,0.13,-0.7940,0.0250,0.0256,0.6069,$GPGGA,211447.100,4041.9290,N,07421.9645,W,2,08,1.00,93.7,M,-34.2,M,0000,0000*68
188,0,0.23,0.04,0.19,-0.44,-1.44,0.06,-0.7940,0.0251,0.0256,0.6069,$GPGGA,211447.200,4041.9281,N,07421.9653,W,2,08,1.00,93.7,M,-34.2,M,0000,0000*6C
189,0,-0.02,-0.30,0.65,-0.44,0.44,0.44,-0.7940,0.0249,0.0257,0.6069,$GPGGA,211447.300,4041.9271,N,07421.9660,W,2,08,1.00,93.6,M,-34.2,M,0000,0000*63
190,0,0.04,0.63,0.01,0.94,0.06,0.50,-0.7940,0.0244,0.0259,0.6069,$GPGGA,211447.400,4041.9261,N,07421.9668,W,2,08,1.00,93.6,M,-34.2,M,0000,0000*6D
191,0,0.20,-0.22,0.64,-0.06,-0.19,0.50,-0.7940,0.0239,0.0263,0.6069,$GPGGA,211447.500,4041.9252,N,07421.9675,W,2,08,1.00,93.6,M,-34.2,M,0000,0000*60
192,0,0.10,0.38,-0.40,0.56,-0.75,0.69,-0.7942,0.0239,0.0266,0.6066,$GPGGA,211447.600,4041.9242,N,07421.9683,W,2,08,1.00,93.5,M,-34.2,M,0000,0000*68
193,0,-0.45,0.79,-1.02,-0.62,0.13,0.31,-0.7942,0.0240,0.0263,0.6066,$GPGGA,211447.700,4041.9233,N,07421.9690,W,2,08,1.00,93.5,M,-34.2,M,0000,0000*6D
194,0,0.30,0.46,0.14,0.25,-1.50,0.06,-0.7942,0.0242,0.0261,0.6066,$GPGGA,211447.800,4041.9223,N,07421.9697,W,2,08,1.00,93.5,M,-34.2,M,0000,0000*64
195,0,-0.15,0.66,-0.02,-0.88,-0.06,0.31,-0.7941,0.0247,0.0264,0.6066,$GPGGA,211447.900,4041.9213,N,07421.9704,W,2,08,1.00,93.4,M,-34.2,M,0000,0000*6C
196,0,-0.13,-0.13,0.05,0.37,1.62,0.56,-0.7943,0.0245,0.0264,0.6066,$GPGGA,211448.000,4041.9204,N,07421.9712,W,2,08,1.01,93.4,M,-34.2,M,0000,0000*6A
197,0,0.09,-0.33,-0.75,0.94,1.25,0.37,-0.7943,0.0237,0.0258,0.6066,$GPGGA,211448.100,4041.9194,N,07421.9719,W,2,08,1.00,93.3,M,-34.2,M,0000,0000*6C
198,0,-0.03,0.16,0.41,0.81,1.50,0.44,-0.7943,0.0228,0.0256,0.6066,$GPGGA,211448.200,4041.9184,N,07421.9727,W,2,08,1.00,93.3,M,-34.2,M,0000,0000*63
199,0,0.19,-0.20,0.02,0.00,1.69,0.50,-0.7944,0.0223,0.0253,0.6065,$GPGGA,211448.300,4041.9175,N,07421.9734,W,2,08,1.01,93.3,M,-34.2,M,0000,0000*6F
200,0,0.00,0.40,-0.27,-1.31,0.69,0.19,-0.7944,0.0223,0.0249,0.6065,$GPGGA,211448.400,4041.9165,N,07421.9742,W,2,08,1.00,93.2,M,-34.2,M,0000,0000*68
201,0,-0.10,0.53,-0.74,0.13,0.37,0.13,-0.7944,0.0223,0.0240,0.6065,$GPGGA,211448.500,4041.9155,N,07421.9750,W,2,08,1.00,93.2,M,-34.2,M,0000,0000*69
202,0,0.31,0.96,0.42,-0.75,-0.06,0.44,-0.7944,0.0226,0.0235,0.6065,$GPGGA,211448.600,4041.9145,N,07421.9757,W,2,08,1.00,93.2,M,-34.2,M,0000,0000*6C
203,0,-0.08,0.26,0.40,-0.88,0.81,0.56,-0.7944,0.0228,0.0224,0.6065,$GPGGA,211448.700,4041.9135,N,07421.9765,W,2,08,1.00,93.1,M,-34.2,M,0000,0000*68
204,0,-0.07,0.22,0.06,-1.50,0.44,0.44,-0.7946,0.0235,0.0209,0.6064,$GPGGA,211448.800,4041.9126,N,07421.9772,W,2,08,1.00,93.1,M,-34.2,M,0000,0000*63
205,0,0.25,0.11,0.69,-1.62,2.31,0.50,-0.7946,0.0239,0.0203,0.6064,$GPGGA,211448.900,4041.9116,N,07421.9780,W,2,08,1.00,93.1,M,-34.2,M,0000,0000*6C
206,0,-0.14,0.46,-0.67,-0.13,0.50,0.44,-0.7947,0.0239,0.0200,0.6061,$GPGGA,211449.000,4041.9106,N,07421.9787,W,2,08,1.01,93.0,M,-34.2,M,0000,0000*62
207,0,0.11,-0.12,0.69,0.56,1.56,0.50,-0.7948,0.0233,0.0195,0.6061,$GPGGA,211449.100,4041.9096,N,07421.9795,W,2,08,1.01,93.0,M,-34.2,M,0000,0000*68
208,0,0.00,0.05,0.05,0.69,-0.56,0.31,-0.7949,0.0227,0.0193,0.6060,$GPGGA,211449.200,4041.9086,N,07421.9802,W,2,08,1.00,93.0,M,-34.2,M,0000,0000*6A
209,0,-0.09,0.56,0.35,-2.06,2.56,0.19,-0.7949,0.0226,0.0188,0.6061,$GPGGA,211449.300,4041.9076,N,07421.9810,W,2,08,1.00,92.9,M,-34.2,M,0000,0000*6F
210,0,-0.10,-0.27,-0.09,-1.81,-0.50,-0.31,-0.7949,0.0234,0.0179,0.6061,$GPGGA,211449.400,4041.9066,N,07421.9817,W,2,08,1.00,92.9,M,-34.2,M,0000,0000*6E
211,0,-0.09,0.03,-0.93,-2.69,-1.06,-0.62,-0.7947,0.0245,0.0172,0.6062,$GPGGA,211449.500,4041.9056,N,07421.9825,W,2,08,1.00,92.9,M,-34.2,M,0000,0000*6D
212,0,-0.62,-0.66,-0.78,0.19,-1.19,-0.37,-0.7946,0.0251,0.0170,0.6063,$GPGGA,211449.600,4041.9046,N,07421.9832,W,2,08,1.00,92.9,M,-34.2,M,0000,0000*69
213,0,-0.50,-0.46,-0.13,1.12,-1.69,-0.25,-0.7946,0.0257,0.0182,0.6063,$GPGGA,211449.700,4041.9036,N,07421.9840,W,2,08,1.00,92.9,M,-34.2,M,0000,0000*6A
214,0,-0.38,-0.55,0.26,0.94,-0.81,-0.19,-0.7947,0.0245,0.0201,0.6062,$GPGGA,211449.800,4041.9026,N,07421.9847,W,2,08,1.01,92.9,M,-34.2,M,0000,0000*62
215,0,0.00,0.56,-0.36,0.37,-2.25,0.06,-0.7947,0.0242,0.0212,0.6062,$GPGGA,211449.900,4041.9016,N,07421.9855,W,2,08,1.00,92.8,M,-34.2,M,0000,0000*63
216,0,0.02,2.29,0.17,-3.44,6.69,-0.31,-0.7946,0.0243,0.0179,0.6063,$GPGGA,211450.000,4041.9006,N,07421.9863,W,2,08,1.00,92.8,M,-34.2,M,0000,0000*66
217,0,-0.57,0.06,-1.28,1.06,2.31,-1.81,-0.7943,0.0219,0.0135,0.6071,$GPGGA,211450.100,4041.8997,N,07421.9870,W,2,08,1.00,92.8,M,-34.2,M,0000,0000*65
218,0,0.79,-1.75,-0.91,4.37,0.37,-0.25,-0.7938,0.0215,0.0132,0.6077,$GPGGA,211450.200,4041.8987,N,07421.9878,W,2,08,1.01,92.8,M,-34.2,M,0000,0000*6E
219,0,-0.35,-0.23,0.32,-2.81,-3.19,0.19,-0.7938,0.0219,0.0158,0.6076,$GPGGA,211450.200,4041.8987,N,07421.9878,W,2,08,1.01,92.8,M,-34.2,M,0000,0000*6E
220,0,0.38,-0.40,1.40,2.56,0.69,-0.19,-0.7938,0.0218,0.0165,0.6076,$GPGGA,211450.400,4041.8967,N,07421.9893,W,2,08,1.00,92.7,M,-34.2,M,0000,0000*6D
221,0,-0.33,-0.11,-0.26,-0.50,4.56,-0.19,-0.7938,0.0192,0.0135,0.6077,$GPGGA,211450.500,4041.8957,N,07421.9901,W,2,08,1.00,92.7,M,-34.2,M,0000,0000*65
222,0,-0.27,0.19,-0.08,0.37,-2.37,-0.19,-0.7938,0.0191,0.0131,0.6077,$GPGGA,211450.600,4041.8947,N,07421.9909,W,2,08,1.00,92.7,M,-34.2,M,0000,0000*6F
223,0,-0.07,-0.88,0.83,0.62,-2.56,-0.44,-0.7938,0.0209,0.0162,0.6076,$GPGGA,211450.700,4041.8937,N,07421.9916,W,2,08,1.00,92.7,M,-34.2,M,0000,0000*67
224,0,-0.12,0.19,-0.54,1.06,2.25,0.13,-0.7938,0.0204,0.0164,0.6076,$GPGGA,211450.800,4041.8927,N,07421.9924,W,2,08,1.00,92.6,M,-34.2,M,0000,0000*69
225,0,-0.44,0.28,-2.12,-1.44,3.19,-0.13,-0.7938,0.0188,0.0142,0.6077,$GPGGA,211450.900,4041.8918,N,07421.9932,W,2,08,1.00,92.6,M,-34.2,M,0000,0000*63
226,0,-0.48,-0.40,-0.72,1.12,2.00,-0.31,-0.7939,0.0172,0.0125,0.6077,$GPGGA,211451.000,4041.8908,N,07421.9940,W,2,08,1.00,92.6,M,-34.2,M,0000,0000*6F
227,0,-0.50,-0.54,0.11,0.81,-1.06,-0.25,-0.7939,0.0170,0.0123,0.6077,$GPGGA,211451.100,4041.8898,N,07421.9948,W,2,08,1.00,92.6,M,-34.2,M,0000,0000*6E
228,0,-0.99,0.78,0.24,0.13,0.25,0.19,-0.7939,0.0169,0.0132,0.6077,$GPGGA,211451.200,4041.8888,N,07421.9955,W,2,08,1.01,92.6,M,-34.2,M,0000,0000*61
229,0,-0.62,0.30,-0.19,-3.25,2.00,-0.13,-0.7939,0.0178,0.0118,0.6077,$GPGGA,211451.300,4041.8878,N,07421.9963,W,2,08,1.01,92.6,M,-34.2,M,0000,0000*6A
230,0,-0.71,-0.43,-0.52,-3.81,-0.69,-0.31,-0.7938,0.0197,0.0086,0.6078,$GPGGA,211451.400,4041.8868,N,07421.9971,W,2,08,1.00,92.5,M,-34.2,M,0000,0000*6D
231,0,-0.38,0.43,-1.48,-2.81,0.62,-0.31,-0.7938,0.0212,0.0065,0.6078,$GPGGA,211451.500,4041.8859,N,07421.9979,W,2,08,1.00,92.5,M,-34.2,M,0000,0000*66
232,0,-0.79,0.13,-0.29,2.94,-1.12,0.37,-0.7938,0.0200,0.0075,0.6077,$GPGGA,211451.600,4041.8849,N,07421.9987,W,2,08,1.00,92.5,M,-34.2,M,0000,0000*65
233,0,-0.63,0.18,-0.11,4.94,3.37,0.88,-0.7943,0.0167,0.0095,0.6073,$GPGGA,211451.700,4041.8839,N,07421.9995,W,2,08,1.00,92.5,M,-34.2,M,0000,0000*60
234,0,-0.85,1.13,-0.28,4.75,1.12,0.50,-0.7948,0.0134,0.0090,0.6067,$GPGGA,211451.800,4041.8829,N,07422.0002,W,2,08,1.00,92.5,M,-34.2,M,0000,0000*63
235,0,-0.69,0.73,1.22,-0.88,-2.75,-0.81,-0.7948,0.0140,0.0106,0.6066,$GPGGA,211451.900,4041.8819,N,07422.0010,W,2,08,1.01,92.5,M,-34.2,M,0000,0000*63
236,0,-1.28,0.23,0.82,1.75,-1.00,-1.12,-0.7943,0.0164,0.0115,0.6072,$GPGGA,211452.000,4041.8809,N,07422.0018,W,2,08,1.00,92.4,M,-34.2,M,0000,0000*60
237,0,-0.38,-0.27,-1.19,-5.00,-0.19,-0.69,-0.7936,0.0182,0.0125,0.6080,$GPGGA,211452.100,4041.8800,N,07422.0026,W,2,08,1.00,92.4,M,-34.2,M,0000,0000*65
238,0,-0.92,0.07,-0.35,0.81,4.56,0.19,-0.7936,0.0187,0.0099,0.6080,$GPGGA,211452.200,4041.8790,N,07422.0034,W,2,08,1.01,92.4,M,-34.2,M,0000,0000*62
239,0,-0.48,-0.76,-1.59,-1.94,5.81,-0.37,-0.7936,0.0178,0.0048,0.6081,$GPGGA,211452.300,4041.8781,N,07422.0042,W,2,08,1.01,92.4,M,-34.2,M,0000,0000*62
240,0,-0.97,-0.35,-0.90,0.50,2.94,-0.19,-0.7936,0.0160,0.0027,0.6082,$GPGGA,211452.400,4041.8771,N,07422.0050,W,2,08,1.00,92.3,M,-34.2,M,0000,0000*6F
241,0,-1.41,-0.13,1.54,4.19,-0.31,0.50,-0.7937,0.0143,0.0034,0.6082,$GPGGA,211452.500,4041.8761,N,07422.0058,W,2,08,1.00,92.3,M,-34.2,M,0000,0000*67
242,0,-0.48,0.20,1.79,2.62,-2.50,0.19,-0.7938,0.0136,0.0068,0.6080,$GPGGA,211452.600,4041.8752,N,07422.0066,W,2,08,1.01,92.3,M,-34.2,M,0000,0000*68
243,0,-0.89,-0.02,0.58,-0.56,4.12,0.19,-0.7938,0.0130,0.0071,0.6080,$GPGGA,211452.700,4041.8742,N,07422.0074,W,2,08,1.01,92.3,M,-34.2,M,0000,0000*6B
244,0,-0.84,-0.48,-0.40,-0.19,0.00,-0.19,-0.7938,0.0121,0.0058,0.6081,$GPGGA,211452.800,4041.8732,N,07422.0082,W,2,08,1.01,92.3,M,-34.2,M,0000,0000*6A
245,0,-0.96,-0.39,-0.68,0.19,-0.25,-0.13,-0.7938,0.0126,0.0056,0.6081,$GPGGA,211452.900,4041.8723,N,07422.0089,W,2,08,1.00,92.2,M,-34.2,M,0000,0000*60
246,0,-0.92,-0.26,-0.84,-2.56,-1.25,0.13,-0.7938,0.0133,0.0058,0.6081,$GPGGA,211453.000,4041.8713,N,07422.0097,W,2,08,1.00,92.2,M,-34.2,M,0000,0000*64
247,0,-0.94,0.44,0.42,-0.94,0.00,0.25,-0.7938,0.0133,0.0057,0.6081,$GPGGA,211453.100,4041.8703,N,07422.0104,W,2,08,1.01,92.2,M,-34.2,M,0000,0000*6E
248,0,-0.72,0.56,-0.73,1.19,1.12,0.06,-0.7938,0.0126,0.0046,0.6081,$GPGGA,211453.200,4041.8693,N,07422.0112,W,2,08,1.00,92.2,M,-34.2,M,0000,0000*63
249,0,-0.92,-0.09,-0.29,1.87,3.12,0.50,-0.7938,0.0110,0.0043,0.6081,$GPGGA,211453.300,4041.8683,N,07422.0119,W,2,08,1.00,92.2,M,-34.2,M,0000,0000*68
250,0,-0.93,-0.62,0.19,0.00,-0.37,0.75,-0.7939,0.0108,0.0036,0.6079,$GPGGA,211453.400,4041.8674,N,07422.0127,W,2,08,1.00,92.1,M,-34.2,M,0000,0000*69
251,0,-0.50,0.62,0.85,-2.25,-2.00,-0.06,-0.7939,0.0116,0.0038,0.6079,$GPGGA,211453.500,4041.8664,N,07422.0135,W,2,08,1.00,92.1,M,-34.2,M,0000,0000*6A
252,0,-0.68,-1.10,-0.63,-2.12,0.19,0.19,-0.7938,0.0148,0.0023,0.6080,$GPGGA,211453.600,4041.8655,N,07422.0143,W,2,08,1.01,92.0,M,-34.2,M,0000,0000*6A
253,0,-0.19,-2.85,-1.14,1.56,0.88,0.06,-0.7940,0.0129,0.0023,0.6078,$GPGGA,211453.700,4041.8645,N,07422.0151,W,2,08,1.00,92.0,M,-34.2,M,0000,0000*68
254,0,-0.65,-0.01,1.45,10.38,0.81,0.31,-0.7943,0.0081,0.0046,0.6074,$GPGGA,211453.800,4041.8635,N,07422.0159,W,2,08,1.01,91.9,M,-34.2,M,0000,0000*63
255,0,0.53,1.48,2.13,-3.75,-6.19,1.62,-0.7950,0.0090,0.0079,0.6064,$GPGGA,211453.900,4041.8626,N,07422.0167,W,2,08,1.01,91.9,M,-34.2,M,0000,0000*6D
256,0,-0.65,0.75,1.17,-4.25,7.06,-0.13,-0.7954,0.0121,0.0050,0.6060,$GPGGA,211454.000,4041.8616,N,07422.0174,W,2,08,1.01,91.8,M,-34.2,M,0000,0000*63
257,0,-1.02,-0.67,0.02,-3.69,5.50,-0.56,-0.7951,0.0126,-0.0005,0.6063,$GPGGA,211454.100,4041.8607,N,07422.0182,W,2,08,1.01,91.8,M,-34.2,M,0000,0000*6B
258,0,-0.53,-0.03,-0.71,0.13,0.25,-0.19,-0.7949,0.0130,-0.0022,0.6066,$GPGGA,211454.200,4041.8597,N,07422.0190,W,2,08,1.00,91.7,M,-34.2,M,0000,0000*6F
259,0,-0.69,-0.30,0.50,0.75,-0.62,0.62,-0.7950,0.0126,-0.0013,0.6065,$GPGGA,211454.300,4041.8588,N,07422.0197,W,2,08,1.01,91.7,M,-34.2,M,0000,0000*66
260,0,-0.70,0.46,0.75,1.19,-0.75,0.19,-0.7950,0.0118,0.0003,0.6064,$GPGGA,211454.400,4041.8578,N,07422.0204,W,2,08,1.00,91.8,M,-34.2,M,0000,0000*69
261,0,-0.36,0.25,-0.17,-0.06,0.19,-0.13,-0.7950,0.0121,0.0002,0.6064,$GPGGA,211454.500,4041.8569,N,07422.0212,W,2,08,1.00,91.8,M,-34.2,M,0000,0000*6F
262,0,-0.80,-0.03,-0.65,-1.50,3.12,-0.37,-0.7950,0.0117,-0.0013,0.6064,$GPGGA,211454.600,4041.8559,N,07422.0219,W,2,08,1.00,91.7,M,-34.2,M,0000,0000*6B
263,0,-0.51,-0.14,-0.55,-0.25,1.50,-0.75,-0.7947,0.0111,-0.0032,0.6069,$GPGGA,211454.700,4041.8550,N,07422.0227,W,2,08,1.00,91.9,M,-34.2,M,0000,0000*60
264,0,-0.46,-0.23,-0.23,-0.19,1.06,-1.12,-0.7943,0.0109,-0.0038,0.6075,$GPGGA,211454.800,4041.8540,N,07422.0234,W,2,08,1.01,91.8,M,-34.2,M,0000,0000*6C
265,0,-0.54,-0.54,-0.28,0.19,0.31,-1.69,-0.7935,0.0113,-0.0085,0.6084,$GPGGA,211454.900,4041.8531,N,07422.0241,W,2,08,1.01,91.8,M,-34.2,M,0000,0000*69
266,0,-0.69,-0.57,0.55,0.94,0.31,-2.19,-0.7925,0.0115,-0.0109,0.6097,$GPGGA,211455.000,4041.8522,N,07422.0249,W,1,08,1.00,91.7,M,-34.2,M,,*66
267,0,-0.23,-0.66,-0.15,0.06,0.25,-1.62,-0.7915,0.0114,-0.0121,0.6110,$GPGGA,211455.100,4041.8512,N,07422.0256,W,1,08,1.00,91.7,M,-34.2,M,,*6A
268,0,-0.65,0.02,-0.02,1.00,-0.69,-0.88,-0.7909,0.0107,-0.0112,0.6118,$GPGGA,211455.200,4041.8503,N,07422.0263,W,1,08,1.01,91.6,M,-34.2,M,,*6F
269,0,-0.37,-0.27,0.09,-0.06,0.44,-0.94,-0.7904,0.0107,-0.0115,0.6124,$GPGGA,211455.300,4041.8494,N,07422.0271,W,1,08,1.01,91.6,M,-34.2,M,,*62
270,0,-0.23,-0.30,0.17,0.69,0.13,-1.44,-0.7897,0.0107,-0.0120,0.6132,$GPGGA,211455.400,4041.8485,N,07422.0278,W,1,08,1.00,91.5,M,-34.2,M,,*6E
271,0,-0.28,0.00,-0.68,-0.37,1.87,-0.88,-0.7891,0.0101,-0.0126,0.6140,$GPGGA,211455.500,4041.8475,N,07422.0285,W,1,08,1.00,91.7,M,-34.2,M,,*60
272,0,-0.31,-0.58,-0.15,1.50,0.81,-0.62,-0.7888,0.0087,-0.0132,0.6144,$GPGGA,211455.600,4041.8466,N,07422.0292,W,1,08,1.00,91.6,M,-34.2,M,,*66
273,0,-0.39,0.48,-0.43,0.44,0.94,-0.69,-0.7885,0.0082,-0.0139,0.6149,$GPGGA,211455.700,4041.8457,N,07422.0300,W,1,08,1.00,91.6,M,-34.2,M,,*6F
274,0,-0.33,-0.19,-0.20,-1.31,0.00,-0.81,-0.7880,0.0082,-0.0141,0.6154,$GPGGA,211455.800,4041.8447,N,07422.0307,W,1,08,1.00,91.7,M,-34.2,M,,*67
275,0,-0.37,-0.41,-0.31,-0.69,0.62,-0.94,-0.7875,0.0081,-0.0146,0.6161,$GPGGA,211455.900,4041.8438,N,07422.0315,W,1,08,1.01,91.6,M,-34.2,M,,*6D
276,0,-0.22,-0.38,-0.18,0.75,1.37,-0.88,-0.7870,0.0075,-0.0165,0.6166,$GPGGA,211456.000,4041.8429,N,07422.0323,W,1,08,1.01,91.6,M,-34.2,M,,*62
277,0,-0.43,-0.62,-0.55,0.50,-0.06,-1.00,-0.7866,0.0070,-0.0166,0.6172,$GPGGA,211456.100,4041.8420,N,07422.0331,W,1,08,1.00,91.6,M,-34.2,M,,*68
278,0,-0.55,-0.31,0.12,-0.62,0.06,-1.00,-0.7862,0.0068,-0.0168,0.6177,$GPGGA,211456.200,4041.8411,N,07422.0338,W,1,08,1.01,91.5,M,-34.2,M,,*62
279,0,-0.16,-0.80,-0.39,-0.56,-0.19,-1.37,-0.7856,0.0069,-0.0178,0.6185,$GPGGA,211456.300,4041.8402,N,07422.0346,W,1,08,1.01,91.5,M,-34.2,M,,*68
280,0,-0.37,-0.56,0.33,-0.37,1.06,-1.62,-0.7847,0.0068,-0.0182,0.6195,$GPGGA,211456.400,4041.8392,N,07422.0354,W,1,08,1.00,91.4,M,-34.2,M,,*62
281,0,-0.08,-0.86,-0.30,0.94,0.56,-1.62,-0.7838,0.0063,-0.0186,0.6207,$GPGGA,211456.500,4041.8383,N,07422.0361,W,1,08,1.00,91.4,M,-34.2,M,,*65
282,0,-0.18,-0.74,-0.03,1.75,0.19,-1.50,-0.7830,0.0059,-0.0200,0.6218,$GPGGA,211456.600,4041.8374,N,07422.0369,W,1,08,1.00,91.4,M,-34.2,M,,*66
283,0,-0.37,-0.04,-0.31,1.50,0.88,-1.37,-0.7822,0.0048,-0.0195,0.6227,$GPGGA,211456.700,4041.8365,N,07422.0376,W,1,08,1.00,91.3,M,-34.2,M,,*6E
284,0,-0.21,-0.49,0.15,1.12,-0.69,-1.44,-0.7815,0.0046,-0.0207,0.6236,$GPGGA,211456.800,4041.8356,N,07422.0383,W,1,08,1.00,91.3,M,-34.2,M,,*6B
285,0,-0.47,0.02,-0.02,0.50,-0.50,-1.50,-0.7807,0.0044,-0.0211,0.6245,$GPGGA,211456.900,4041.8346,N,07422.0391,W,1,08,1.01,91.2,M,-34.2,M,,*68
286,0,-0.42,-0.18,-0.36,-0.06,-0.25,-1.69,-0.7798,0.0048,-0.0207,0.6256,$GPGGA,211457.000,4041.8337,N,07422.0398,W,1,08,1.01,91.2,M,-34.2,M,,*6F
287,0,-0.04,-0.54,0.57,0.37,-0.56,-2.00,-0.7788,0.0059,-0.0226,0.6268,$GPGGA,211457.100,4041.8328,N,07422.0406,W,1,08,1.01,91.1,M,-34.2,M,,*63
288,0,-0.17,-0.76,0.42,2.94,1.50,-2.56,-0.7775,0.0060,-0.0231,0.6284,$GPGGA,211457.200,4041.8319,N,07422.0414,W,1,08,1.01,91.1,M,-34.2,M,,*61
289,0,0.10,-0.81,-0.36,2.12,0.56,-2.87,-0.7761,0.0059,-0.0242,0.6302,$GPGGA,211457.300,4041.8310,N,07422.0422,W,1,08,1.01,91.1,M,-34.2,M,,*6C
290,0,-0.23,-0.76,-0.16,1.37,0.62,-3.06,-0.7744,0.0043,-0.0237,0.6322,$GPGGA,211457.400,4041.8301,N,07422.0429,W,1,08,1.00,91.2,M,-34.2,M,,*62
291,0,-0.10,-0.91,-0.20,-0.50,0.37,-4.00,-0.7724,0.0063,-0.0270,0.6345,$GPGGA,211457.500,4041.8292,N,07422.0437,W,1,08,1.00,91.1,M,-34.2,M,,*64
292,0,-0.07,-1.02,0.45,-0.25,-1.50,-4.19,-0.7701,0.0085,-0.0293,0.6372,$GPGGA,211457.600,4041.8283,N,07422.0445,W,1,08,1.00,91.1,M,-34.2,M,,*62
293,0,-0.24,-1.27,0.68,2.00,-2.69,-3.62,-0.7680,0.0095,-0.0282,0.6397,$GPGGA,211457.700,4041.8274,N,07422.0452,W,1,08,1.00,91.2,M,-34.2,M,,*6E
294,0,-0.10,-0.87,0.48,1.12,-1.31,-3.75,-0.7661,0.0102,-0.0260,0.6421,$GPGGA,211457.800,4041.8265,N,07422.0460,W,1,08,1.01,91.2,M,-34.2,M,,*61
295,0,0.01,-1.13,0.47,0.62,-1.19,-4.06,-0.7639,0.0110,-0.0267,0.6447,$GPGGA,211457.900,4041.8256,N,07422.0468,W,1,08,1.01,91.1,M,-34.2,M,,*6B
296,0,-0.33,-1.00,0.29,0.00,0.25,-4.37,-0.7615,0.0135,-0.0289,0.6474,$GPGGA,211458.000,4041.8247,N,07422.0476,W,1,08,1.01,91.1,M,-34.2,M,,*62
297,0,-0.23,-1.47,0.00,0.37,-0.13,-4.62,-0.7589,0.0161,-0.0314,0.6503,$GPGGA,211458.100,4041.8238,N,07422.0484,W,1,08,1.00,91.1,M,-34.2,M,,*67
298,0,-0.25,-1.11,0.35,1.31,-1.75,-4.75,-0.7563,0.0157,-0.0303,0.6533,$GPGGA,211458.200,4041.8229,N,07422.0492,W,1,08,1.01,91.1,M,-34.2,M,,*62
299,0,-0.48,-0.54,0.41,2.87,-0.81,-4.69,-0.7535,0.0192,-0.0330,0.6564,$GPGGA,211458.300,4041.8221,N,07422.0500,W,1,08,1.01,91.0,M,-34.2,M,,*60
300,0,-0.23,-0.78,0.42,2.37,0.25,-4.25,-0.7510,0.0197,-0.0335,0.6592,$GPGGA,211458.400,4041.8212,N,07422.0507,W,1,08,1.00,91.0,M,-34.2,M,,*61
301,0,-0.17,-0.95,-0.07,0.25,-0.25,-3.37,-0.7489,0.0200,-0.0340,0.6616,$GPGGA,211458.500,4041.8203,N,07422.0515,W,1,08,1.00,91.0,M,-34.2,M,,*63
302,0,-0.46,-0.27,0.25,1.75,0.44,-2.81,-0.7473,0.0190,-0.0332,0.6635,$GPGGA,211458.600,4041.8195,N,07422.0523,W,1,08,1.00,91.0,M,-34.2,M,,*69
303,0,-0.22,0.10,0.03,1.12,-0.88,-3.00,-0.7457,0.0188,-0.0327,0.6653,$GPGGA,211458.700,4041.8186,N,07422.0531,W,1,08,1.00,91.1,M,-34.2,M,,*68
304,0,-0.26,-0.74,0.17,-0.50,-0.56,-3.19,-0.7440,0.0193,-0.0321,0.6672,$GPGGA,211458.800,4041.8177,N,07422.0539,W,1,08,1.01,91.1,M,-34.2,M,,*60
305,0,-0.35,0.25,0.17,-1.44,1.62,-3.31,-0.7421,0.0197,-0.0327,0.6693,$GPGGA,211458.900,4041.8169,N,07422.0547,W,1,08,1.01,91.0,M,-34.2,M,,*66
306,0,-0.09,-0.45,0.43,0.31,-2.44,-3.75,-0.7400,0.0209,-0.0332,0.6715,$GPGGA,211459.000,4041.8161,N,07422.0555,W,1,08,1.01,91.0,M,-34.2,M,,*65
307,0,-0.19,-0.20,0.57,-0.13,-0.13,-4.37,-0.7376,0.0219,-0.0347,0.6740,$GPGGA,211459.100,4041.8152,N,07422.0564,W,1,08,1.01,91.0,M,-34.2,M,,*66
308,0,-0.26,-0.80,0.23,1.19,0.37,-3.87,-0.7352,0.0225,-0.0364,0.6765,$GPGGA,211459.200,4041.8144,N,07422.0572,W,1,08,1.00,91.0,M,-34.2,M,,*64
309,0,0.04,-0.45,0.32,1.19,0.00,-3.69,-0.7330,0.0221,-0.0353,0.6790,$GPGGA,211459.300,4041.8136,N,07422.0580,W,1,08,1.01,91.0,M,-34.2,M,,*6C
310,0,-0.16,-0.76,0.62,1.19,0.31,-4.00,-0.7307,0.0234,-0.0363,0.6813,$GPGGA,211459.400,4041.8128,N,07422.0589,W,1,08,1.00,90.9,M,-34.2,M,,*64
311,0,-0.32,-0.39,-0.52,0.06,0.62,-4.37,-0.7281,0.0234,-0.0374,0.6840,$GPGGA,211459.500,4041.8120,N,07422.0597,W,1,08,1.00,90.9,M,-34.2,M,,*62
312,0,-0.14,-0.17,-0.27,-1.62,0.31,-4.25,-0.7255,0.0234,-0.0381,0.6868,$GPGGA,211459.600,4041.8112,N,07422.0606,W,1,08,1.01,90.9,M,-34.2,M,,*6A
313,0,-0.16,-0.82,-0.34,-1.37,0.50,-4.25,-0.7229,0.0243,-0.0407,0.6893,$GPGGA,211459.700,4041.8104,N,07422.0615,W,1,08,1.01,90.8,M,-34.2,M,,*6F
314,0,-0.18,-0.58,0.24,-1.06,-1.31,-4.25,-0.7203,0.0254,-0.0417,0.6919,$GPGGA,211459.800,4041.8096,N,07422.0624,W,1,08,1.01,90.8,M,-34.2,M,,*68
315,0,-0.18,0.08,0.48,1.19,-1.12,-3.31,-0.7181,0.0262,-0.0416,0.6942,$GPGGA,211459.900,4041.8088,N,07422.0634,W,1,08,1.01,90.8,M,-34.2,M,,*67
316,0,-0.30,0.22,0.47,0.88,-1.56,-2.69,-0.7164,0.0269,-0.0409,0.6960,$GPGGA,211500.000,4041.8080,N,07422.0643,W,1,08,1.00,90.8,M,-34.2,M,,*6A
317,0,-0.13,-0.12,0.33,-0.25,-2.25,-2.87,-0.7148,0.0274,-0.0397,0.6976,$GPGGA,211500.100,4041.8072,N,07422.0652,W,1,08,1.00,90.8,M,-34.2,M,,*66
318,0,-0.27,-0.23,-0.20,-1.31,-0.25,-3.56,-0.7130,0.0281,-0.0396,0.6996,$GPGGA,211500.200,4041.8065,N,07422.0662,W,1,08,1.01,90.9,M,-34.2,M,,*60
319,0,-0.46,-0.27,0.30,-0.62,0.81,-3.94,-0.7107,0.0283,-0.0401,0.7018,$GPGGA,211500.300,4041.8057,N,07422.0671,W,1,08,1.00,90.9,M,-34.2,M,,*63
320,0,-0.34,-0.37,-0.35,-0.31,-1.75,-4.31,-0.7083,0.0290,-0.0398,0.7042,$GPGGA,211500.400,4041.8049,N,07422.0681,W,1,08,1.00,90.9,M,-34.2,M,,*64
321,0,-0.15,-0.72,0.41,-0.75,-1.62,-4.87,-0.7056,0.0306,-0.0400,0.7068,$GPGGA,211500.500,4041.8042,N,07422.0690,W,1,08,1.00,90.9,M,-34.2,M,,*6E
322,0,-0.21,-1.10,-0.48,-0.50,-0.88,-5.19,-0.7025,0.0324,-0.0427,0.7097,$GPGGA,211500.600,4041.8034,N,07422.0699,W,1,08,1.01,90.9,M,-34.2,M,,*64
323,0,-0.50,-0.70,0.33,-1.06,1.19,-4.81,-0.6995,0.0323,-0.0428,0.7126,$GPGGA,211500.700,4041.8027,N,07422.0708,W,1,08,1.00,90.9,M,-34.2,M,,*6F
324,0,-0.03,-0.71,-0.11,2.37,3.19,-4.87,-0.6964,0.0326,-0.0443,0.7155,$GPGGA,211500.800,4041.8019,N,07422.0717,W,1,08,1.01,90.9,M,-34.2,M,,*62
325,0,-0.29,-0.79,0.60,1.00,0.50,-4.81,-0.6935,0.0305,-0.0427,0.7186,$GPGGA,211500.900,4041.8012,N,07422.0726,W,1,08,1.01,90.9,M,-34.2,M,,*6A
326,0,-0.41,-0.68,0.17,5.12,-1.69,-4.56,-0.6907,0.0292,-0.0410,0.7214,$GPGGA,211501.000,4041.8004,N,07422.0735,W,1,08,1.00,90.9,M,-34.2,M,,*66
327,0,-0.58,-0.46,0.31,1.37,-2.25,-4.12,-0.6882,0.0289,-0.0375,0.7239,$GPGGA,211501.100,4041.7997,N,07422.0744,W,1,08,1.00,90.9,M,-34.2,M,,*6D
328,0,-0.44,0.52,1.21,1.56,-3.37,-3.56,-0.6860,0.0297,-0.0358,0.7261,$GPGGA,211501.200,4041.7990,N,07422.0753,W,1,08,1.01,90.9,M,-34.2,M,,*6E
329,0,-0.29,0.57,0.95,-1.44,-3.69,-2.56,-0.6841,0.0324,-0.0341,0.7278,$GPGGA,211501.300,4041.7983,N,07422.0762,W,1,08,1.01,91.0,M,-34.2,M,,*67
330,0,-0.31,0.26,0.49,0.37,2.44,-2.25,-0.6826,0.0336,-0.0342,0.7292,$GPGGA,211501.400,4041.7976,N,07422.0772,W,1,08,1.00,91.0,M,-34.2,M,,*6A
331,0,-0.20,-0.24,-1.08,-0.75,2.31,-2.56,-0.6810,0.0317,-0.0363,0.7307,$GPGGA,211501.500,4041.7969,N,07422.0781,W,1,08,1.00,91.0,M,-34.2,M,,*69
332,0,-0.68,0.25,-0.07,0.37,0.50,-2.00,-0.6796,0.0306,-0.0365,0.7320,$GPGGA,211501.600,4041.7962,N,07422.0790,W,1,08,1.01,91.0,M,-34.2,M,,*60
333,0,-0.56,0.65,0.48,-1.25,-1.12,-1.81,-0.6785,0.0312,-0.0368,0.7330,$GPGGA,211501.700,4041.7955,N,07422.0799,W,1,08,1.01,91.0,M,-34.2,M,,*6C
334,0,-0.40,0.51,0.12,-0.31,-1.06,-2.12,-0.6774,0.0294,-0.0363,0.7342,$GPGGA,211501.800,4041.7949,N,07422.0808,W,1,08,1.01,91.1,M,-34.2,M,,*68
335,0,-0.18,0.01,-0.47,1.62,1.87,-2.37,-0.6759,0.0286,-0.0363,0.7355,$GPGGA,211501.900,4041.7942,N,07422.0817,W,1,08,1.00,91.1,M,-34.2,M,,*6D
336,0,-0.10,-0.24,-0.70,1.62,2.50,-2.62,-0.6743,0.0267,-0.0369,0.7371,$GPGGA,211502.000,4041.7936,N,07422.0826,W,1,08,1.01,91.2,M,-34.2,M,,*64
337,0,-0.21,-0.13,-0.19,2.00,1.56,-2.56,-0.6727,0.0241,-0.0372,0.7386,$GPGGA,211502.100,4041.7929,N,07422.0835,W,1,08,1.00,91.2,M,-34.2,M,,*68
338,0,-0.27,0.01,0.17,-0.25,-1.75,-2.87,-0.6710,0.0236,-0.0368,0.7402,$GPGGA,211502.200,4041.7923,N,07422.0845,W,1,08,1.00,91.2,M,-34.2,M,,*66
339,0,-0.37,-0.21,0.98,-0.19,-2.69,-3.31,-0.6691,0.0247,-0.0355,0.7419,$GPGGA,211502.300,4041.7917,N,07422.0854,W,1,08,1.01,91.3,M,-34.2,M,,*60
340,0,-0.35,-0.13,0.61,-0.06,-2.00,-3.87,-0.6669,0.0268,-0.0339,0.7439,$GPGGA,211502.400,4041.7910,N,07422.0864,W,1,08,1.00,91.3,M,-34.2,M,,*62
341,0,-0.21,-0.43,0.93,0.00,-2.00,-4.50,-0.6642,0.0286,-0.0331,0.7463,$GPGGA,211502.500,4041.7904,N,07422.0874,W,1,08,1.00,91.3,M,-34.2,M,,*67
342,0,-0.33,-0.24,0.33,1.06,-1.19,-4.62,-0.6611,0.0303,-0.0342,0.7488,$GPGGA,211502.600,4041.7898,N,07422.0883,W,1,08,1.00,91.3,M,-34.2,M,,*68
343,0,-0.15,-0.33,0.53,0.56,-0.37,-4.19,-0.6583,0.0314,-0.0349,0.7513,$GPGGA,211502.700,4041.7892,N,07422.0893,W,1,08,1.01,91.3,M,-34.2,M,,*63
344,0,-0.10,0.01,0.68,0.31,-1.50,-4.12,-0.6557,0.0319,-0.0349,0.7535,$GPGGA,211502.800,4041.7886,N,07422.0902,W,1,08,1.01,91.4,M,-34.2,M,,*67
345,0,0.02,-0.25,0.60,1.19,-0.25,-4.19,-0.6531,0.0323,-0.0346,0.7558,$GPGGA,211502.900,4041.7880,N,07422.0912,W,1,08,1.01,91.4,M,-34.2,M,,*61
346,0,0.02,-0.37,0.25,-1.50,0.94,-4.06,-0.6504,0.0328,-0.0350,0.7581,$GPGGA,211503.000,4041.7874,N,07422.0921,W,1,08,1.01,91.4,M,-34.2,M,,*62
347,0,0.32,0.01,0.20,0.25,-1.50,-4.25,-0.6476,0.0339,-0.0347,0.7604,$GPGGA,211503.100,4041.7868,N,07422.0931,W,1,08,1.01,91.4,M,-34.2,M,,*6F
348,0,0.34,-0.44,0.30,0.06,0.06,-4.19,-0.6449,0.0349,-0.0350,0.7626,$GPGGA,211503.200,4041.7862,N,07422.0941,W,1,08,1.01,91.5,M,-34.2,M,,*60
349,0,0.24,-0.67,0.06,-0.56,0.31,-3.94,-0.6422,0.0353,-0.0351,0.7650,$GPGGA,211503.300,4041.7856,N,07422.0950,W,1,08,1.01,91.5,M,-34.2,M,,*66
350,0,0.39,-0.43,0.39,0.31,0.44,-4.25,-0.6395,0.0361,-0.0349,0.7672,$GPGGA,211503.400,4041.7850,N,07422.0960,W,2,08,1.00,91.5,M,-34.2,M,0000,0000*66
351,0,0.10,-0.12,-0.42,0.06,0.56,-4.12,-0.6366,0.0392,-0.0349,0.7694,$GPGGA,211503.500,4041.7845,N,07422.0970,W,2,08,1.00,91.5,M,-34.2,M,0000,0000*62
352,0,-0.05,-0.12,0.03,0.88,-0.62,-4.06,-0.6337,0.0414,-0.0345,0.7717,$GPGGA,211503.600,4041.7839,N,07422.0980,W,2,08,1.00,91.5,M,-34.2,M,0000,0000*65
353,0,0.38,-0.03,-0.08,0.19,-1.25,-3.69,-0.6315,0.0419,-0.0337,0.7736,$GPGGA,211503.700,4041.7833,N,07422.0990,W,2,08,1.00,91.5,M,-34.2,M,0000,0000*6F
354,0,0.34,0.20,-0.03,1.12,-0.94,-3.31,-0.6289,0.0423,-0.0328,0.7756,$GPGGA,211503.800,4041.7828,N,07422.1000,W,2,08,1.01,91.5,M,-34.2,M,0000,0000*6A
355,0,0.18,0.09,-0.27,-0.13,-1.12,-3.19,-0.6268,0.0427,-0.0318,0.7773,$GPGGA,211503.900,4041.7822,N,07422.1010,W,2,08,1.00,91.6,M,-34.2,M,0000,0000*62
356,0,0.10,-0.07,0.94,0.44,0.06,-3.00,-0.6247,0.0433,-0.0305,0.7791,$GPGGA,211504.000,4041.7816,N,07422.1020,W,2,08,1.01,91.6,M,-34.2,M,0000,0000*69
357,0,0.03,0.48,0.45,0.00,-0.62,-2.69,-0.6228,0.0435,-0.0303,0.7806,$GPGGA,211504.100,4041.7811,N,07422.1030,W,2,08,1.01,91.7,M,-34.2,M,0000,0000*6F
358,0,0.26,0.31,0.02,-0.31,-0.81,-2.56,-0.6210,0.0440,-0.0292,0.7820,$GPGGA,211504.200,4041.7805,N,07422.1041,W,2,08,1.01,91.7,M,-34.2,M,0000,0000*6F
359,0,0.00,0.28,0.75,-0.19,-0.62,-2.69,-0.6193,0.0443,-0.0282,0.7834,$GPGGA,211504.300,4041.7800,N,07422.1051,W,2,08,1.01,91.8,M,-34.2,M,0000,0000*65
360,0,0.00,0.25,0.62,-0.31,-1.44,-2.87,-0.6174,0.0446,-0.0271,0.7849,$GPGGA,211504.400,4041.7795,N,07422.1062,W,2,08,1.00,91.8,M,-34.2,M,0000,0000*60
361,0,-0.31,0.42,1.02,0.50,-0.31,-2.69,-0.6156,0.0449,-0.0268,0.7863,$GPGGA,211504.500,4041.7789,N,07422.1073,W,2,08,1.00,91.9,M,-34.2,M,0000,0000*6D
362,0,-0.17,0.56,0.66,0.75,0.19,-2.56,-0.6138,0.0449,-0.0264,0.7877,$GPGGA,211504.600,4041.7784,N,07422.1084,W,2,08,1.01,91.9,M,-34.2,M,0000,0000*6A
363,0,0.16,0.61,0.70,-0.37,-0.56,-2.87,-0.6119,0.0451,-0.0267,0.7892,$GPGGA,211504.700,4041.7780,N,07422.1095,W,2,08,1.01,92.0,M,-34.2,M,0000,0000*65
364,0,0.00,0.13,0.44,-2.87,0.13,-2.81,-0.6099,0.0463,-0.0277,0.7906,$GPGGA,211504.800,4041.7775,N,07422.1106,W,2,08,1.01,92.0,M,-34.2,M,0000,0000*6B
365,0,0.17,0.02,0.37,-2.31,-0.94,-3.19,-0.6078,0.0480,-0.0292,0.7921,$GPGGA,211504.900,4041.7770,N,07422.1118,W,2,08,1.01,92.1,M,-34.2,M,0000,0000*61
366,0,-0.12,-0.04,0.96,-2.44,-1.12,-3.06,-0.6056,0.0494,-0.0302,0.7936,$GPGGA,211505.000,4041.7765,N,07422.1129,W,2,08,1.01,92.2,M,-34.2,M,0000,0000*6C
367,0,-0.32,0.21,0.78,0.75,-1.25,-2.62,-0.6037,0.0505,-0.0299,0.7950,$GPGGA,211505.100,4041.7760,N,07422.1141,W,2,08,1.01,92.3,M,-34.2,M,0000,0000*67
368,0,-0.10,0.26,0.86,0.81,-0.25,-2.31,-0.6021,0.0510,-0.0291,0.7963,$GPGGA,211505.200,4041.7755,N,07422.1153,W,2,08,1.01,92.4,M,-34.2,M,0000,0000*66
369,0,0.12,0.23,0.28,0.44,-1.12,-2.44,-0.6005,0.0511,-0.0278,0.7975,$GPGGA,211505.300,4041.7750,N,07422.1165,W,2,08,1.01,92.5,M,-34.2,M,0000,0000*66
370,0,0.16,0.30,0.53,-1.25,0.37,-2.37,-0.5988,0.0515,-0.0276,0.7988,$GPGGA,211505.400,4041.7745,N,07422.1176,W,2,08,1.00,92.5,M,-34.2,M,0000,0000*66
371,0,0.11,0.03,0.55,-1.37,0.62,-2.75,-0.5970,0.0515,-0.0283,0.8000,$GPGGA,211505.500,4041.7740,N,07422.1188,W,2,08,1.00,92.6,M,-34.2,M,0000,0000*60
372,0,-0.23,0.23,0.21,-1.19,-0.06,-2.75,-0.5952,0.0521,-0.0293,0.8014,$GPGGA,211505.600,4041.7735,N,07422.1199,W,2,08,1.00,92.6,M,-34.2,M,0000,0000*61
373,0,-0.35,0.42,0.07,-0.75,-0.81,-2.56,-0.5933,0.0524,-0.0295,0.8027,$GPGGA,211505.700,4041.7730,N,07422.1211,W,2,08,1.01,92.7,M,-34.2,M,0000,0000*66
374,0,-0.22,0.47,0.56,-0.19,-0.94,-2.56,-0.5915,0.0533,-0.0294,0.8040,$GPGGA,211505.800,4041.7725,N,07422.1222,W,2,08,1.01,92.8,M,-34.2,M,0000,0000*62
375,0,0.07,0.21,0.71,-0.56,-1.19,-2.50,-0.5898,0.0535,-0.0293,0.8052,$GPGGA,211505.900,4041.7720,N,07422.1234,W,2,08,1.01,92.8,M,-34.2,M,0000,0000*61
376,0,0.26,0.23,0.22,-0.62,-0.69,-2.25,-0.5883,0.0537,-0.0294,0.8063,$GPGGA,211506.000,4041.7715,N,07422.1246,W,2,08,1.01,92.9,M,-34.2,M,0000,0000*69
377,0,0.17,0.00,-0.92,-2.31,0.25,-1.69,-0.5870,0.0539,-0.0297,0.8073,$GPGGA,211506.100,4041.7710,N,07422.1258,W,2,08,1.01,93.0,M,-34.2,M,0000,0000*6A
378,0,-0.21,0.59,-0.29,-0.44,0.25,-1.31,-0.5861,0.0524,-0.0290,0.8080,$GPGGA,211506.200,4041.7706,N,07422.1270,W,2,08,1.01,93.1,M,-34.2,M,0000,0000*65
379,0,-0.33,0.93,0.19,1.00,-1.62,-1.06,-0.5853,0.0526,-0.0288,0.8085,$GPGGA,211506.300,4041.7701,N,07422.1282,W,2,08,1.01,93.2,M,-34.2,M,0000,0000*6D
380,0,-0.10,1.08,-0.43,-3.25,-0.06,-1.31,-0.5845,0.0540,-0.0294,0.8091,$GPGGA,211506.400,4041.7696,N,07422.1294,W,2,08,1.00,93.3,M,-34.2,M,0000,0000*62
381,0,-0.09,0.40,-0.29,-1.00,-0.69,-1.12,-0.5836,0.0552,-0.0303,0.8096,$GPGGA,211506.500,4041.7691,N,07422.1306,W,2,08,1.00,93.3,M,-34.2,M,0000,0000*6E
382,0,0.12,0.23,0.53,-0.75,-0.69,-0.88,-0.5828,0.0568,-0.0300,0.8101,$GPGGA,211506.600,4041.7687,N,07422.1318,W,2,08,1.00,93.4,M,-34.2,M,0000,0000*62
383,0,0.00,0.42,-0.10,0.25,0.75,-0.56,-0.5825,0.0559,-0.0295,0.8104,$GPGGA,211506.700,4041.7682,N,07422.1329,W,2,08,1.00,93.5,M,-34.2,M,0000,0000*65
384,0,-0.17,0.92,-0.81,0.44,-1.25,-0.37,-0.5825,0.0557,-0.0294,0.8104,$GPGGA,211506.800,4041.7678,N,07422.1341,W,2,08,1.00,93.6,M,-34.2,M,0000,0000*62
385,0,-0.25,0.78,0.18,-0.13,-1.12,-0.37,-0.5825,0.0555,-0.0286,0.8105,$GPGGA,211506.900,4041.7673,N,07422.1353,W,2,08,1.01,93.6,M,-34.2,M,0000,0000*6A
386,0,-0.22,0.56,0.87,-1.31,-1.06,-0.25,-0.5826,0.0497,-0.0228,0.8110,$GPGGA,211507.000,4041.7669,N,07422.1365,W,2,08,1.01,93.7,M,-34.2,M,0000,0000*6D
387,0,0.05,0.14,-0.19,0.00,0.19,-0.50,-0.5826,0.0495,-0.0220,0.8110,$GPGGA,211507.100,4041.7664,N,07422.1377,W,2,08,1.00,93.8,M,-34.2,M,0000,0000*6C
388,0,-0.23,0.67,-0.41,0.69,1.25,-0.13,-0.5826,0.0490,-0.0224,0.8110,$GPGGA,211507.200,4041.7660,N,07422.1389,W,2,08,1.01,93.8,M,-34.2,M,0000,0000*6B
389,0,-0.24,0.75,0.82,0.69,-0.06,0.37,-0.5826,0.0482,-0.0218,0.8110,$GPGGA,211507.300,4041.7655,N,07422.1401,W,2,08,1.01,93.9,M,-34.2,M,0000,0000*6A
390,0,0.05,0.94,0.60,-0.94,-2.19,0.25,-0.5826,0.0490,-0.0214,0.8110,$GPGGA,211507.400,4041.7651,N,07422.1413,W,2,08,1.00,94.0,M,-34.2,M,0000,0000*65
391,0,0.04,0.58,0.26,-0.75,-0.94,0.19,-0.5826,0.0499,-0.0215,0.8109,$GPGGA,211507.500,4041.7646,N,07422.1424,W,2,08,1.00,94.1,M,-34.2,M,0000,0000*67
392,0,-0.48,0.12,0.61,-1.06,0.88,0.06,-0.5826,0.0497,-0.0206,0.8110,$GPGGA,211507.600,4041.7642,N,07422.1436,W,2,08,1.00,94.1,M,-34.2,M,0000,0000*63
393,0,-0.27,1.03,-0.18,-1.44,2.06,0.25,-0.5826,0.0493,-0.0212,0.8110,$GPGGA,211507.700,4041.7637,N,07422.1448,W,2,08,1.01,94.2,M,-34.2,M,0000,0000*6B
394,0,-0.14,0.67,-0.03,-1.00,-1.06,0.44,-0.5825,0.0500,-0.0224,0.8110,$GPGGA,211507.800,4041.7633,N,07422.1460,W,2,08,1.01,94.3,M,-34.2,M,0000,0000*6B
395,0,-0.27,0.72,1.05,0.44,-2.75,0.06,-0.5825,0.0507,-0.0209,0.8109,$GPGGA,211507.900,4041.7628,N,07422.1472,W,2,08,1.01,94.4,M,-34.2,M,0000,0000*64
396,0,0.04,0.10,1.22,1.87,-1.31,0.31,-0.5826,0.0522,-0.0199,0.8109,$GPGGA,211508.000,4041.7624,N,07422.1484,W,2,08,1.01,94.5,M,-34.2,M,0000,0000*66
397,0,-0.11,1.05,-0.08,-0.19,1.06,0.31,-0.5829,0.0507,-0.0174,0.8108,$GPGGA,211508.100,4041.7620,N,07422.1496,W,2,08,1.01,94.5,M,-34.2,M,0000,0000*60
398,0,-0.28,0.62,-1.08,1.81,1.00,0.56,-0.5828,0.0496,-0.0184,0.8109,$GPGGA,211508.200,4041.7615,N,07422.1509,W,2,08,1.01,94.6,M,-34.2,M,0000,0000*61
399,0,-0.28,0.79,0.79,-1.62,-0.31,0.06,-0.5829,0.0494,-0.0177,0.8109,$GPGGA,211508.300,4041.7610,N,07422.1521,W,2,08,1.01,94.7,M,-34.2,M,0000,0000*6E
400,0,-0.07,0.25,-0.02,0.06,0.69,0.19,-0.5829,0.0493,-0.0172,0.8109,$GPGGA,211508.400,4041.7606,N,07422.1532,W,2,08,1.00,94.8,M,-34.2,M,0000,0000*62
401,0,-0.36,0.32,0.37,-0.69,1.19,0.19,-0.5829,0.0492,-0.0168,0.8109,$GPGGA,211508.500,4041.7601,N,07422.1545,W,2,08,1.00,94.9,M,-34.2,M,0000,0000*65
402,0,-0.26,0.70,0.73,-0.50,0.62,0.19,-0.5829,0.0466,-0.0146,0.8111,$GPGGA,211508.600,4041.7597,N,07422.1557,W,2,08,1.00,95.0,M,-34.2,M,0000,0000*61
