0,0,-0.59,0.32,-0.05,-0.94,0.13,-1.12,0.9183,0.0664,-0.0317,0.3889,$GPGGA,151619.800,3852.5517,N,07703.3174,W,1,05,3.54,-0.9,M,-33.5,M,,*7E
1,0,0.16,-1.19,0.78,5.12,1.12,-0.88,0.9190,0.0662,-0.0317,0.3873,$GPGGA,151619.800,3852.5517,N,07703.3174,W,1,05,3.54,-0.9,M,-33.5,M,,*7E
2,0,-0.37,0.75,-0.49,-1.06,0.06,-0.88,0.9208,0.0667,-0.0305,0.3831,$GPGGA,151620.000,3852.5525,N,07703.3201,W,1,05,3.54,-0.8,M,-33.5,M,,*7D
3,0,-0.22,-1.18,-1.87,-2.75,2.06,-0.88,0.9211,0.0646,-0.0306,0.3826,$GPGGA,151620.100,3852.5529,N,07703.3214,W,1,05,3.54,-0.8,M,-33.5,M,,*74
4,0,-0.56,-0.43,-0.10,0.06,1.87,-1.31,0.9216,0.0634,-0.0296,0.3819,$GPGGA,151620.200,3852.5534,N,07703.3228,W,1,05,2.74,-0.8,M,-33.5,M,,*77
5,0,-0.42,-1.00,-0.47,1.94,-0.75,-1.50,0.9220,0.0634,-0.0286,0.3809,$GPGGA,151620.300,3852.5538,N,07703.3241,W,1,05,2.74,-0.8,M,-33.5,M,,*75
6,0,-0.84,-1.73,-0.48,0.62,-1.37,-1.69,0.9224,0.0644,-0.0291,0.3796,$GPGGA,151620.400,3852.5542,N,07703.3255,W,1,05,3.54,-0.7,M,-33.5,M,,*76
7,0,-0.01,-1.51,-0.85,1.87,-0.31,-2.31,0.9230,0.0666,-0.0294,0.3779,$GPGGA,151620.500,3852.5547,N,07703.3268,W,1,05,3.54,-0.7,M,-33.5,M,,*7C
8,0,-0.33,-1.25,-0.01,1.31,1.00,-2.37,0.9239,0.0637,-0.0292,0.3763,$GPGGA,151620.600,3852.5551,N,07703.3282,W,1,05,3.54,-0.7,M,-33.5,M,,*7C
9,0,-0.76,-1.17,-0.72,0.19,0.69,-2.87,0.9247,0.0634,-0.0280,0.3743,$GPGGA,151620.700,3852.5556,N,07703.3295,W,1,05,3.54,-0.7,M,-33.5,M,,*7C
10,0,-0.64,-1.02,0.71,-2.19,-0.25,-3.00,0.9258,0.0610,-0.0277,0.3719,$GPGGA,151620.800,3852.5560,N,07703.3309,W,1,05,3.54,-0.7,M,-33.5,M,,*72
11,0,-0.32,-1.33,0.14,-1.62,-3.37,-2.75,0.9268,0.0609,-0.0300,0.3694,$GPGGA,151620.900,3852.5564,N,07703.3322,W,1,05,3.54,-0.6,M,-33.5,M,,*7F
12,0,-1.11,-1.63,0.13,0.00,-0.13,-2.75,0.9277,0.0605,-0.0308,0.3671,$GPGGA,151621.000,3852.5569,N,07703.3336,W,1,05,2.74,-0.6,M,-33.5,M,,*7C
13,0,-0.38,-1.39,-0.77,2.44,-1.56,-3.06,0.9285,0.0617,-0.0309,0.3648,$GPGGA,151621.100,3852.5573,N,07703.3349,W,1,05,2.74,-0.6,M,-33.5,M,,*7E
14,0,-0.75,-1.56,0.00,2.00,0.13,-2.87,0.9293,0.0638,-0.0304,0.3625,$GPGGA,151621.200,3852.5577,N,07703.3362,W,1,05,2.74,-0.6,M,-33.5,M,,*70
15,0,-0.62,-1.06,0.10,1.44,-2.12,-3.12,0.9301,0.0654,-0.0305,0.3601,$GPGGA,151621.300,3852.5582,N,07703.3376,W,1,05,3.54,-0.5,M,-33.5,M,,*7E
16,0,-0.57,-1.29,-0.59,-0.62,-1.44,-3.00,0.9310,0.0656,-0.0318,0.3575,$GPGGA,151621.400,3852.5586,N,07703.3389,W,1,05,3.54,-0.5,M,-33.5,M,,*7D
17,0,-0.61,-0.96,0.62,-1.06,-2.06,-3.37,0.9321,0.0654,-0.0327,0.3549,$GPGGA,151621.500,3852.5591,N,07703.3402,W,1,05,3.54,-0.5,M,-33.5,M,,*7E
18,0,-0.26,-1.50,0.18,-2.62,-1.87,-3.12,0.9331,0.0638,-0.0343,0.3522,$GPGGA,151621.600,3852.5595,N,07703.3416,W,1,05,3.54,-0.5,M,-33.5,M,,*7C
19,0,-0.15,-1.57,-1.05,-1.62,2.44,-3.44,0.9343,0.0601,-0.0349,0.3497,$GPGGA,151621.700,3852.5600,N,07703.3429,W,1,05,3.54,-0.5,M,-33.5,M,,*7E
20,0,-0.21,-1.84,-0.73,-1.19,0.56,-3.37,0.9354,0.0593,-0.0339,0.3469,$GPGGA,151621.800,3852.5605,N,07703.3442,W,1,05,3.54,-0.5,M,-33.5,M,,*79
21,0,-0.77,-1.71,0.17,-1.12,-1.50,-3.87,0.9365,0.0584,-0.0342,0.3439,$GPGGA,151621.900,3852.5609,N,07703.3455,W,1,05,3.54,-0.5,M,-33.5,M,,*72
22,0,-0.81,-1.98,-0.30,0.88,-3.00,-4.31,0.9377,0.0595,-0.0359,0.3405,$GPGGA,151622.000,3852.5614,N,07703.3468,W,1,05,2.74,-0.4,M,-33.5,M,,*78
23,0,-0.14,-1.73,-0.48,-0.13,0.94,-3.75,0.9388,0.0598,-0.0365,0.3372,$GPGGA,151622.100,3852.5619,N,07703.3481,W,1,05,2.74,-0.4,M,-33.5,M,,*73
24,0,-0.10,-1.84,-0.81,1.00,0.31,-4.19,0.9400,0.0605,-0.0353,0.3340,$GPGGA,151622.200,3852.5624,N,07703.3494,W,1,05,2.74,-0.4,M,-33.5,M,,*7A
25,0,-0.28,-1.56,-0.28,0.00,1.75,-4.50,0.9412,0.0602,-0.0337,0.3307,$GPGGA,151622.300,3852.5629,N,07703.3507,W,1,05,2.74,-0.4,M,-33.5,M,,*7D
26,0,-0.19,-1.98,-0.28,-2.44,-0.13,-4.37,0.9425,0.0598,-0.0339,0.3270,$GPGGA,151622.400,3852.5634,N,07703.3520,W,1,05,2.74,-0.4,M,-33.5,M,,*73
27,0,-0.82,-1.43,0.74,-0.13,-2.62,-4.31,0.9437,0.0599,-0.0349,0.3234,$GPGGA,151622.500,3852.5640,N,07703.3533,W,1,05,3.54,-0.3,M,-33.5,M,,*77
28,0,-0.27,-0.88,-0.33,-1.87,-0.69,-4.00,0.9449,0.0596,-0.0361,0.3198,$GPGGA,151622.600,3852.5645,N,07703.3545,W,1,05,3.54,-0.3,M,-33.5,M,,*70
29,0,-0.34,-1.92,-1.60,-0.94,2.81,-4.06,0.9461,0.0582,-0.0353,0.3166,$GPGGA,151622.700,3852.5651,N,07703.3558,W,1,05,3.54,-0.3,M,-33.5,M,,*78
30,0,-0.13,-0.84,-0.11,-0.25,1.94,-4.37,0.9474,0.0571,-0.0328,0.3133,$GPGGA,151622.800,3852.5656,N,07703.3571,W,1,05,3.54,-0.3,M,-33.5,M,,*7B
31,0,-0.57,-2.05,-0.58,-1.81,0.37,-4.56,0.9486,0.0558,-0.0324,0.3098,$GPGGA,151622.900,3852.5661,N,07703.3584,W,1,05,3.54,-0.2,M,-33.5,M,,*75
32,0,0.06,-2.30,-0.89,-2.19,-0.69,-4.25,0.9498,0.0543,-0.0330,0.3062,$GPGGA,151623.000,3852.5667,N,07703.3596,W,1,05,2.74,-0.2,M,-33.5,M,,*7B
33,0,-0.30,-1.33,0.84,-3.19,0.88,-4.00,0.9509,0.0537,-0.0333,0.3031,$GPGGA,151623.100,3852.5672,N,07703.3609,W,1,05,2.74,-0.2,M,-33.5,M,,*7B
34,0,-0.48,-2.63,-1.11,-1.31,-1.94,-3.62,0.9519,0.0519,-0.0349,0.2999,$GPGGA,151623.200,3852.5678,N,07703.3621,W,1,05,2.74,-0.2,M,-33.5,M,,*78
35,0,-0.31,-1.75,-0.73,-0.25,4.50,-4.94,0.9531,0.0516,-0.0336,0.2964,$GPGGA,151623.300,3852.5684,N,07703.3634,W,1,05,2.74,-0.1,M,-33.5,M,,*7D
36,0,-0.12,-1.57,-0.69,3.81,-1.00,-4.69,0.9542,0.0518,-0.0311,0.2929,$GPGGA,151623.400,3852.5691,N,07703.3646,W,1,05,2.74,-0.1,M,-33.5,M,,*7B
37,0,-0.42,-2.01,-0.94,1.06,-0.69,-4.44,0.9552,0.0535,-0.0308,0.2895,$GPGGA,151623.500,3852.5698,N,07703.3658,W,1,05,3.54,-0.1,M,-33.5,M,,*7F
38,0,0.27,-1.66,-0.08,1.81,-2.62,-4.00,0.9561,0.0555,-0.0319,0.2861,$GPGGA,151623.600,3852.5704,N,07703.3670,W,1,05,3.54,0.0,M,-33.5,M,,*5E
39,0,-0.53,-1.68,-0.47,-0.75,0.56,-3.44,0.9569,0.0560,-0.0322,0.2831,$GPGGA,151623.700,3852.5711,N,07703.3682,W,1,05,3.54,0.0,M,-33.5,M,,*56
40,0,-0.25,-1.72,-1.11,0.06,0.06,-3.69,0.9580,0.0500,-0.0317,0.2806,$GPGGA,151623.800,3852.5718,N,07703.3694,W,1,05,3.54,0.0,M,-33.5,M,,*57
41,0,-0.72,-1.21,0.90,-1.62,0.75,-4.00,0.9590,0.0496,-0.0309,0.2773,$GPGGA,151623.900,3852.5725,N,07703.3706,W,1,05,3.54,0.0,M,-33.5,M,,*52
42,0,-0.65,-1.55,-1.20,0.81,-1.50,-4.19,0.9600,0.0493,-0.0312,0.2739,$GPGGA,151624.000,3852.5731,N,07703.3718,W,1,05,2.74,0.0,M,-33.5,M,,*55
43,0,-0.16,-1.93,0.57,1.31,-0.13,-3.81,0.9609,0.0500,-0.0312,0.2705,$GPGGA,151624.100,3852.5743,N,07703.3728,W,1,07,1.09,0.3,M,-33.5,M,,*5A
44,0,-0.67,-1.39,0.39,3.19,-2.00,-4.50,0.9617,0.0521,-0.0314,0.2672,$GPGGA,151624.200,3852.5756,N,07703.3738,W,1,07,1.13,0.6,M,-33.5,M,,*52
45,0,-0.14,-1.92,-0.49,1.31,-0.37,-4.25,0.9626,0.0533,-0.0314,0.2636,$GPGGA,151624.300,3852.5766,N,07703.3749,W,1,07,1.13,0.8,M,-33.5,M,,*58
46,0,-0.29,-1.29,-0.52,-0.81,0.81,-4.12,0.9641,0.0428,-0.0305,0.2606,$GPGGA,151624.400,3852.5775,N,07703.3760,W,1,07,1.13,1.1,M,-33.5,M,,*5E
47,0,-0.77,-1.68,-0.20,0.44,-1.00,-4.37,0.9650,0.0430,-0.0306,0.2569,$GPGGA,151624.500,3852.5785,N,07703.3770,W,1,07,1.13,1.3,M,-33.5,M,,*53
48,0,-0.35,-2.04,-0.25,0.81,-0.56,-4.19,0.9660,0.0409,-0.0308,0.2534,$GPGGA,151624.600,3852.5795,N,07703.3781,W,1,07,1.13,1.5,M,-33.5,M,,*59
49,0,-0.42,-1.13,-0.41,0.62,-0.06,-4.19,0.9669,0.0414,-0.0304,0.2499,$GPGGA,151624.700,3852.5804,N,07703.3792,W,1,07,1.13,1.7,M,-33.5,M,,*5F
50,0,-0.47,-1.78,-0.39,1.75,-0.50,-4.50,0.9678,0.0421,-0.0300,0.2465,$GPGGA,151624.800,3852.5813,N,07703.3803,W,1,07,1.13,1.9,M,-33.5,M,,*5F
51,0,-0.70,-1.88,-0.46,-0.81,-0.94,-4.37,0.9687,0.0424,-0.0303,0.2429,$GPGGA,151624.900,3852.5823,N,07703.3814,W,1,07,1.13,2.1,M,-33.5,M,,*50
52,0,-0.18,-1.33,-0.47,-0.37,0.37,-4.50,0.9695,0.0423,-0.0305,0.2393,$GPGGA,151625.000,3852.5831,N,07703.3825,W,1,07,1.09,2.2,M,-33.5,M,,*51
53,0,-0.53,-1.61,-0.39,0.56,-1.25,-4.56,0.9705,0.0424,-0.0302,0.2356,$GPGGA,151625.100,3852.5840,N,07703.3836,W,1,07,1.09,2.4,M,-33.5,M,,*52
54,0,-0.17,-1.05,0.14,0.94,-2.00,-4.06,0.9713,0.0432,-0.0309,0.2320,$GPGGA,151625.200,3852.5849,N,07703.3846,W,1,07,1.13,2.5,M,-33.5,M,,*55
55,0,-0.25,-0.72,-0.02,0.56,-2.75,-4.06,0.9722,0.0351,-0.0325,0.2290,$GPGGA,151625.300,3852.5858,N,07703.3857,W,1,07,1.13,2.6,M,-33.5,M,,*57
56,0,-0.48,-0.85,-0.29,0.37,-1.25,-4.37,0.9731,0.0333,-0.0331,0.2256,$GPGGA,151625.400,3852.5867,N,07703.3868,W,1,07,1.13,2.8,M,-33.5,M,,*5E
57,0,-0.20,-0.90,-0.24,-1.44,0.19,-4.31,0.9740,0.0294,-0.0334,0.2222,$GPGGA,151625.500,3852.5875,N,07703.3878,W,1,07,1.13,2.8,M,-33.5,M,,*5D
58,0,0.57,-0.78,-0.51,1.12,-2.31,-4.06,0.9748,0.0271,-0.0339,0.2188,$GPGGA,151625.600,3852.5884,N,07703.3889,W,1,07,1.13,2.9,M,-33.5,M,,*5F
59,0,-0.20,-1.33,0.07,-0.37,-2.12,-3.87,0.9756,0.0266,-0.0347,0.2153,$GPGGA,151625.700,3852.5892,N,07703.3900,W,1,07,1.13,3.0,M,-33.5,M,,*51
60,0,-0.72,-1.31,0.22,-2.31,1.25,-4.12,0.9762,0.0264,-0.0359,0.2122,$GPGGA,151625.800,3852.5900,N,07703.3910,W,1,07,1.13,3.0,M,-33.5,M,,*55
61,0,-0.15,-0.56,0.49,-2.00,0.81,-3.94,0.9769,0.0248,-0.0364,0.2089,$GPGGA,151625.900,3852.5908,N,07703.3921,W,1,07,1.13,3.1,M,-33.5,M,,*5F
62,0,-0.55,-2.12,-2.20,-2.19,1.56,-4.19,0.9777,0.0229,-0.0355,0.2055,$GPGGA,151626.000,3852.5916,N,07703.3931,W,1,07,1.13,3.2,M,-33.5,M,,*58
63,0,0.55,0.43,2.47,-0.25,-5.19,-3.87,0.9785,0.0222,-0.0366,0.2019,$GPGGA,151626.100,3852.5925,N,07703.3942,W,1,07,1.13,3.2,M,-33.5,M,,*5D
64,0,-0.52,-0.69,-1.61,-4.44,-0.06,-3.81,0.9791,0.0199,-0.0389,0.1985,$GPGGA,151626.200,3852.5933,N,07703.3952,W,1,07,1.13,3.3,M,-33.5,M,,*59
65,0,0.00,-1.40,-1.03,-2.50,3.81,-4.00,0.9799,0.0176,-0.0381,0.1951,$GPGGA,151626.300,3852.5942,N,07703.3963,W,1,07,1.13,3.3,M,-33.5,M,,*5C
66,0,-0.45,-1.23,0.10,1.00,1.06,-4.25,0.9806,0.0178,-0.0367,0.1917,$GPGGA,151626.400,3852.5950,N,07703.3973,W,1,07,1.13,3.4,M,-33.5,M,,*5E
67,0,-0.38,-1.11,0.37,2.69,-3.56,-4.00,0.9813,0.0168,-0.0371,0.1884,$GPGGA,151626.500,3852.5958,N,07703.3984,W,1,07,1.13,3.4,M,-33.5,M,,*5F
68,0,-0.11,-0.86,0.12,1.81,-3.00,-3.81,0.9818,0.0184,-0.0389,0.1851,$GPGGA,151626.600,3852.5967,N,07703.3994,W,1,07,1.13,3.5,M,-33.5,M,,*50
69,0,-0.70,-2.40,-3.26,1.44,4.31,-5.06,0.9824,0.0198,-0.0394,0.1816,$GPGGA,151626.700,3852.5975,N,07703.4004,W,1,07,1.13,3.5,M,-33.5,M,,*55
70,0,-0.06,0.13,1.47,3.44,-7.19,-4.94,0.9832,0.0214,-0.0391,0.1768,$GPGGA,151626.800,3852.5984,N,07703.4014,W,1,07,1.13,3.6,M,-33.5,M,,*56
71,0,1.07,-0.81,0.64,-9.75,6.81,-3.87,0.9840,0.0200,-0.0405,0.1722,$GPGGA,151626.900,3852.5993,N,07703.4024,W,1,07,1.13,3.6,M,-33.5,M,,*52
72,0,0.48,-0.32,0.39,-0.69,-2.50,-6.50,0.9847,0.0183,-0.0429,0.1677,$GPGGA,151627.000,3852.6001,N,07703.4034,W,1,07,1.09,3.7,M,-33.5,M,,*50
73,0,0.40,-1.24,-0.33,-0.50,-1.69,-5.31,0.9855,0.0170,-0.0433,0.1633,$GPGGA,151627.100,3852.6010,N,07703.4045,W,1,07,1.13,3.7,M,-33.5,M,,*5C
74,0,0.09,-1.00,-0.44,-2.25,-1.06,-4.87,0.9862,0.0126,-0.0439,0.1590,$GPGGA,151627.200,3852.6019,N,07703.4055,W,1,07,1.13,3.8,M,-33.5,M,,*58
75,0,-0.04,-1.62,-1.55,-2.00,-1.12,-4.75,0.9869,0.0101,-0.0441,0.1547,$GPGGA,151627.300,3852.6027,N,07703.4064,W,1,07,1.13,3.8,M,-33.5,M,,*56
76,0,-0.33,-1.80,-1.01,-1.31,0.37,-4.50,0.9875,0.0078,-0.0439,0.1508,$GPGGA,151627.400,3852.6036,N,07703.4074,W,1,07,1.13,3.9,M,-33.5,M,,*51
77,0,0.37,-1.38,-1.56,0.62,-1.06,-4.87,0.9882,0.0079,-0.0439,0.1467,$GPGGA,151627.500,3852.6045,N,07703.4084,W,1,07,1.13,3.9,M,-33.5,M,,*5B
78,1,0.14,-0.85,0.27,1.25,-0.81,-3.87,0.9886,0.0068,-0.0447,0.1432,$GPGGA,151627.600,3852.6054,N,07703.4094,W,1,07,1.13,4.0,M,-33.5,M,,*57
79,1,0.26,-0.69,-0.72,0.75,-0.19,-3.25,0.9890,0.0081,-0.0454,0.1403,$GPGGA,151627.700,3852.6063,N,07703.4103,W,1,07,1.13,4.0,M,-33.5,M,,*5D
80,1,0.08,-0.74,-1.42,-0.62,1.81,-3.19,0.9894,0.0087,-0.0452,0.1377,$GPGGA,151627.800,3852.6072,N,07703.4113,W,1,07,1.13,4.1,M,-33.5,M,,*52
81,2,-0.39,-0.06,-1.11,-1.12,1.50,-3.31,0.9898,0.0064,-0.0443,0.1351,$GPGGA,151627.900,3852.6081,N,07703.4122,W,1,07,1.13,4.1,M,-33.5,M,,*5D
82,2,-0.22,-0.98,-1.09,-3.44,2.25,-3.12,0.9902,0.0034,-0.0438,0.1324,$GPGGA,151628.000,3852.6090,N,07703.4131,W,1,07,1.09,4.1,M,-33.5,M,,*52
83,2,0.03,-0.67,-0.21,-2.19,0.31,-3.12,0.9905,0.0009,-0.0439,0.1298,$GPGGA,151628.100,3852.6099,N,07703.4141,W,1,07,1.13,4.1,M,-33.5,M,,*56
84,2,0.08,-0.53,-0.01,-1.62,-0.69,-2.81,0.9908,-0.0008,-0.0447,0.1272,$GPGGA,151628.200,3852.6108,N,07703.4150,W,1,07,1.13,4.2,M,-33.5,M,,*5F
85,2,0.00,-0.47,0.09,-0.44,-1.56,-2.31,0.9910,-0.0027,-0.0462,0.1253,$GPGGA,151628.300,3852.6118,N,07703.4159,W,1,07,1.13,4.2,M,-33.5,M,,*56
86,1,0.43,0.51,0.05,-0.06,-1.44,-1.37,0.9911,-0.0032,-0.0474,0.1238,$GPGGA,151628.400,3852.6127,N,07703.4168,W,1,07,1.13,4.2,M,-33.5,M,,*5F
87,0,0.21,0.59,-0.20,0.81,-1.31,-0.37,0.9912,-0.0031,-0.0481,0.1232,$GPGGA,151628.500,3852.6136,N,07703.4178,W,1,07,1.13,4.2,M,-33.5,M,,*5F
88,0,0.06,0.49,-0.31,-1.25,0.50,0.25,0.9912,-0.0033,-0.0484,0.1232,$GPGGA,151628.600,3852.6145,N,07703.4187,W,1,07,1.13,4.2,M,-33.5,M,,*58
89,0,-0.10,0.19,-0.95,-0.25,-0.62,-0.13,0.9911,-0.0033,-0.0490,0.1232,$GPGGA,151628.700,3852.6155,N,07703.4196,W,1,07,1.13,4.2,M,-33.5,M,,*58
90,0,-0.03,0.42,-1.15,-1.19,0.56,0.00,0.9911,-0.0032,-0.0495,0.1231,$GPGGA,151628.800,3852.6164,N,07703.4205,W,1,07,1.13,4.3,M,-33.5,M,,*5D
91,0,-0.11,0.24,-0.86,0.56,-0.50,0.19,0.9911,-0.0023,-0.0499,0.1230,$GPGGA,151628.900,3852.6173,N,07703.4214,W,1,07,1.13,4.3,M,-33.5,M,,*5A
92,0,0.31,0.62,-0.82,0.69,0.06,0.00,0.9911,-0.0018,-0.0499,0.1230,$GPGGA,151629.000,3852.6182,N,07703.4223,W,1,07,1.09,4.3,M,-33.5,M,,*53
93,0,0.27,0.33,-0.74,0.31,0.88,-0.19,0.9911,-0.0012,-0.0500,0.1231,$GPGGA,151629.100,3852.6191,N,07703.4232,W,1,07,1.09,4.3,M,-33.5,M,,*50
94,0,0.28,0.54,-0.19,2.25,-0.94,-0.13,0.9911,0.0002,-0.0499,0.1231,$GPGGA,151629.200,3852.6200,N,07703.4241,W,1,07,1.09,4.3,M,-33.5,M,,*5C
95,0,-0.13,0.50,0.09,-0.13,0.69,-0.25,0.9911,0.0017,-0.0496,0.1231,$GPGGA,151629.300,3852.6210,N,07703.4250,W,1,07,1.09,4.3,M,-33.5,M,,*5C
96,0,0.06,0.65,-0.18,1.25,-1.62,-0.25,0.9911,0.0029,-0.0499,0.1232,$GPGGA,151629.400,3852.6219,N,07703.4259,W,1,07,1.09,4.3,M,-33.5,M,,*5B
97,0,0.34,0.48,-0.31,0.56,-0.75,-0.19,0.9911,0.0033,-0.0502,0.1231,$GPGGA,151629.500,3852.6228,N,07703.4268,W,1,07,1.09,4.4,M,-33.5,M,,*5D
98,0,-0.14,0.00,-0.89,-1.19,1.00,-0.25,0.9911,0.0041,-0.0503,0.1230,$GPGGA,151629.600,3852.6237,N,07703.4277,W,1,07,1.09,4.4,M,-33.5,M,,*5E
99,0,-0.11,0.17,-0.99,0.13,-0.31,-0.19,0.9911,0.0039,-0.0505,0.1230,$GPGGA,151629.700,3852.6246,N,07703.4286,W,1,07,1.09,4.4,M,-33.5,M,,*57
100,0,0.05,0.25,-0.21,-0.50,0.13,-0.25,0.9911,0.0044,-0.0505,0.1230,$GPGGA,151629.800,3852.6255,N,07703.4295,W,1,07,1.09,4.4,M,-33.5,M,,*58
101,0,0.28,0.27,-0.30,0.00,-0.37,-0.06,0.9911,0.0048,-0.0505,0.1230,$GPGGA,151629.900,3852.6264,N,07703.4304,W,1,07,1.09,4.4,M,-33.5,M,,*52
102,0,-0.08,0.47,-0.42,-0.81,0.88,-0.19,0.9911,0.0061,-0.0504,0.1229,$GPGGA,151630.000,3852.6273,N,07703.4313,W,1,07,1.09,4.4,M,-33.5,M,,*53
103,0,0.28,0.39,-0.06,1.06,-0.88,-0.06,0.9911,0.0064,-0.0503,0.1229,$GPGGA,151630.100,3852.6282,N,07703.4322,W,1,07,1.09,4.4,M,-33.5,M,,*5E
104,0,0.49,0.68,-0.64,0.37,-1.56,0.00,0.9911,0.0065,-0.0506,0.1229,$GPGGA,151630.200,3852.6292,N,07703.4331,W,1,07,1.09,4.5,M,-33.5,M,,*5F
105,0,-0.04,0.27,-0.71,0.50,0.13,0.00,0.9911,0.0077,-0.0505,0.1228,$GPGGA,151630.300,3852.6301,N,07703.4340,W,1,07,1.09,4.5,M,-33.5,M,,*53
106,0,0.09,0.54,-0.72,1.37,0.00,-0.06,0.9911,0.0090,-0.0505,0.1228,$GPGGA,151630.400,3852.6310,N,07703.4349,W,1,06,1.43,4.5,M,-33.5,M,,*52
107,0,-0.10,0.24,-0.85,1.81,0.19,-0.06,0.9911,0.0099,-0.0500,0.1228,$GPGGA,151630.500,3852.6319,N,07703.4358,W,1,06,1.43,4.5,M,-33.5,M,,*5A
108,0,-0.44,-0.09,-0.68,2.00,-1.00,0.25,0.9911,0.0112,-0.0498,0.1229,$GPGGA,151630.600,3852.6328,N,07703.4367,W,1,06,1.43,4.5,M,-33.5,M,,*57
109,0,-0.43,0.28,-0.32,0.88,0.75,0.25,0.9911,0.0129,-0.0500,0.1229,$GPGGA,151630.700,3852.6338,N,07703.4375,W,1,06,1.43,4.6,M,-33.5,M,,*57
110,0,-0.15,0.26,-0.33,1.56,-1.25,0.25,0.9910,0.0144,-0.0505,0.1229,$GPGGA,151630.800,3852.6347,N,07703.4384,W,1,06,1.42,4.6,M,-33.5,M,,*5F
111,0,0.10,0.36,-0.56,-0.50,0.50,0.25,0.9910,0.0149,-0.0505,0.1230,$GPGGA,151630.900,3852.6357,N,07703.4393,W,1,06,1.43,4.7,M,-33.5,M,,*59
112,0,-0.34,0.16,-1.14,0.81,-1.12,0.13,0.9910,0.0164,-0.0507,0.1229,$GPGGA,151631.000,3852.6366,N,07703.4402,W,1,07,1.09,4.7,M,-33.5,M,,*53
113,0,0.05,0.26,-1.42,-0.62,1.44,0.19,0.9910,0.0179,-0.0509,0.1228,$GPGGA,151631.100,3852.6376,N,07703.4411,W,1,07,1.09,4.8,M,-33.5,M,,*5E
114,0,-0.37,-0.03,-0.34,1.62,-0.19,0.19,0.9910,0.0182,-0.0503,0.1229,$GPGGA,151631.200,3852.6385,N,07703.4419,W,1,07,1.09,4.7,M,-33.5,M,,*56
115,0,-0.01,0.51,-0.65,2.19,-2.06,0.44,0.9910,0.0190,-0.0502,0.1229,$GPGGA,151631.300,3852.6395,N,07703.4428,W,1,07,1.09,4.7,M,-33.5,M,,*54
116,0,0.00,0.54,-0.19,-0.13,0.31,0.56,0.9909,0.0211,-0.0505,0.1228,$GPGGA,151631.400,3852.6405,N,07703.4437,W,1,07,1.09,4.7,M,-33.5,M,,*53
117,0,0.36,0.71,-0.09,0.88,-0.88,0.31,0.9909,0.0219,-0.0508,0.1229,$GPGGA,151631.500,3852.6415,N,07703.4446,W,1,07,1.09,4.7,M,-33.5,M,,*55
118,0,-0.28,0.02,-0.58,-0.88,1.37,0.44,0.9909,0.0215,-0.0507,0.1229,$GPGGA,151631.600,3852.6425,N,07703.4455,W,1,07,1.09,4.7,M,-33.5,M,,*57
119,0,0.33,0.35,-0.83,-0.69,1.37,0.44,0.9909,0.0225,-0.0502,0.1227,$GPGGA,151631.700,3852.6435,N,07703.4464,W,1,07,1.09,4.7,M,-33.5,M,,*55
120,0,0.06,0.39,-0.48,0.31,0.31,0.56,0.9910,0.0227,-0.0496,0.1227,$GPGGA,151631.800,3852.6444,N,07703.4472,W,1,07,1.09,4.7,M,-33.5,M,,*5B
121,0,-0.05,0.03,-0.78,0.62,-0.62,0.50,0.9909,0.0233,-0.0494,0.1227,$GPGGA,151631.900,3852.6455,N,07703.4482,W,1,07,1.09,4.7,M,-33.5,M,,*55
122,0,0.36,0.79,-0.52,1.37,-1.25,0.44,0.9909,0.0239,-0.0497,0.1228,$GPGGA,151632.000,3852.6465,N,07703.4491,W,1,07,1.09,4.7,M,-33.5,M,,*5E
123,0,-0.26,0.50,-0.32,0.37,1.00,0.44,0.9909,0.0247,-0.0495,0.1228,$GPGGA,151632.100,3852.6475,N,07703.4500,W,1,07,1.09,4.7,M,-33.5,M,,*57
124,0,0.36,0.25,-0.23,0.75,0.06,0.37,0.9908,0.0260,-0.0493,0.1228,$GPGGA,151632.200,3852.6485,N,07703.4510,W,1,07,1.09,4.7,M,-33.5,M,,*5A
125,0,-0.05,-0.06,-0.86,0.75,1.00,0.37,0.9908,0.0266,-0.0490,0.1228,$GPGGA,151632.300,3852.6495,N,07703.4519,W,1,07,1.09,4.7,M,-33.5,M,,*53
126,0,0.09,0.16,-0.50,1.25,0.25,0.31,0.9908,0.0273,-0.0485,0.1229,$GPGGA,151632.400,3852.6505,N,07703.4529,W,1,07,1.09,4.7,M,-33.5,M,,*5F
127,0,-0.43,-0.05,-0.95,0.94,0.62,0.37,0.9908,0.0286,-0.0482,0.1229,$GPGGA,151632.500,3852.6515,N,07703.4539,W,1,07,1.13,4.8,M,-33.5,M,,*5A
128,1,-0.34,0.20,-0.26,0.62,0.13,0.31,0.9908,0.0299,-0.0483,0.1229,$GPGGA,151632.600,3852.6525,N,07703.4548,W,1,07,1.13,4.8,M,-33.5,M,,*5C
129,1,-0.15,0.46,-0.27,0.81,-1.62,0.62,0.9907,0.0320,-0.0488,0.1229,$GPGGA,151632.700,3852.6535,N,07703.4558,W,1,07,1.13,4.8,M,-33.5,M,,*5D
130,1,-0.17,0.16,-0.38,-1.31,-0.13,0.69,0.9906,0.0334,-0.0497,0.1229,$GPGGA,151632.800,3852.6545,N,07703.4568,W,1,07,1.13,4.8,M,-33.5,M,,*56
131,2,-0.22,-0.23,-1.08,-0.06,-1.12,0.44,0.9906,0.0330,-0.0503,0.1229,$GPGGA,151632.900,3852.6555,N,07703.4578,W,1,07,1.13,4.8,M,-33.5,M,,*57
132,2,-0.26,-0.30,-1.57,-0.50,1.81,0.25,0.9907,0.0327,-0.0497,0.1229,$GPGGA,151633.000,3852.6564,N,07703.4587,W,1,07,1.09,4.8,M,-33.5,M,,*56
133,2,-0.61,-0.33,-1.23,3.12,0.56,0.31,0.9906,0.0341,-0.0489,0.1230,$GPGGA,151633.100,3852.6574,N,07703.4597,W,1,07,1.09,4.8,M,-33.5,M,,*57
134,2,-0.42,-0.15,-0.63,3.37,-0.50,0.31,0.9905,0.0366,-0.0482,0.1231,$GPGGA,151633.200,3852.6584,N,07703.4607,W,1,07,1.09,4.8,M,-33.5,M,,*51
135,2,-0.70,0.00,-0.10,1.56,-0.31,0.25,0.9904,0.0392,-0.0485,0.1232,$GPGGA,151633.300,3852.6594,N,07703.4617,W,1,07,1.13,4.8,M,-33.5,M,,*5B
136,2,-0.19,0.40,0.44,0.44,-1.37,0.44,0.9903,0.0424,-0.0483,0.1231,$GPGGA,151633.400,3852.6603,N,07703.4627,W,1,07,1.13,4.8,M,-33.5,M,,*52
137,2,-0.76,0.11,0.49,-2.62,0.88,0.25,0.9904,0.0458,-0.0447,0.1227,$GPGGA,151633.500,3852.6613,N,07703.4637,W,1,07,1.09,4.8,M,-33.5,M,,*58
138,2,-0.76,0.13,0.13,-2.12,0.19,0.31,0.9905,0.0448,-0.0432,0.1225,$GPGGA,151633.600,3852.6623,N,07703.4647,W,1,07,1.13,4.9,M,-33.5,M,,*55
139,1,-1.05,-0.10,-0.30,-2.69,1.06,0.37,0.9907,0.0431,-0.0411,0.1223,$GPGGA,151633.700,3852.6633,N,07703.4657,W,1,07,1.09,4.9,M,-33.5,M,,*5F
140,1,-1.03,0.07,-0.56,-2.00,0.44,0.37,0.9908,0.0418,-0.0387,0.1223,$GPGGA,151633.800,3852.6643,N,07703.4667,W,1,07,1.13,4.9,M,-33.5,M,,*5F
141,1,-0.25,-0.01,-0.93,-0.69,-0.19,0.56,0.9910,0.0405,-0.0363,0.1223,$GPGGA,151633.900,3852.6653,N,07703.4677,W,1,07,1.13,5.0,M,-33.5,M,,*56
142,1,-0.51,-0.31,-1.25,-0.56,0.37,0.37,0.9911,0.0397,-0.0339,0.1222,$GPGGA,151634.000,3852.6662,N,07703.4686,W,1,07,1.09,5.0,M,-33.5,M,,*5F
143,1,-0.73,-0.20,-0.54,0.00,-0.06,0.50,0.9911,0.0397,-0.0331,0.1221,$GPGGA,151634.100,3852.6672,N,07703.4696,W,1,07,1.09,5.0,M,-33.5,M,,*5E
144,1,-0.39,-0.20,-0.08,-0.06,-1.50,0.37,0.9912,0.0398,-0.0322,0.1221,$GPGGA,151634.200,3852.6682,N,07703.4706,W,1,07,1.09,5.1,M,-33.5,M,,*5B
145,1,-0.76,0.07,-0.01,-0.13,-1.25,0.44,0.9912,0.0399,-0.0316,0.1220,$GPGGA,151634.300,3852.6692,N,07703.4716,W,1,07,1.09,5.1,M,-33.5,M,,*5A
146,2,-0.48,0.13,-0.76,-0.25,-0.94,0.50,0.9912,0.0397,-0.0325,0.1220,$GPGGA,151634.400,3852.6701,N,07703.4726,W,1,07,1.09,5.2,M,-33.5,M,,*56
147,2,-0.35,0.35,-0.51,-0.44,0.25,0.50,0.9912,0.0396,-0.0330,0.1219,$GPGGA,151634.500,3852.6711,N,07703.4736,W,1,07,1.13,5.2,M,-33.5,M,,*5C
148,2,-0.63,-0.11,-0.79,-0.13,0.56,0.50,0.9912,0.0396,-0.0325,0.1219,$GPGGA,151634.600,3852.6720,N,07703.4745,W,1,07,1.13,5.2,M,-33.5,M,,*59
149,2,-0.28,0.21,-0.56,-0.13,0.44,0.50,0.9912,0.0395,-0.0323,0.1222,$GPGGA,151634.700,3852.6730,N,07703.4755,W,1,07,1.13,5.3,M,-33.5,M,,*59
150,2,-0.57,0.05,-0.07,0.62,-0.94,0.25,0.9912,0.0400,-0.0319,0.1222,$GPGGA,151634.800,3852.6740,N,07703.4765,W,1,07,1.13,5.3,M,-33.5,M,,*52
151,2,0.04,-0.32,-0.05,0.00,0.37,0.50,0.9911,0.0407,-0.0327,0.1221,$GPGGA,151634.900,3852.6749,N,07703.4775,W,1,07,1.13,5.4,M,-33.5,M,,*5C
152,2,0.00,0.07,0.13,0.88,0.06,0.25,0.9911,0.0415,-0.0327,0.1221,$GPGGA,151635.000,3852.6758,N,07703.4784,W,1,07,1.13,5.4,M,-33.5,M,,*5A
153,2,-0.25,0.51,-0.08,0.44,0.19,0.50,0.9911,0.0426,-0.0309,0.1221,$GPGGA,151635.100,3852.6768,N,07703.4794,W,1,07,1.13,5.5,M,-33.5,M,,*58
154,2,-0.57,0.25,-0.09,0.75,-0.50,0.31,0.9911,0.0432,-0.0303,0.1221,$GPGGA,151635.200,3852.6777,N,07703.4804,W,1,07,1.13,5.5,M,-33.5,M,,*53
155,2,-0.60,0.38,-0.25,0.69,-1.06,0.37,0.9911,0.0437,-0.0300,0.1220,$GPGGA,151635.300,3852.6786,N,07703.4814,W,1,07,1.13,5.6,M,-33.5,M,,*5E
156,1,-0.42,-0.19,-0.95,1.25,-0.88,0.31,0.9911,0.0443,-0.0300,0.1220,$GPGGA,151635.400,3852.6796,N,07703.4823,W,1,07,1.13,5.6,M,-33.5,M,,*5C
157,1,0.00,-0.24,-0.70,1.87,0.13,0.31,0.9911,0.0444,-0.0283,0.1220,$GPGGA,151635.500,3852.6805,N,07703.4833,W,1,07,1.13,5.7,M,-33.5,M,,*58
158,1,-0.52,-0.06,-0.36,1.00,-0.25,0.44,0.9911,0.0455,-0.0280,0.1220,$GPGGA,151635.600,3852.6814,N,07703.4843,W,1,07,1.13,5.7,M,-33.5,M,,*5C
159,1,-0.69,0.12,-0.66,-0.56,-0.25,0.50,0.9910,0.0460,-0.0283,0.1221,$GPGGA,151635.700,3852.6823,N,07703.4852,W,1,07,1.13,5.7,M,-33.5,M,,*59
160,1,-0.15,0.02,-0.34,-1.25,-0.50,0.69,0.9911,0.0450,-0.0286,0.1223,$GPGGA,151635.800,3852.6833,N,07703.4862,W,1,07,1.13,5.8,M,-33.5,M,,*5B
161,1,0.13,0.12,-0.05,-1.31,-1.44,0.13,0.9911,0.0445,-0.0283,0.1221,$GPGGA,151635.900,3852.6842,N,07703.4872,W,1,07,1.13,5.8,M,-33.5,M,,*5D
162,1,0.20,0.11,-0.17,-0.81,-0.44,0.37,0.9911,0.0434,-0.0286,0.1221,$GPGGA,151636.000,3852.6851,N,07703.4881,W,1,07,1.09,5.9,M,-33.5,M,,*53
163,1,-0.04,0.27,-0.02,-0.25,-0.69,0.62,0.9911,0.0427,-0.0288,0.1223,$GPGGA,151636.100,3852.6860,N,07703.4891,W,1,07,1.13,5.9,M,-33.5,M,,*5A
164,1,0.30,0.25,-0.42,0.44,-0.50,0.56,0.9911,0.0427,-0.0289,0.1226,$GPGGA,151636.200,3852.6869,N,07703.4901,W,1,07,1.13,6.0,M,-33.5,M,,*52
165,1,-0.27,0.00,-0.46,-0.62,1.00,0.31,0.9911,0.0426,-0.0286,0.1227,$GPGGA,151636.300,3852.6878,N,07703.4910,W,1,07,1.13,6.0,M,-33.5,M,,*53
166,0,0.01,0.03,-0.36,-0.50,-0.13,0.31,0.9911,0.0424,-0.0284,0.1227,$GPGGA,151636.400,3852.6887,N,07703.4920,W,1,07,1.13,6.1,M,-33.5,M,,*56
167,0,-0.31,-0.23,-0.75,-0.62,-0.37,0.06,0.9911,0.0419,-0.0283,0.1226,$GPGGA,151636.500,3852.6896,N,07703.4929,W,1,07,1.13,6.1,M,-33.5,M,,*5E
168,0,-0.03,-0.24,-1.05,-0.88,1.00,0.00,0.9912,0.0411,-0.0283,0.1227,$GPGGA,151636.600,3852.6905,N,07703.4939,W,1,07,1.13,6.2,M,-33.5,M,,*54
169,0,-0.05,-0.43,-0.46,0.94,-1.25,-0.06,0.9913,0.0400,-0.0276,0.1227,$GPGGA,151636.700,3852.6914,N,07703.4949,W,1,07,1.13,6.3,M,-33.5,M,,*53
170,0,-0.08,-0.30,-0.73,0.00,-0.50,0.00,0.9913,0.0399,-0.0278,0.1227,$GPGGA,151636.800,3852.6923,N,07703.4958,W,1,07,1.13,6.3,M,-33.5,M,,*58
171,0,-0.06,-0.16,-0.38,-0.44,-0.44,-0.13,0.9912,0.0399,-0.0283,0.1227,$GPGGA,151636.900,3852.6932,N,07703.4968,W,1,07,1.13,6.3,M,-33.5,M,,*5A
172,0,0.30,0.11,0.46,-0.44,-0.50,0.00,0.9912,0.0397,-0.0287,0.1227,$GPGGA,151637.000,3852.6941,N,07703.4977,W,1,07,1.09,6.4,M,-33.5,M,,*54
173,0,-0.03,-0.50,-0.11,-0.44,-1.87,-0.13,0.9913,0.0392,-0.0293,0.1226,$GPGGA,151637.100,3852.6950,N,07703.4987,W,1,07,1.13,6.4,M,-33.5,M,,*51
174,0,0.11,-0.26,-0.42,-1.56,-0.88,0.00,0.9913,0.0380,-0.0303,0.1226,$GPGGA,151637.200,3852.6959,N,07703.4996,W,1,07,1.13,6.5,M,-33.5,M,,*5A
175,0,0.07,-0.02,-0.96,-1.87,0.94,0.00,0.9913,0.0366,-0.0319,0.1226,$GPGGA,151637.300,3852.6968,N,07703.5006,W,1,07,1.13,6.6,M,-33.5,M,,*5B
176,0,0.53,-0.24,-0.52,-1.00,0.19,0.00,0.9913,0.0355,-0.0319,0.1226,$GPGGA,151637.400,3852.6976,N,07703.5016,W,1,07,1.13,6.6,M,-33.5,M,,*52
177,0,0.46,0.00,-0.33,-0.69,-0.13,0.06,0.9913,0.0349,-0.0327,0.1226,$GPGGA,151637.500,3852.6985,N,07703.5025,W,1,07,1.13,6.6,M,-33.5,M,,*5F
178,0,0.60,0.05,-0.61,0.19,-0.37,0.06,0.9913,0.0349,-0.0340,0.1226,$GPGGA,151637.600,3852.6994,N,07703.5035,W,1,07,1.13,6.7,M,-33.5,M,,*5C
179,0,-0.01,-0.07,0.50,0.50,0.88,-0.13,0.9913,0.0351,-0.0341,0.1226,$GPGGA,151637.700,3852.7003,N,07703.5044,W,1,07,1.13,6.8,M,-33.5,M,,*52
180,0,0.69,-0.37,-0.61,1.00,0.00,-0.44,0.9912,0.0356,-0.0339,0.1226,$GPGGA,151637.800,3852.7012,N,07703.5054,W,1,07,1.13,6.8,M,-33.5,M,,*5C
181,0,1.03,-0.35,-0.67,0.00,1.06,-0.69,0.9913,0.0356,-0.0334,0.1223,$GPGGA,151637.900,3852.7021,N,07703.5064,W,1,07,1.13,6.9,M,-33.5,M,,*5F
182,0,0.29,-0.27,-0.29,-0.56,0.94,-0.88,0.9914,0.0358,-0.0329,0.1216,$GPGGA,151638.000,3852.7030,N,07703.5073,W,1,07,1.09,6.9,M,-33.5,M,,*54
183,0,0.28,-0.66,-0.92,0.13,-0.62,-0.88,0.9915,0.0358,-0.0337,0.1210,$GPGGA,151638.100,3852.7038,N,07703.5083,W,1,07,1.13,7.0,M,-33.5,M,,*51
184,0,0.59,-0.35,-0.24,0.06,0.06,-0.62,0.9915,0.0364,-0.0345,0.1206,$GPGGA,151638.200,3852.7047,N,07703.5093,W,1,07,1.13,7.0,M,-33.5,M,,*5B
185,0,0.61,-0.12,-0.46,1.19,-1.87,-0.31,0.9913,0.0369,-0.0370,0.1206,$GPGGA,151638.300,3852.7056,N,07703.5102,W,1,07,1.13,7.1,M,-33.5,M,,*52
186,0,0.32,-0.06,-0.89,1.62,-1.00,-0.31,0.9912,0.0367,-0.0398,0.1207,$GPGGA,151638.400,3852.7065,N,07703.5112,W,1,07,1.13,7.1,M,-33.5,M,,*54
187,0,0.09,0.22,-0.31,-0.69,1.81,-0.25,0.9912,0.0369,-0.0399,0.1207,$GPGGA,151638.500,3852.7074,N,07703.5122,W,1,07,1.13,7.1,M,-33.5,M,,*56
188,0,0.25,0.25,-0.41,-1.19,0.75,-0.06,0.9912,0.0365,-0.0398,0.1207,$GPGGA,151638.600,3852.7083,N,07703.5132,W,1,07,1.13,7.2,M,-33.5,M,,*5F
189,0,0.26,-0.10,-0.15,-1.62,0.50,0.06,0.9912,0.0358,-0.0408,0.1207,$GPGGA,151638.700,3852.7092,N,07703.5141,W,1,07,1.13,7.2,M,-33.5,M,,*5A
190,0,0.33,-0.14,-0.39,-1.06,0.13,0.00,0.9911,0.0349,-0.0424,0.1207,$GPGGA,151638.800,3852.7101,N,07703.5151,W,1,07,1.13,7.3,M,-33.5,M,,*5E
191,0,0.36,-0.27,-0.41,-0.25,-1.00,0.00,0.9911,0.0340,-0.0437,0.1207,$GPGGA,151638.900,3852.7110,N,07703.5161,W,1,07,1.13,7.3,M,-33.5,M,,*5C
192,0,0.47,-0.42,-0.69,-0.31,-0.44,0.13,0.9911,0.0336,-0.0447,0.1207,$GPGGA,151639.000,3852.7119,N,07703.5171,W,1,07,1.13,7.3,M,-33.5,M,,*5C
193,0,-0.05,-0.06,-0.80,-0.13,0.88,0.06,0.9910,0.0331,-0.0463,0.1208,$GPGGA,151639.100,3852.7128,N,07703.5180,W,1,07,1.13,7.3,M,-33.5,M,,*51
194,0,0.08,-0.48,-0.42,0.13,0.00,-0.13,0.9910,0.0331,-0.0470,0.1208,$GPGGA,151639.200,3852.7137,N,07703.5190,W,1,07,1.13,7.4,M,-33.5,M,,*5A
195,0,-0.06,-0.07,-0.35,-0.13,0.00,-0.06,0.9910,0.0331,-0.0474,0.1208,$GPGGA,151639.300,3852.7146,N,07703.5200,W,1,07,1.13,7.4,M,-33.5,M,,*57
196,0,-0.02,-0.09,-0.38,0.25,-1.62,-0.06,0.9909,0.0333,-0.0488,0.1208,$GPGGA,151639.400,3852.7155,N,07703.5210,W,1,07,1.13,7.4,M,-33.5,M,,*53
197,0,0.28,0.21,-0.61,-0.37,-0.06,0.00,0.9908,0.0331,-0.0505,0.1208,$GPGGA,151639.500,3852.7164,N,07703.5220,W,1,07,1.13,7.4,M,-33.5,M,,*53
198,0,0.13,-0.21,-0.73,0.75,-0.31,0.06,0.9908,0.0330,-0.0512,0.1208,$GPGGA,151639.600,3852.7173,N,07703.5229,W,1,07,1.13,7.5,M,-33.5,M,,*5E
199,0,0.12,-0.03,-0.60,1.25,0.19,-0.06,0.9908,0.0337,-0.0511,0.1208,$GPGGA,151639.700,3852.7182,N,07703.5239,W,1,07,1.13,7.5,M,-33.5,M,,*50
200,0,0.00,-0.16,-0.84,1.37,-0.69,0.13,0.9908,0.0342,-0.0512,0.1208,$GPGGA,151639.800,3852.7192,N,07703.5249,W,1,07,1.13,7.5,M,-33.5,M,,*59
201,0,0.02,-0.06,-0.48,0.75,0.13,0.00,0.9907,0.0347,-0.0511,0.1209,$GPGGA,151639.900,3852.7201,N,07703.5259,W,1,07,1.13,7.6,M,-33.5,M,,*53
202,0,0.11,0.00,-0.28,1.06,-1.50,0.06,0.9907,0.0352,-0.0515,0.1209,$GPGGA,151640.000,3852.7210,N,07703.5269,W,1,07,1.13,7.6,M,-33.5,M,,*57
203,0,-0.47,-0.30,0.07,0.00,-1.56,0.13,0.9907,0.0353,-0.0524,0.1208,$GPGGA,151640.100,3852.7219,N,07703.5279,W,1,07,1.13,7.6,M,-33.5,M,,*5E
204,0,0.10,0.32,-0.07,-1.50,-0.50,0.00,0.9906,0.0350,-0.0532,0.1208,$GPGGA,151640.200,3852.7228,N,07703.5289,W,1,07,1.13,7.7,M,-33.5,M,,*51
205,0,0.16,-0.08,-0.21,-0.88,0.06,-0.13,0.9907,0.0343,-0.0536,0.1208,$GPGGA,151640.300,3852.7237,N,07703.5299,W,1,07,1.13,7.7,M,-33.5,M,,*5F
206,0,0.10,-0.39,-0.68,-2.25,1.75,0.13,0.9907,0.0331,-0.0532,0.1207,$GPGGA,151640.400,3852.7247,N,07703.5309,W,1,07,1.13,7.7,M,-33.5,M,,*57
207,0,0.04,0.08,-0.69,-0.88,0.94,0.19,0.9908,0.0325,-0.0526,0.1207,$GPGGA,151640.500,3852.7256,N,07703.5319,W,1,07,1.13,7.8,M,-33.5,M,,*58
208,0,0.01,-0.14,-0.85,0.31,0.50,-0.06,0.9908,0.0319,-0.0524,0.1207,$GPGGA,151640.600,3852.7265,N,07703.5329,W,1,07,1.13,7.8,M,-33.5,M,,*58
209,0,-0.13,-0.01,-0.26,0.06,-0.31,0.13,0.9908,0.0320,-0.0522,0.1208,$GPGGA,151640.700,3852.7274,N,07703.5339,W,1,07,1.13,7.8,M,-33.5,M,,*58
210,0,0.06,-0.06,0.21,-0.06,-1.56,0.31,0.9907,0.0322,-0.0532,0.1207,$GPGGA,151640.800,3852.7283,N,07703.5349,W,1,07,1.13,7.9,M,-33.5,M,,*59
211,0,0.15,0.02,-0.08,-1.62,0.06,0.25,0.9907,0.0326,-0.0546,0.1207,$GPGGA,151640.900,3852.7293,N,07703.5359,W,1,07,1.13,7.9,M,-33.5,M,,*58
212,0,0.07,0.25,-0.46,-0.88,0.69,0.13,0.9906,0.0325,-0.0554,0.1207,$GPGGA,151641.000,3852.7302,N,07703.5369,W,1,07,1.13,7.9,M,-33.5,M,,*5A
213,0,-0.02,-0.21,-0.20,-1.00,0.94,0.06,0.9907,0.0322,-0.0553,0.1206,$GPGGA,151641.100,3852.7311,N,07703.5379,W,1,07,1.13,8.0,M,-33.5,M,,*5E
214,0,0.43,0.04,-0.05,0.50,-1.12,0.06,0.9906,0.0323,-0.0555,0.1206,$GPGGA,151641.200,3852.7320,N,07703.5389,W,1,07,1.13,8.0,M,-33.5,M,,*50
215,0,0.33,0.14,-0.40,-0.06,0.62,0.06,0.9906,0.0325,-0.0557,0.1206,$GPGGA,151641.300,3852.7330,N,07703.5399,W,1,07,1.13,8.0,M,-33.5,M,,*51
216,0,-0.05,-0.12,-0.22,0.62,0.00,0.06,0.9906,0.0326,-0.0555,0.1207,$GPGGA,151641.400,3852.7339,N,07703.5409,W,1,07,1.13,8.1,M,-33.5,M,,*50
217,0,-0.14,-0.19,0.54,0.88,-0.81,-0.06,0.9906,0.0332,-0.0555,0.1207,$GPGGA,151641.500,3852.7348,N,07703.5419,W,1,07,1.13,8.1,M,-33.5,M,,*56
218,0,0.16,0.30,-0.06,-0.62,-0.19,-0.13,0.9905,0.0333,-0.0559,0.1207,$GPGGA,151641.600,3852.7357,N,07703.5429,W,1,07,1.13,8.1,M,-33.5,M,,*58
219,0,0.08,0.10,-0.46,-1.44,1.12,-0.62,0.9906,0.0326,-0.0558,0.1205,$GPGGA,151641.700,3852.7367,N,07703.5440,W,1,07,1.13,8.2,M,-33.5,M,,*56
220,0,-0.02,-0.15,-0.36,-0.44,0.13,-0.50,0.9907,0.0320,-0.0557,0.1201,$GPGGA,151641.800,3852.7376,N,07703.5450,W,1,07,1.13,8.3,M,-33.5,M,,*59
221,0,-0.11,-0.11,-0.27,-0.37,0.25,-0.13,0.9907,0.0314,-0.0552,0.1201,$GPGGA,151641.900,3852.7385,N,07703.5460,W,1,07,1.13,8.3,M,-33.5,M,,*57
222,0,-0.30,-0.23,-1.40,0.69,-0.75,0.06,0.9907,0.0314,-0.0552,0.1201,$GPGGA,151642.000,3852.7395,N,07703.5470,W,1,07,1.13,8.3,M,-33.5,M,,*5D
223,0,-0.32,-0.44,-0.76,-0.88,0.37,-0.06,0.9907,0.0316,-0.0558,0.1201,$GPGGA,151642.100,3852.7404,N,07703.5480,W,1,07,1.13,8.4,M,-33.5,M,,*5B
224,0,-0.15,-0.19,-0.31,-0.81,-0.69,-0.19,0.9907,0.0316,-0.0563,0.1201,$GPGGA,151642.200,3852.7414,N,07703.5490,W,1,07,1.13,8.4,M,-33.5,M,,*58
225,0,-0.11,0.09,-0.02,-0.37,-0.69,-0.13,0.9907,0.0314,-0.0565,0.1201,$GPGGA,151642.300,3852.7423,N,07703.5501,W,1,07,1.13,8.4,M,-33.5,M,,*54
226,0,-0.28,-0.01,-0.50,-0.94,0.44,-0.06,0.9907,0.0312,-0.0567,0.1200,$GPGGA,151642.400,3852.7432,N,07703.5511,W,1,07,1.13,8.4,M,-33.5,M,,*52
227,0,-0.14,0.01,-0.86,-0.69,-0.37,0.00,0.9907,0.0306,-0.0568,0.1200,$GPGGA,151642.500,3852.7442,N,07703.5521,W,1,07,1.13,8.5,M,-33.5,M,,*56
228,0,-0.16,-0.13,-0.70,-0.62,-0.13,-0.19,0.9907,0.0304,-0.0568,0.1200,$GPGGA,151642.600,3852.7451,N,07703.5531,W,1,07,1.13,8.5,M,-33.5,M,,*56
229,0,-0.42,-0.26,-0.86,-1.31,0.56,-0.06,0.9907,0.0298,-0.0567,0.1199,$GPGGA,151642.700,3852.7460,N,07703.5541,W,1,07,1.13,8.5,M,-33.5,M,,*52
230,0,-0.07,0.14,-0.48,-0.69,-0.31,-0.06,0.9907,0.0295,-0.0568,0.1199,$GPGGA,151642.800,3852.7470,N,07703.5551,W,1,07,1.13,8.5,M,-33.5,M,,*5D
231,0,0.29,-0.32,-0.21,0.00,-1.19,0.13,0.9907,0.0292,-0.0569,0.1199,$GPGGA,151642.900,3852.7479,N,07703.5561,W,1,07,1.13,8.6,M,-33.5,M,,*55
232,0,-0.22,-0.03,-0.61,0.62,-0.75,0.00,0.9907,0.0291,-0.0574,0.1199,$GPGGA,151643.000,3852.7488,N,07703.5572,W,1,07,1.13,8.6,M,-33.5,M,,*51
233,0,-0.20,-0.17,-0.31,1.19,0.13,-0.19,0.9907,0.0295,-0.0571,0.1200,$GPGGA,151643.100,3852.7498,N,07703.5582,W,1,07,1.13,8.6,M,-33.5,M,,*5E
234,0,-0.38,0.19,-0.28,-0.06,-0.44,-0.06,0.9907,0.0298,-0.0568,0.1200,$GPGGA,151643.200,3852.7507,N,07703.5592,W,1,07,1.13,8.7,M,-33.5,M,,*5A
235,0,-0.86,0.28,-1.29,-0.50,1.31,-0.44,0.9907,0.0298,-0.0565,0.1200,$GPGGA,151643.300,3852.7517,N,07703.5602,W,1,07,1.13,8.7,M,-33.5,M,,*50
236,0,-0.09,-0.12,-0.51,-0.69,0.88,-0.25,0.9907,0.0295,-0.0561,0.1200,$GPGGA,151643.400,3852.7526,N,07703.5612,W,1,07,1.13,8.8,M,-33.5,M,,*5B
237,0,0.04,0.01,0.02,0.81,-0.69,-0.37,0.9908,0.0295,-0.0559,0.1200,$GPGGA,151643.500,3852.7536,N,07703.5623,W,1,07,1.13,8.8,M,-33.5,M,,*59
238,0,-0.14,0.11,-0.44,0.62,-0.37,-0.06,0.9907,0.0302,-0.0559,0.1201,$GPGGA,151643.600,3852.7545,N,07703.5633,W,1,07,1.13,8.9,M,-33.5,M,,*5E
239,0,0.16,0.30,-0.17,-0.06,0.06,0.06,0.9907,0.0305,-0.0562,0.1201,$GPGGA,151643.700,3852.7555,N,07703.5643,W,1,07,1.13,8.9,M,-33.5,M,,*59
240,0,0.16,-0.08,-0.54,0.00,-0.44,0.00,0.9907,0.0306,-0.0566,0.1201,$GPGGA,151643.800,3852.7564,N,07703.5653,W,1,07,1.13,8.9,M,-33.5,M,,*55
241,0,-0.44,-0.52,-0.44,-0.44,-0.25,0.00,0.9907,0.0305,-0.0566,0.1201,$GPGGA,151643.900,3852.7574,N,07703.5664,W,1,07,1.13,8.9,M,-33.5,M,,*51
242,0,-0.39,-0.18,-0.04,-0.25,-0.75,-0.19,0.9907,0.0302,-0.0566,0.1201,$GPGGA,151644.000,3852.7583,N,07703.5674,W,1,07,1.13,9.0,M,-33.5,M,,*5E
243,0,-0.42,-0.19,-0.92,-0.81,0.56,-0.06,0.9907,0.0299,-0.0568,0.1200,$GPGGA,151644.100,3852.7593,N,07703.5684,W,1,07,1.13,9.0,M,-33.5,M,,*51
244,0,-0.47,0.01,-0.41,-0.19,0.37,-0.13,0.9907,0.0295,-0.0566,0.1201,$GPGGA,151644.200,3852.7602,N,07703.5694,W,1,07,1.13,9.1,M,-33.5,M,,*59
245,0,-0.62,-0.47,-0.52,-0.94,0.19,-0.13,0.9907,0.0293,-0.0568,0.1201,$GPGGA,151644.300,3852.7612,N,07703.5705,W,1,07,1.13,9.1,M,-33.5,M,,*50
246,0,0.23,0.41,-0.14,-1.50,0.88,0.06,0.9907,0.0292,-0.0574,0.1200,$GPGGA,151644.400,3852.7622,N,07703.5715,W,1,07,1.13,9.1,M,-33.5,M,,*55
247,0,-0.32,-0.14,-0.46,-0.19,0.75,-0.06,0.9907,0.0289,-0.0574,0.1200,$GPGGA,151644.500,3852.7631,N,07703.5725,W,1,07,1.13,9.2,M,-33.5,M,,*56
248,0,-0.58,-0.48,-0.45,-0.19,-0.13,-0.06,0.9907,0.0287,-0.0573,0.1200,$GPGGA,151644.600,3852.7641,N,07703.5735,W,1,07,1.13,9.2,M,-33.5,M,,*53
249,0,-0.39,-0.25,-0.29,-0.13,-0.62,0.06,0.9907,0.0287,-0.0576,0.1199,$GPGGA,151644.700,3852.7651,N,07703.5746,W,1,07,1.13,9.3,M,-33.5,M,,*56
250,0,-0.57,-0.36,-0.57,0.75,-1.12,0.00,0.9907,0.0287,-0.0582,0.1199,$GPGGA,151644.800,3852.7660,N,07703.5756,W,1,07,1.13,9.3,M,-33.5,M,,*5A
251,0,-0.14,-0.21,-0.64,0.75,0.19,-0.06,0.9907,0.0291,-0.0585,0.1199,$GPGGA,151644.900,3852.7670,N,07703.5766,W,1,07,1.13,9.3,M,-33.5,M,,*59
252,0,0.00,-0.10,-0.77,0.37,1.37,-0.13,0.9907,0.0294,-0.0577,0.1200,$GPGGA,151645.000,3852.7680,N,07703.5777,W,1,07,1.13,9.4,M,-33.5,M,,*59
253,0,-0.05,0.09,-0.39,0.00,1.06,-0.06,0.9907,0.0297,-0.0566,0.1200,$GPGGA,151645.100,3852.7689,N,07703.5787,W,1,07,1.13,9.4,M,-33.5,M,,*5E
254,0,-0.25,-0.17,-0.71,0.37,-0.31,-0.25,0.9907,0.0298,-0.0566,0.1200,$GPGGA,151645.200,3852.7699,N,07703.5797,W,1,07,1.13,9.5,M,-33.5,M,,*5C
255,0,-0.22,-0.05,-0.29,0.56,-0.56,-0.19,0.9907,0.0299,-0.0559,0.1200,$GPGGA,151645.300,3852.7709,N,07703.5808,W,1,07,1.13,9.5,M,-33.5,M,,*5C
256,0,-0.37,0.07,-0.33,0.75,0.19,-0.19,0.9909,0.0297,-0.0533,0.1200,$GPGGA,151645.400,3852.7718,N,07703.5818,W,1,07,1.13,9.5,M,-33.5,M,,*5A
257,0,-0.43,-0.15,-0.80,0.37,0.94,-0.06,0.9910,0.0295,-0.0523,0.1200,$GPGGA,151645.500,3852.7728,N,07703.5828,W,1,07,1.13,9.5,M,-33.5,M,,*5B
258,0,-0.35,0.42,-0.70,-0.13,1.44,-0.13,0.9911,0.0297,-0.0499,0.1199,$GPGGA,151645.600,3852.7738,N,07703.5839,W,1,07,1.13,9.6,M,-33.5,M,,*5A
259,0,-0.43,0.39,-0.73,-0.62,0.94,-0.06,0.9911,0.0294,-0.0485,0.1199,$GPGGA,151645.700,3852.7747,N,07703.5849,W,1,07,1.13,9.6,M,-33.5,M,,*54
260,0,0.00,0.35,-0.15,0.88,-0.81,-0.31,0.9912,0.0292,-0.0477,0.1199,$GPGGA,151645.800,3852.7757,N,07703.5859,W,1,07,1.13,9.6,M,-33.5,M,,*5B
261,0,-0.49,-0.03,-0.21,0.69,-0.25,-0.25,0.9912,0.0291,-0.0477,0.1199,$GPGGA,151645.900,3852.7767,N,07703.5869,W,1,07,1.13,9.6,M,-33.5,M,,*5A
262,0,-0.58,0.09,-0.24,-0.69,0.31,-0.06,0.9912,0.0292,-0.0479,0.1199,$GPGGA,151646.000,3852.7776,N,07703.5880,W,1,07,1.13,9.6,M,-33.5,M,,*57
263,0,-0.08,0.11,-0.09,0.00,-0.75,-0.06,0.9911,0.0292,-0.0484,0.1199,$GPGGA,151646.100,3852.7786,N,07703.5890,W,1,07,1.13,9.7,M,-33.5,M,,*59
264,0,0.51,0.28,-1.31,0.94,-3.06,-0.06,0.9911,0.0294,-0.0495,0.1199,$GPGGA,151646.200,3852.7796,N,07703.5900,W,1,07,1.13,9.7,M,-33.5,M,,*53
265,0,0.07,-0.02,-0.57,-0.25,0.37,0.00,0.9911,0.0295,-0.0501,0.1199,$GPGGA,151646.300,3852.7805,N,07703.5910,W,1,07,1.13,9.7,M,-33.5,M,,*56
266,0,-0.11,0.08,-0.42,1.12,-0.19,-0.19,0.9911,0.0298,-0.0497,0.1199,$GPGGA,151646.400,3852.7815,N,07703.5921,W,1,07,1.13,9.8,M,-33.5,M,,*5D
267,0,-0.18,-0.07,-0.57,0.62,0.37,0.00,0.9911,0.0303,-0.0495,0.1199,$GPGGA,151646.500,3852.7825,N,07703.5931,W,1,07,1.13,9.8,M,-33.5,M,,*5E
268,0,-0.08,0.03,-1.00,1.75,0.06,-0.25,0.9911,0.0309,-0.0489,0.1199,$GPGGA,151646.600,3852.7835,N,07703.5941,W,1,07,1.13,9.8,M,-33.5,M,,*5B
269,0,-0.16,-0.24,-0.81,0.81,-0.13,-0.31,0.9911,0.0314,-0.0482,0.1200,$GPGGA,151646.700,3852.7845,N,07703.5951,W,1,07,1.13,9.9,M,-33.5,M,,*5D
270,0,-0.22,-0.08,-1.20,0.25,0.19,0.00,0.9911,0.0318,-0.0480,0.1201,$GPGGA,151646.800,3852.7854,N,07703.5962,W,1,07,1.13,9.9,M,-33.5,M,,*52
271,1,-0.20,-0.35,-0.66,-0.56,1.06,-0.06,0.9911,0.0317,-0.0480,0.1200,$GPGGA,151646.900,3852.7864,N,07703.5972,W,1,07,1.13,9.9,M,-33.5,M,,*51
272,1,-0.12,0.10,-0.61,-0.13,-0.13,-0.13,0.9911,0.0319,-0.0482,0.1200,$GPGGA,151647.000,3852.7874,N,07703.5982,W,1,07,1.13,9.9,M,-33.5,M,,*57
273,1,-0.14,-0.32,-0.44,0.13,-0.56,-0.06,0.9911,0.0316,-0.0482,0.1200,$GPGGA,151647.100,3852.7884,N,07703.5993,W,1,07,1.13,9.9,M,-33.5,M,,*59
274,1,0.11,0.21,-0.64,-1.81,1.62,-0.19,0.9911,0.0308,-0.0476,0.1200,$GPGGA,151647.200,3852.7893,N,07703.6003,W,1,07,1.13,10.0,M,-33.5,M,,*6E
275,1,-0.13,0.06,-0.06,0.13,-0.62,-0.19,0.9911,0.0306,-0.0475,0.1200,$GPGGA,151647.300,3852.7903,N,07703.6013,W,1,07,1.13,10.0,M,-33.5,M,,*66
276,1,-0.36,-0.58,-0.69,-1.62,0.50,-0.62,0.9912,0.0298,-0.0477,0.1196,$GPGGA,151647.400,3852.7913,N,07703.6023,W,1,07,1.13,10.0,M,-33.5,M,,*63
277,0,-0.29,-0.82,-0.24,-1.69,0.13,-1.37,0.9915,0.0272,-0.0473,0.1187,$GPGGA,151647.500,3852.7923,N,07703.6034,W,1,07,1.13,10.0,M,-33.5,M,,*67
278,0,-0.21,-0.15,-0.21,-1.75,-0.94,-1.31,0.9916,0.0253,-0.0474,0.1174,$GPGGA,151647.600,3852.7932,N,07703.6044,W,1,07,1.13,10.1,M,-33.5,M,,*62
279,0,-0.18,-1.12,-1.33,1.31,-1.62,-1.37,0.9918,0.0241,-0.0476,0.1162,$GPGGA,151647.700,3852.7942,N,07703.6054,W,1,07,1.13,10.1,M,-33.5,M,,*65
280,1,-0.06,-0.92,-1.07,1.81,0.19,-1.37,0.9920,0.0226,-0.0467,0.1151,$GPGGA,151647.800,3852.7952,N,07703.6064,W,1,07,1.13,10.1,M,-33.5,M,,*68
281,1,0.00,0.00,-0.24,2.31,-0.94,-1.00,0.9921,0.0223,-0.0460,0.1143,$GPGGA,151647.900,3852.7962,N,07703.6075,W,1,07,1.13,10.1,M,-33.5,M,,*6A
282,1,-0.20,-0.32,-0.28,0.06,0.25,-1.25,0.9922,0.0236,-0.0467,0.1133,$GPGGA,151648.000,3852.7972,N,07703.6085,W,1,07,1.13,10.1,M,-33.5,M,,*62
283,1,0.12,0.02,-0.59,0.44,-0.56,-1.44,0.9923,0.0232,-0.0468,0.1121,$GPGGA,151648.100,3852.7981,N,07703.6095,W,1,07,1.13,10.1,M,-33.5,M,,*6E
284,1,-0.01,-0.17,-0.80,-1.12,0.69,-1.37,0.9924,0.0231,-0.0468,0.1111,$GPGGA,151648.200,3852.7991,N,07703.6105,W,1,07,1.13,10.2,M,-33.5,M,,*67
285,1,-0.24,-0.25,-0.78,-0.31,0.25,-1.37,0.9926,0.0222,-0.0462,0.1099,$GPGGA,151648.300,3852.8001,N,07703.6115,W,1,07,1.13,10.2,M,-33.5,M,,*68
286,1,-0.03,-0.09,0.22,-1.56,0.69,-1.25,0.9928,0.0211,-0.0458,0.1088,$GPGGA,151648.400,3852.8011,N,07703.6125,W,1,07,1.13,10.2,M,-33.5,M,,*6D
287,2,0.19,-0.05,0.05,-1.00,-1.12,-1.12,0.9929,0.0187,-0.0457,0.1078,$GPGGA,151648.500,3852.8021,N,07703.6135,W,1,07,1.13,10.2,M,-33.5,M,,*6E
288,2,-0.10,-0.35,0.12,-1.56,-0.88,-1.06,0.9930,0.0175,-0.0462,0.1068,$GPGGA,151648.600,3852.8031,N,07703.6145,W,1,07,1.13,10.2,M,-33.5,M,,*6B
289,2,0.37,0.13,-0.80,-1.00,0.06,-1.12,0.9932,0.0170,-0.0466,0.1057,$GPGGA,151648.700,3852.8041,N,07703.6155,W,1,07,1.13,10.2,M,-33.5,M,,*6C
290,2,0.10,-0.33,-0.26,-0.50,0.31,-1.06,0.9933,0.0166,-0.0466,0.1047,$GPGGA,151648.800,3852.8051,N,07703.6165,W,1,07,1.13,10.3,M,-33.5,M,,*60
291,2,0.14,0.14,-1.13,1.00,-0.13,-1.12,0.9934,0.0168,-0.0462,0.1038,$GPGGA,151648.900,3852.8061,N,07703.6175,W,1,07,1.13,10.3,M,-33.5,M,,*63
292,2,-0.21,-0.08,0.24,-0.25,1.00,-0.94,0.9935,0.0170,-0.0455,0.1030,$GPGGA,151649.000,3852.8072,N,07703.6185,W,1,07,1.09,10.3,M,-33.5,M,,*6D
293,2,0.13,0.21,-0.04,-0.13,-0.75,-0.69,0.9935,0.0172,-0.0456,0.1023,$GPGGA,151649.100,3852.8082,N,07703.6195,W,1,07,1.13,10.3,M,-33.5,M,,*69
294,2,-0.03,-0.32,0.17,-0.13,-1.81,-0.44,0.9936,0.0170,-0.0462,0.1019,$GPGGA,151649.200,3852.8092,N,07703.6205,W,1,07,1.13,10.4,M,-33.5,M,,*66
295,2,-0.19,-0.17,-0.60,-1.75,-0.94,-0.56,0.9936,0.0162,-0.0471,0.1016,$GPGGA,151649.300,3852.8102,N,07703.6215,W,1,07,1.13,10.4,M,-33.5,M,,*6E
296,2,-0.03,-0.35,-0.71,-1.56,0.88,-0.69,0.9937,0.0148,-0.0472,0.1011,$GPGGA,151649.400,3852.8112,N,07703.6224,W,1,07,1.13,10.4,M,-33.5,M,,*6A
297,2,-0.20,-0.31,-0.56,-1.37,0.94,-0.56,0.9937,0.0137,-0.0468,0.1008,$GPGGA,151649.500,3852.8122,N,07703.6234,W,1,07,1.13,10.5,M,-33.5,M,,*68
298,2,0.01,-0.13,-1.19,-1.44,1.25,-0.50,0.9938,0.0128,-0.0463,0.1008,$GPGGA,151649.600,3852.8133,N,07703.6244,W,1,07,1.13,10.5,M,-33.5,M,,*6C
299,2,-0.14,-0.10,-0.99,0.94,0.37,-0.50,0.9938,0.0126,-0.0459,0.1006,$GPGGA,151649.700,3852.8143,N,07703.6254,W,1,07,1.13,10.5,M,-33.5,M,,*6B
300,2,-0.27,-0.30,-1.11,1.19,-0.37,-0.56,0.9938,0.0129,-0.0453,0.1002,$GPGGA,151649.800,3852.8153,N,07703.6264,W,1,07,1.13,10.6,M,-33.5,M,,*65
301,2,0.01,-0.11,-0.57,1.31,-1.44,-0.44,0.9938,0.0133,-0.0452,0.1001,$GPGGA,151649.900,3852.8163,N,07703.6274,W,1,07,1.13,10.6,M,-33.5,M,,*66
302,2,0.06,-0.03,-0.43,0.13,0.19,-0.62,0.9939,0.0134,-0.0453,0.0999,$GPGGA,151650.000,3852.8174,N,07703.6284,W,1,07,1.13,10.6,M,-33.5,M,,*6E
303,3,-0.28,0.09,-0.76,-0.31,0.00,-0.56,0.9940,0.0134,-0.0453,0.0994,$GPGGA,151650.100,3852.8184,N,07703.6294,W,1,07,1.13,10.6,M,-33.5,M,,*61
304,3,0.04,0.06,-0.20,-0.69,-0.62,-0.56,0.9940,0.0127,-0.0453,0.0989,$GPGGA,151650.200,3852.8194,N,07703.6304,W,1,07,1.13,10.6,M,-33.5,M,,*6B
305,3,0.16,0.04,-0.28,-1.06,-0.69,-0.69,0.9940,0.0118,-0.0458,0.0985,$GPGGA,151650.300,3852.8205,N,07703.6314,W,1,07,1.13,10.6,M,-33.5,M,,*60
306,3,-0.30,-0.16,-0.71,-0.56,0.81,-0.50,0.9940,0.0115,-0.0458,0.0983,$GPGGA,151650.400,3852.8215,N,07703.6324,W,1,07,1.13,10.6,M,-33.5,M,,*65
307,3,0.25,0.08,-0.54,0.31,0.94,-0.56,0.9941,0.0107,-0.0455,0.0981,$GPGGA,151650.500,3852.8226,N,07703.6334,W,1,07,1.13,10.7,M,-33.5,M,,*64
308,2,0.02,-0.05,-0.48,1.19,-0.13,-0.56,0.9941,0.0110,-0.0451,0.0981,$GPGGA,151650.600,3852.8236,N,07703.6344,W,1,07,1.13,10.7,M,-33.5,M,,*61
309,2,0.04,0.05,-0.76,0.56,0.56,-0.69,0.9941,0.0112,-0.0450,0.0977,$GPGGA,151650.700,3852.8247,N,07703.6353,W,1,07,1.13,10.7,M,-33.5,M,,*60
310,2,0.03,-0.09,-0.67,0.25,0.94,-0.88,0.9942,0.0117,-0.0444,0.0971,$GPGGA,151650.800,3852.8257,N,07703.6363,W,1,07,1.13,10.7,M,-33.5,M,,*6D
311,2,-0.28,-0.27,-0.43,0.62,-0.25,-0.62,0.9943,0.0121,-0.0441,0.0966,$GPGGA,151650.900,3852.8267,N,07703.6373,W,1,07,1.13,10.8,M,-33.5,M,,*61
312,2,0.07,-0.33,-0.84,0.88,-0.56,-0.56,0.9943,0.0123,-0.0443,0.0961,$GPGGA,151651.000,3852.8278,N,07703.6383,W,1,07,1.13,10.8,M,-33.5,M,,*68
313,2,0.27,-0.19,-0.98,2.31,-0.81,-0.62,0.9943,0.0127,-0.0446,0.0958,$GPGGA,151651.100,3852.8288,N,07703.6393,W,1,07,1.13,10.8,M,-33.5,M,,*67
314,2,-0.43,-0.23,-0.28,0.94,-0.62,-0.44,0.9943,0.0134,-0.0444,0.0955,$GPGGA,151651.200,3852.8299,N,07703.6403,W,1,07,1.13,10.8,M,-33.5,M,,*6A
315,2,0.42,0.33,-0.48,-0.44,-0.06,-0.50,0.9943,0.0140,-0.0449,0.0955,$GPGGA,151651.300,3852.8309,N,07703.6413,W,1,07,1.13,10.8,M,-33.5,M,,*62
316,2,0.00,0.12,-0.45,0.75,-1.25,-0.69,0.9943,0.0143,-0.0457,0.0950,$GPGGA,151651.400,3852.8320,N,07703.6423,W,1,07,1.13,10.8,M,-33.5,M,,*6D
317,2,-0.14,0.02,0.03,0.25,-0.37,-0.56,0.9943,0.0146,-0.0457,0.0947,$GPGGA,151651.500,3852.8330,N,07703.6433,W,1,07,1.13,10.8,M,-33.5,M,,*6C
318,2,0.28,0.74,-0.52,1.31,-0.06,-0.62,0.9944,0.0153,-0.0454,0.0947,$GPGGA,151651.600,3852.8341,N,07703.6442,W,1,07,1.13,10.8,M,-33.5,M,,*6F
319,2,-0.20,0.16,-0.87,-0.19,1.69,-0.06,0.9944,0.0152,-0.0450,0.0947,$GPGGA,151651.700,3852.8351,N,07703.6452,W,1,07,1.13,10.9,M,-33.5,M,,*6F
320,2,-0.23,-0.10,-0.46,-0.44,1.19,-0.37,0.9944,0.0155,-0.0442,0.0947,$GPGGA,151651.800,3852.8362,N,07703.6462,W,1,07,1.13,10.9,M,-33.5,M,,*63
321,2,-0.07,-0.53,-1.01,-0.31,-0.44,-0.13,0.9944,0.0153,-0.0441,0.0946,$GPGGA,151651.900,3852.8372,N,07703.6472,W,1,07,1.13,10.8,M,-33.5,M,,*63
322,2,-0.27,-0.34,-1.14,0.31,0.56,-0.37,0.9944,0.0157,-0.0444,0.0946,$GPGGA,151652.000,3852.8383,N,07703.6482,W,1,07,1.13,10.8,M,-33.5,M,,*68
323,2,-0.71,-0.17,0.02,1.94,-0.25,-0.06,0.9944,0.0167,-0.0440,0.0947,$GPGGA,151652.100,3852.8394,N,07703.6492,W,1,07,1.13,10.8,M,-33.5,M,,*6E
324,1,-0.25,0.18,-0.32,1.12,0.25,-0.19,0.9944,0.0178,-0.0435,0.0947,$GPGGA,151652.200,3852.8404,N,07703.6502,W,1,07,1.13,10.8,M,-33.5,M,,*6B
325,1,-0.68,0.19,-0.50,1.00,0.25,-0.31,0.9944,0.0187,-0.0430,0.0948,$GPGGA,151652.300,3852.8415,N,07703.6512,W,1,07,1.13,10.8,M,-33.5,M,,*6B
326,1,-0.83,0.46,-0.26,-0.31,0.50,-0.19,0.9944,0.0187,-0.0425,0.0948,$GPGGA,151652.400,3852.8425,N,07703.6522,W,1,07,1.13,10.8,M,-33.5,M,,*6C
327,1,-0.67,0.19,-0.67,-0.37,-0.19,-0.25,0.9944,0.0186,-0.0425,0.0948,$GPGGA,151652.500,3852.8436,N,07703.6531,W,1,07,1.13,10.8,M,-33.5,M,,*6D
328,1,-0.26,0.04,-0.14,0.50,-1.19,-0.50,0.9945,0.0186,-0.0409,0.0947,$GPGGA,151652.600,3852.8446,N,07703.6541,W,1,07,1.13,10.8,M,-33.5,M,,*6E
329,1,0.11,0.35,-0.15,0.50,-0.06,-0.37,0.9945,0.0189,-0.0404,0.0947,$GPGGA,151652.700,3852.8457,N,07703.6551,W,1,07,1.13,10.8,M,-33.5,M,,*6E
330,1,-0.29,-0.09,-0.29,0.13,-0.19,-0.37,0.9946,0.0187,-0.0388,0.0947,$GPGGA,151652.800,3852.8467,N,07703.6561,W,1,07,1.13,10.8,M,-33.5,M,,*61
331,1,-0.71,-0.03,0.00,0.37,0.06,-0.56,0.9946,0.0186,-0.0381,0.0947,$GPGGA,151652.900,3852.8478,N,07703.6571,W,1,07,1.13,10.8,M,-33.5,M,,*6F
332,1,-0.75,-0.06,-0.79,0.37,-0.56,-0.50,0.9946,0.0188,-0.0377,0.0942,$GPGGA,151653.000,3852.8488,N,07703.6581,W,1,07,1.13,10.8,M,-33.5,M,,*67
333,1,-0.20,-0.15,-0.72,-0.19,0.37,-0.75,0.9947,0.0187,-0.0374,0.0938,$GPGGA,151653.100,3852.8499,N,07703.6591,W,1,07,1.13,10.8,M,-33.5,M,,*67
334,2,-0.39,-0.14,-0.62,0.62,-0.13,-0.75,0.9948,0.0182,-0.0364,0.0934,$GPGGA,151653.200,3852.8510,N,07703.6600,W,1,07,1.13,10.8,M,-33.5,M,,*6F
335,2,-0.26,-0.01,-0.49,1.94,-2.19,-0.69,0.9949,0.0184,-0.0362,0.0929,$GPGGA,151653.300,3852.8520,N,07703.6610,W,1,07,1.13,10.8,M,-33.5,M,,*6C
336,2,-0.36,-0.08,-0.76,0.50,-1.50,-0.56,0.9949,0.0186,-0.0364,0.0925,$GPGGA,151653.400,3852.8531,N,07703.6620,W,1,07,1.13,10.8,M,-33.5,M,,*68
337,2,-0.16,-0.23,-0.32,-0.37,0.00,-0.62,0.9949,0.0184,-0.0364,0.0923,$GPGGA,151653.500,3852.8541,N,07703.6630,W,1,07,1.13,10.8,M,-33.5,M,,*6F
338,1,0.05,0.37,-0.37,0.19,-1.12,-0.56,0.9949,0.0182,-0.0361,0.0920,$GPGGA,151653.600,3852.8551,N,07703.6640,W,1,07,1.13,10.8,M,-33.5,M,,*6A
339,1,0.09,0.22,-0.53,-0.50,-0.50,-0.62,0.9950,0.0178,-0.0362,0.0914,$GPGGA,151653.700,3852.8562,N,07703.6649,W,1,07,1.13,10.8,M,-33.5,M,,*62
340,0,0.01,-0.02,-0.50,-0.62,1.19,-0.69,0.9951,0.0174,-0.0359,0.0910,$GPGGA,151653.800,3852.8572,N,07703.6659,W,1,07,1.13,10.8,M,-33.5,M,,*6D
341,0,-0.19,0.00,-0.26,-1.00,0.37,-0.69,0.9951,0.0172,-0.0355,0.0906,$GPGGA,151653.900,3852.8583,N,07703.6669,W,1,07,1.13,10.8,M,-33.5,M,,*61
342,0,0.00,0.26,-0.73,-0.88,-0.62,-0.44,0.9951,0.0167,-0.0358,0.0903,$GPGGA,151654.000,3852.8593,N,07703.6678,W,1,07,1.13,10.8,M,-33.5,M,,*6E
343,0,-0.24,-0.29,-0.70,-1.12,0.44,-0.62,0.9951,0.0158,-0.0359,0.0903,$GPGGA,151654.100,3852.8604,N,07703.6688,W,1,07,1.13,10.8,M,-33.5,M,,*6D
344,0,0.08,-0.24,-0.56,-0.75,0.19,-0.44,0.9952,0.0154,-0.0354,0.0898,$GPGGA,151654.200,3852.8614,N,07703.6698,W,1,07,1.13,10.8,M,-33.5,M,,*6E
345,0,-0.03,-0.12,-0.69,-0.13,-1.25,-0.50,0.9952,0.0147,-0.0352,0.0897,$GPGGA,151654.300,3852.8625,N,07703.6707,W,1,07,1.13,10.8,M,-33.5,M,,*6A
346,1,-0.48,-0.44,-0.75,-0.50,-0.81,-0.37,0.9952,0.0143,-0.0359,0.0896,$GPGGA,151654.400,3852.8635,N,07703.6717,W,1,07,1.13,10.9,M,-33.5,M,,*6C
347,1,-0.03,0.23,-0.56,0.50,-0.37,-0.62,0.9952,0.0143,-0.0361,0.0895,$GPGGA,151654.500,3852.8646,N,07703.6727,W,1,07,1.13,10.9,M,-33.5,M,,*6A
348,1,-0.68,-0.28,-0.23,-0.62,1.25,-0.56,0.9952,0.0141,-0.0355,0.0894,$GPGGA,151654.600,3852.8657,N,07703.6736,W,1,07,1.13,10.9,M,-33.5,M,,*69
349,1,-0.20,-0.09,-1.11,-0.13,0.31,-0.62,0.9953,0.0142,-0.0353,0.0891,$GPGGA,151654.700,3852.8667,N,07703.6746,W,1,07,1.13,10.9,M,-33.5,M,,*6C
350,1,0.00,0.14,-1.10,0.44,1.56,-0.81,0.9954,0.0140,-0.0349,0.0886,$GPGGA,151654.800,3852.8678,N,07703.6756,W,1,07,1.13,10.9,M,-33.5,M,,*6C
351,0,-0.37,-0.25,-0.70,0.37,0.62,-0.62,0.9954,0.0137,-0.0338,0.0880,$GPGGA,151654.900,3852.8688,N,07703.6765,W,1,07,1.13,10.9,M,-33.5,M,,*62
352,0,-0.31,-0.08,-0.20,0.88,-1.12,-0.75,0.9955,0.0140,-0.0342,0.0875,$GPGGA,151655.000,3852.8699,N,07703.6775,W,1,07,1.13,10.9,M,-33.5,M,,*6B
353,0,0.47,0.41,-0.21,0.50,-1.12,-0.50,0.9955,0.0142,-0.0352,0.0870,$GPGGA,151655.100,3852.8710,N,07703.6785,W,1,07,1.13,10.9,M,-33.5,M,,*65
354,0,-0.15,-0.23,-0.54,0.25,1.00,-0.75,0.9955,0.0143,-0.0352,0.0866,$GPGGA,151655.200,3852.8720,N,07703.6794,W,1,07,1.13,10.9,M,-33.5,M,,*65
355,0,-0.32,-0.32,-0.24,0.06,0.31,-0.69,0.9956,0.0143,-0.0345,0.0860,$GPGGA,151655.300,3852.8731,N,07703.6804,W,1,07,1.13,10.9,M,-33.5,M,,*62
356,1,-0.43,0.05,-0.64,0.00,-0.06,-0.62,0.9957,0.0143,-0.0344,0.0855,$GPGGA,151655.400,3852.8742,N,07703.6813,W,1,07,1.13,10.9,M,-33.5,M,,*67
357,1,-0.64,0.24,-1.01,0.94,-0.06,-0.69,0.9957,0.0145,-0.0342,0.0850,$GPGGA,151655.500,3852.8752,N,07703.6823,W,1,07,1.13,10.9,M,-33.5,M,,*64
358,1,-0.05,0.10,0.14,1.37,-0.88,-0.62,0.9957,0.0150,-0.0339,0.0846,$GPGGA,151655.600,3852.8763,N,07703.6832,W,1,07,1.13,10.9,M,-33.5,M,,*65
359,1,-0.08,-0.04,-0.68,0.44,-0.37,-0.56,0.9957,0.0157,-0.0337,0.0842,$GPGGA,151655.700,3852.8774,N,07703.6842,W,1,07,1.13,10.9,M,-33.5,M,,*65
360,1,-0.42,0.06,-0.69,-0.06,1.31,-0.69,0.9958,0.0159,-0.0333,0.0839,$GPGGA,151655.800,3852.8784,N,07703.6851,W,1,07,1.13,10.9,M,-33.5,M,,*67
361,0,-0.60,-0.19,-0.49,-0.13,0.69,-0.94,0.9958,0.0162,-0.0326,0.0832,$GPGGA,151655.900,3852.8795,N,07703.6861,W,1,07,1.13,10.8,M,-33.5,M,,*64
362,0,-0.14,-0.02,-0.13,0.94,-1.44,-0.69,0.9959,0.0161,-0.0321,0.0826,$GPGGA,151656.000,3852.8806,N,07703.6870,W,1,07,1.13,10.8,M,-33.5,M,,*6B
363,0,0.10,-0.13,-0.56,-0.06,-0.56,-0.62,0.9960,0.0162,-0.0320,0.0822,$GPGGA,151656.100,3852.8816,N,07703.6879,W,1,07,1.13,10.8,M,-33.5,M,,*62
364,0,0.10,0.24,-0.23,-0.25,0.31,-0.62,0.9960,0.0163,-0.0318,0.0818,$GPGGA,151656.200,3852.8827,N,07703.6889,W,1,07,1.13,10.8,M,-33.5,M,,*6C
365,0,-0.10,0.07,-0.23,-0.94,0.62,-0.62,0.9960,0.0162,-0.0311,0.0816,$GPGGA,151656.300,3852.8838,N,07703.6898,W,1,07,1.13,10.8,M,-33.5,M,,*63
366,0,-0.61,-0.01,0.00,-1.75,0.50,-0.69,0.9961,0.0156,-0.0314,0.0813,$GPGGA,151656.400,3852.8848,N,07703.6908,W,1,07,1.13,10.8,M,-33.5,M,,*6B
367,0,-0.07,0.19,-0.22,-1.62,-1.12,-0.62,0.9961,0.0143,-0.0320,0.0812,$GPGGA,151656.500,3852.8859,N,07703.6917,W,1,07,1.13,10.7,M,-33.5,M,,*6B
368,0,-0.16,-0.09,-0.51,-1.06,-0.88,-0.44,0.9961,0.0129,-0.0324,0.0812,$GPGGA,151656.600,3852.8870,N,07703.6926,W,1,07,1.13,10.7,M,-33.5,M,,*61
369,0,0.16,0.08,-0.46,-1.19,0.94,-0.50,0.9961,0.0116,-0.0322,0.0811,$GPGGA,151656.700,3852.8881,N,07703.6936,W,1,07,1.13,10.7,M,-33.5,M,,*6F
370,0,-0.58,0.03,-0.97,0.31,1.56,-0.37,0.9962,0.0111,-0.0311,0.0811,$GPGGA,151656.800,3852.8891,N,07703.6945,W,1,07,1.13,10.7,M,-33.5,M,,*65
371,0,-0.36,0.03,-0.70,0.94,1.25,-0.50,0.9962,0.0113,-0.0297,0.0811,$GPGGA,151656.900,3852.8902,N,07703.6954,W,1,07,1.13,10.7,M,-33.5,M,,*6F
372,0,-0.68,0.00,-0.29,0.69,-0.06,-0.50,0.9962,0.0121,-0.0281,0.0811,$GPGGA,151657.000,3852.8913,N,07703.6963,W,1,07,1.09,10.7,M,-33.5,M,,*68
373,0,-0.70,-0.04,-0.23,0.44,-1.12,-0.50,0.9962,0.0128,-0.0283,0.0810,$GPGGA,151657.100,3852.8923,N,07703.6973,W,1,07,1.13,10.6,M,-33.5,M,,*61
374,0,-0.38,-0.02,-0.88,0.00,0.00,-0.75,0.9963,0.0135,-0.0278,0.0808,$GPGGA,151657.200,3852.8934,N,07703.6982,W,1,07,1.13,10.6,M,-33.5,M,,*6A
375,0,-0.57,-0.04,-0.78,0.25,0.13,-0.69,0.9963,0.0135,-0.0271,0.0806,$GPGGA,151657.300,3852.8945,N,07703.6991,W,1,07,1.13,10.6,M,-33.5,M,,*6F
376,0,-0.28,-0.03,-0.58,0.00,-0.25,-0.56,0.9963,0.0142,-0.0259,0.0804,$GPGGA,151657.400,3852.8956,N,07703.7000,W,1,07,1.13,10.6,M,-33.5,M,,*6A
377,0,-0.43,0.07,-0.64,0.00,0.44,-0.44,0.9963,0.0141,-0.0251,0.0804,$GPGGA,151657.500,3852.8966,N,07703.7010,W,1,07,1.13,10.6,M,-33.5,M,,*69
378,0,-0.32,0.02,-0.49,0.44,0.19,-0.56,0.9964,0.0139,-0.0237,0.0803,$GPGGA,151657.600,3852.8977,N,07703.7019,W,1,07,1.13,10.5,M,-33.5,M,,*60
379,0,-0.17,0.22,-0.14,0.50,-0.94,-0.56,0.9964,0.0141,-0.0237,0.0803,$GPGGA,151657.700,3852.8987,N,07703.7028,W,1,07,1.13,10.5,M,-33.5,M,,*6C
380,0,0.23,0.32,0.12,1.06,-0.44,-0.56,0.9964,0.0145,-0.0236,0.0801,$GPGGA,151657.800,3852.8998,N,07703.7037,W,1,07,1.13,10.5,M,-33.5,M,,*63
381,0,-0.06,0.08,-0.64,0.94,-0.13,-0.75,0.9964,0.0147,-0.0236,0.0797,$GPGGA,151657.900,3852.9009,N,07703.7046,W,1,07,1.13,10.5,M,-33.5,M,,*64
382,0,0.11,0.00,-0.52,-0.13,0.94,-0.88,0.9965,0.0150,-0.0230,0.0790,$GPGGA,151658.000,3852.9019,N,07703.7055,W,1,07,1.09,10.5,M,-33.5,M,,*6A
383,0,-0.04,-0.27,-0.52,-0.13,0.81,-0.75,0.9966,0.0150,-0.0225,0.0783,$GPGGA,151658.100,3852.9030,N,07703.7064,W,1,07,1.13,10.4,M,-33.5,M,,*68
384,0,-0.56,-0.11,-0.61,-0.88,0.94,-0.88,0.9966,0.0149,-0.0219,0.0777,$GPGGA,151658.200,3852.9041,N,07703.7073,W,1,07,1.13,10.4,M,-33.5,M,,*6B
385,0,0.01,-0.06,0.06,-0.88,0.81,-0.75,0.9967,0.0148,-0.0217,0.0771,$GPGGA,151658.300,3852.9051,N,07703.7082,W,1,07,1.13,10.4,M,-33.5,M,,*65
386,0,-0.46,-0.01,-0.42,-1.50,0.75,-0.94,0.9968,0.0140,-0.0217,0.0764,$GPGGA,151658.400,3852.9062,N,07703.7091,W,1,07,1.13,10.4,M,-33.5,M,,*60
387,0,-0.22,-0.11,0.07,-0.62,0.69,-0.94,0.9968,0.0137,-0.0217,0.0756,$GPGGA,151658.500,3852.9072,N,07703.7100,W,1,07,1.13,10.3,M,-33.5,M,,*6E
388,0,-0.42,0.08,-0.82,0.19,-0.19,-0.94,0.9969,0.0134,-0.0211,0.0748,$GPGGA,151658.600,3852.9083,N,07703.7109,W,1,07,1.13,10.3,M,-33.5,M,,*6A
389,0,-0.26,0.05,-0.31,0.06,-1.06,-0.75,0.9969,0.0133,-0.0212,0.0741,$GPGGA,151658.700,3852.9094,N,07703.7118,W,1,07,1.13,10.2,M,-33.5,M,,*6C
390,0,0.05,-0.23,-0.89,0.06,-0.81,-0.69,0.9970,0.0128,-0.0214,0.0734,$GPGGA,151658.800,3852.9104,N,07703.7126,W,1,07,1.13,10.2,M,-33.5,M,,*66
391,0,-0.29,-0.17,-0.68,0.00,0.94,-0.88,0.9971,0.0127,-0.0211,0.0727,$GPGGA,151658.900,3852.9115,N,07703.7135,W,1,07,1.13,10.2,M,-33.5,M,,*65
392,0,-0.23,-0.47,-1.16,0.25,-0.75,-0.75,0.9971,0.0127,-0.0205,0.0720,$GPGGA,151659.000,3852.9126,N,07703.7144,W,1,07,1.09,10.2,M,-33.5,M,,*60
393,0,-0.24,-0.17,-0.59,-0.31,0.44,-0.81,0.9972,0.0124,-0.0202,0.0713,$GPGGA,151659.100,3852.9136,N,07703.7153,W,1,07,1.13,10.1,M,-33.5,M,,*6E
394,0,-0.38,-0.06,-0.77,0.19,-0.44,-0.81,0.9973,0.0123,-0.0200,0.0706,$GPGGA,151659.200,3852.9147,N,07703.7161,W,1,07,1.13,10.1,M,-33.5,M,,*6A
395,0,0.07,-0.22,-0.75,0.44,-0.44,-0.75,0.9973,0.0123,-0.0198,0.0699,$GPGGA,151659.300,3852.9158,N,07703.7170,W,1,07,1.13,10.0,M,-33.5,M,,*64
396,0,-0.27,-0.19,-0.65,-0.44,-0.06,-0.81,0.9973,0.0122,-0.0197,0.0692,$GPGGA,151659.400,3852.9168,N,07703.7178,W,1,07,1.13,10.0,M,-33.5,M,,*68
397,0,-0.22,-0.08,-0.86,0.25,0.19,-0.94,0.9974,0.0122,-0.0200,0.0685,$GPGGA,151659.500,3852.9179,N,07703.7187,W,1,07,1.13,10.0,M,-33.5,M,,*69
398,0,-0.41,-0.39,-0.33,0.88,0.19,-1.00,0.9974,0.0126,-0.0200,0.0676,$GPGGA,151659.600,3852.9190,N,07703.7196,W,1,07,1.13,10.0,M,-33.5,M,,*6D
399,0,-0.34,-0.22,-0.48,0.94,-0.25,-1.06,0.9975,0.0120,-0.0190,0.0667,$GPGGA,151659.700,3852.9200,N,07703.7204,W,1,07,1.13,9.9,M,-33.5,M,,*5F
400,0,-0.51,0.05,-0.09,-0.88,-0.06,-1.25,0.9976,0.0117,-0.0190,0.0657,$GPGGA,151659.800,3852.9211,N,07703.7213,W,1,07,1.13,9.9,M,-33.5,M,,*56
401,0,-0.21,-0.28,-0.91,-1.75,0.56,-1.75,0.9977,0.0104,-0.0190,0.0645,$GPGGA,151659.900,3852.9221,N,07703.7221,W,1,07,1.13,9.8,M,-33.5,M,,*54
402,0,-0.46,-0.74,-1.22,-0.44,1.19,-2.06,0.9978,0.0089,-0.0179,0.0629,$GPGGA,151700.000,3852.9232,N,07703.7230,W,1,07,1.09,9.8,M,-33.5,M,,*59
403,0,-0.36,-0.89,-0.78,-0.19,0.50,-1.94,0.9980,0.0074,-0.0167,0.0612,$GPGGA,151700.100,3852.9243,N,07703.7238,W,1,07,1.13,9.8,M,-33.5,M,,*5D
404,0,-0.37,-0.67,-0.26,0.25,-0.94,-1.69,0.9980,0.0049,-0.0162,0.0598,$GPGGA,151700.200,3852.9253,N,07703.7246,W,1,07,1.13,9.7,M,-33.5,M,,*59
405,0,-0.34,-0.57,-0.90,0.13,0.00,-1.69,0.9982,0.0035,-0.0165,0.0583,$GPGGA,151700.300,3852.9264,N,07703.7255,W,1,07,1.13,9.7,M,-33.5,M,,*5E
406,0,-0.27,-0.50,-0.31,-0.25,0.50,-1.69,0.9982,0.0037,-0.0168,0.0570,$GPGGA,151700.400,3852.9274,N,07703.7263,W,1,07,1.13,9.7,M,-33.5,M,,*5D
407,0,-0.43,-0.45,-0.30,-0.37,-0.50,-1.81,0.9983,0.0035,-0.0170,0.0555,$GPGGA,151700.500,3852.9285,N,07703.7271,W,1,07,1.13,9.6,M,-33.5,M,,*50
408,0,-0.44,-0.37,-1.18,-0.88,1.75,-1.87,0.9984,0.0029,-0.0168,0.0540,$GPGGA,151700.600,3852.9296,N,07703.7279,W,1,07,1.13,9.6,M,-33.5,M,,*59
409,0,-0.48,-0.73,-1.26,0.69,1.06,-1.94,0.9985,0.0026,-0.0159,0.0524,$GPGGA,151700.700,3852.9307,N,07703.7287,W,1,07,1.13,9.5,M,-33.5,M,,*53
410,0,-0.33,-0.52,-1.02,0.00,0.06,-1.75,0.9986,0.0017,-0.0142,0.0508,$GPGGA,151700.800,3852.9317,N,07703.7295,W,1,07,1.13,9.5,M,-33.5,M,,*5E
411,0,0.09,-0.26,-0.50,0.69,-1.06,-1.81,0.9987,0.0016,-0.0143,0.0493,$GPGGA,151700.900,3852.9328,N,07703.7303,W,1,07,1.13,9.5,M,-33.5,M,,*5D
412,0,-0.12,0.04,-0.25,-0.13,-0.62,-1.94,0.9988,0.0007,-0.0141,0.0477,$GPGGA,151701.000,3852.9339,N,07703.7311,W,1,07,1.13,9.4,M,-33.5,M,,*57
413,0,-0.28,-0.11,-0.25,-0.88,0.50,-1.69,0.9988,0.0001,-0.0138,0.0462,$GPGGA,151701.100,3852.9350,N,07703.7319,W,1,07,1.13,9.4,M,-33.5,M,,*51
414,0,-0.33,-0.51,-1.30,-0.75,0.00,-1.81,0.9989,-0.0008,-0.0134,0.0447,$GPGGA,151701.200,3852.9360,N,07703.7327,W,1,07,1.13,9.3,M,-33.5,M,,*5B
415,0,-0.55,-0.59,-0.62,-1.12,1.56,-2.00,0.9990,-0.0012,-0.0128,0.0430,$GPGGA,151701.300,3852.9371,N,07703.7335,W,1,07,1.13,9.3,M,-33.5,M,,*59
416,0,-0.94,-0.31,-0.68,0.75,-0.25,-1.87,0.9991,-0.0012,-0.0123,0.0414,$GPGGA,151701.400,3852.9382,N,07703.7343,W,1,07,1.13,9.2,M,-33.5,M,,*52
417,0,-0.05,0.00,0.07,0.13,-0.62,-1.69,0.9991,-0.0007,-0.0128,0.0400,$GPGGA,151701.500,3852.9392,N,07703.7350,W,1,07,1.13,9.2,M,-33.5,M,,*50
418,0,0.27,-0.18,-0.48,0.06,-1.00,-1.69,0.9991,-0.0008,-0.0137,0.0386,$GPGGA,151701.600,3852.9403,N,07703.7358,W,1,07,1.13,9.2,M,-33.5,M,,*54
419,0,0.01,0.31,-0.23,-1.25,-0.06,-1.69,0.9992,-0.0010,-0.0142,0.0370,$GPGGA,151701.700,3852.9414,N,07703.7365,W,1,07,1.13,9.1,M,-33.5,M,,*5E
420,0,-0.34,-0.21,-0.65,0.25,-0.13,-1.69,0.9993,-0.0023,-0.0141,0.0356,$GPGGA,151701.800,3852.9425,N,07703.7373,W,1,07,1.13,9.1,M,-33.5,M,,*54
421,0,-0.32,0.04,-0.44,1.00,0.06,-1.94,0.9993,-0.0029,-0.0135,0.0341,$GPGGA,151701.900,3852.9435,N,07703.7380,W,1,07,1.13,9.0,M,-33.5,M,,*59
