11.77 359.26 0.98 -1.75 0.27 -0.08 -0.26 53.75 1021.42 -0.12 14.68 $GPGGA,203552.700,3903.4325,N,07726.7606,W,2,09,1.00,72.0,M,-33.4,M,0000,0000*67
11.81 359.46 1.48 -1.36 -0.06 -0.09 -0.16 53.75 1021.42 -0.08 14.71 $GPGGA,203552.700,3903.4325,N,07726.7606,W,2,09,1.00,72.0,M,-33.4,M,0000,0000*67
11.84 359.46 1.48 -1.36 -0.09 -0.05 -0.13 53.75 1021.42 -0.03 14.71 $GPGGA,203552.700,3903.4325,N,07726.7606,W,2,09,1.00,72.0,M,-33.4,M,0000,0000*67
11.87 359.46 1.49 -1.36 -0.11 -0.04 -0.15 53.73 1021.41 0.00 14.77 $GPGGA,203552.700,3903.4325,N,07726.7606,W,2,09,1.00,72.0,M,-33.4,M,0000,0000*67
11.90 359.45 1.56 -1.39 -0.12 -0.08 -0.17 53.73 1021.41 -0.06 14.77 $GPGGA,203552.700,3903.4325,N,07726.7606,W,2,09,1.00,72.0,M,-33.4,M,0000,0000*67
11.93 359.45 1.61 -1.41 -0.08 -0.14 -0.16 53.74 1021.42 -0.07 14.69 $GPGGA,203552.700,3903.4325,N,07726.7606,W,2,09,1.00,72.0,M,-33.4,M,0000,0000*67
11.96 359.45 1.65 -1.43 -0.05 -0.16 -0.15 53.76 1021.42 -0.01 14.75 $GPGGA,203552.700,3903.4325,N,07726.7606,W,2,09,1.00,72.0,M,-33.4,M,0000,0000*67
11.99 359.42 1.69 -1.46 -0.04 -0.19 -0.15 53.79 1021.41 0.00 14.76 $GPGGA,203552.700,3903.4325,N,07726.7606,W,2,09,1.00,72.0,M,-33.4,M,0000,0000*67
12.02 359.39 1.70 -1.48 0.01 -0.19 -0.12 53.81 1021.41 -0.09 14.80 $GPGGA,203552.700,3903.4325,N,07726.7606,W,2,09,1.00,72.0,M,-33.4,M,0000,0000*67
12.05 359.35 1.68 -1.48 0.02 -0.15 -0.14 53.84 1021.42 -0.08 14.73 $GPGGA,203552.700,3903.4325,N,07726.7606,W,2,09,1.00,72.0,M,-33.4,M,0000,0000*67
12.08 359.33 1.67 -1.48 0.08 -0.08 -0.12 53.86 1021.42 -0.08 14.77 $GPGGA,203552.700,3903.4325,N,07726.7606,W,2,09,1.00,72.0,M,-33.4,M,0000,0000*67
12.12 359.28 1.66 -1.49 0.03 0.00 -0.12 53.88 1021.42 0.01 14.73 $GPGGA,203552.700,3903.4325,N,07726.7606,W,2,09,1.00,72.0,M,-33.4,M,0000,0000*67
12.15 359.27 1.66 -1.50 0.02 0.04 -0.16 53.90 1021.41 0.20 14.75 $GPGGA,203552.700,3903.4325,N,07726.7606,W,2,09,1.00,72.0,M,-33.4,M,0000,0000*67
12.18 359.27 1.68 -1.50 -0.02 0.02 -0.13 53.91 1021.38 0.20 14.73 $GPGGA,203552.700,3903.4325,N,07726.7606,W,2,09,1.00,72.0,M,-33.4,M,0000,0000*67
12.21 359.27 1.71 -1.49 -0.06 0.00 -0.16 53.91 1021.39 0.21 14.74 $GPGGA,203552.700,3903.4325,N,07726.7606,W,2,09,1.00,72.0,M,-33.4,M,0000,0000*67
12.26 359.30 1.74 -1.48 -0.05 -0.09 -0.14 53.92 1021.38 0.21 14.71 
12.36 359.33 1.64 -1.45 -0.02 -0.19 -0.14 53.93 1021.38 0.30 14.73 
12.46 359.34 1.51 -1.39 0.00 -0.06 -0.11 53.93 1021.37 0.24 14.73 $GPGGA,203554.400,3903.4325,N,07726.7606,W,2,09,1.00,72.0,M,-33.4,M,0000,0000*62
12.56 359.34 1.60 -1.40 -0.06 -0.09 -0.16 53.91 1021.38 0.28 14.73 $GPGGA,203554.500,3903.4325,N,07726.7606,W,2,09,1.00,72.0,M,-33.4,M,0000,0000*63
12.66 359.32 1.69 -1.46 -0.03 -0.16 -0.15 53.88 1021.38 0.18 14.71 $GPGGA,203554.600,3903.4325,N,07726.7606,W,2,09,1.00,72.0,M,-33.4,M,0000,0000*60
12.76 359.25 1.66 -1.47 0.04 -0.02 -0.15 53.86 1021.39 0.12 14.73 $GPGGA,203554.700,3903.4325,N,07726.7606,W,2,09,1.00,72.0,M,-33.4,M,0000,0000*61
12.86 359.25 1.67 -1.47 -0.02 -0.04 -0.16 53.84 1021.40 0.14 14.74 $GPGGA,203554.800,3903.4325,N,07726.7606,W,2,09,1.00,72.1,M,-33.4,M,0000,0000*6F
12.96 359.27 1.64 -1.45 -0.05 -0.16 -0.16 53.82 1021.39 0.08 14.81 $GPGGA,203554.900,3903.4325,N,07726.7606,W,2,09,1.00,72.1,M,-33.4,M,0000,0000*6E
13.06 359.27 1.57 -1.43 0.00 -0.15 -0.17 53.81 1021.40 0.09 14.74 $GPGGA,203555.000,3903.4325,N,07726.7606,W,2,09,1.00,72.1,M,-33.4,M,0000,0000*66
13.16 359.27 1.60 -1.43 -0.03 -0.08 -0.15 53.80 1021.40 -0.04 14.74 $GPGGA,203555.100,3903.4325,N,07726.7606,W,2,09,1.00,72.1,M,-33.4,M,0000,0000*67
13.26 359.27 1.73 -1.49 -0.06 -0.11 -0.15 53.79 1021.41 0.03 14.69 $GPGGA,203555.200,3903.4325,N,07726.7606,W,2,09,1.00,72.1,M,-33.4,M,0000,0000*64
13.36 359.27 1.73 -1.49 0.01 -0.09 -0.15 53.79 1021.41 0.14 14.77 $GPGGA,203555.300,3903.4325,N,07726.7606,W,2,09,1.00,72.1,M,-33.4,M,0000,0000*65
13.46 359.27 1.71 -1.49 -0.01 -0.06 -0.14 53.78 1021.39 0.09 14.76 $GPGGA,203555.400,3903.4325,N,07726.7606,W,2,09,1.00,72.1,M,-33.4,M,0000,0000*62
13.56 359.27 1.72 -1.49 -0.04 -0.13 -0.19 53.78 1021.40 -0.02 14.76 $GPGGA,203555.500,3903.4325,N,07726.7606,W,2,09,1.00,72.1,M,-33.4,M,0000,0000*63
13.66 359.27 1.68 -1.47 -0.06 -0.17 -0.15 53.78 1021.41 0.01 14.81 $GPGGA,203555.600,3903.4325,N,07726.7606,W,2,09,1.00,72.1,M,-33.4,M,0000,0000*60
13.77 359.22 1.64 -1.46 0.00 -0.07 -0.17 53.77 1021.41 0.08 14.77 $GPGGA,203555.700,3903.4325,N,07726.7606,W,2,09,1.00,72.1,M,-33.4,M,0000,0000*61
13.87 359.19 1.72 -1.49 -0.01 -0.07 -0.14 53.77 1021.40 0.01 14.78 $GPGGA,203555.800,3903.4325,N,07726.7606,W,2,09,1.00,72.1,M,-33.4,M,0000,0000*6E
13.97 359.19 1.73 -1.49 -0.02 -0.09 -0.17 53.77 1021.41 0.00 14.78 $GPGGA,203555.900,3903.4325,N,07726.7606,W,2,09,1.00,72.1,M,-33.4,M,0000,0000*6F
14.07 359.19 1.69 -1.49 -0.02 -0.09 -0.14 53.77 1021.41 -0.10 14.73 $GPGGA,203556.000,3903.4325,N,07726.7606,W,2,09,1.00,72.1,M,-33.4,M,0000,0000*65
14.16 359.19 1.68 -1.47 -0.01 -0.17 -0.17 53.77 1021.42 -0.08 14.73 $GPGGA,203556.100,3903.4325,N,07726.7606,W,2,09,1.00,72.1,M,-33.4,M,0000,0000*64
14.26 359.18 1.65 -1.45 -0.04 -0.12 -0.18 53.77 1021.42 -0.06 14.73 $GPGGA,203556.200,3903.4325,N,07726.7606,W,2,09,1.00,72.1,M,-33.4,M,0000,0000*67
14.36 359.12 1.62 -1.45 0.00 -0.05 -0.17 53.78 1021.42 -0.03 14.74 $GPGGA,203556.300,3903.4324,N,07726.7606,W,2,09,1.00,72.1,M,-33.4,M,0000,0000*67
14.46 359.11 1.70 -1.45 0.00 -0.10 -0.15 53.78 1021.41 0.02 14.75 $GPGGA,203556.400,3903.4324,N,07726.7606,W,2,09,1.00,72.1,M,-33.4,M,0000,0000*60
14.56 359.11 1.70 -1.45 -0.02 -0.11 -0.17 53.78 1021.41 0.04 14.78 $GPGGA,203556.500,3903.4324,N,07726.7606,W,2,09,1.00,72.1,M,-33.4,M,0000,0000*61
14.66 359.11 1.65 -1.44 -0.02 -0.09 -0.16 53.78 1021.40 0.07 14.70 $GPGGA,203556.600,3903.4324,N,07726.7606,W,2,09,1.00,72.1,M,-33.4,M,0000,0000*62
14.76 359.11 1.66 -1.43 0.00 -0.12 -0.12 53.78 1021.40 0.04 14.74 $GPGGA,203556.700,3903.4324,N,07726.7606,W,2,09,1.00,72.1,M,-33.4,M,0000,0000*63
14.86 359.11 1.78 -1.45 -0.03 -0.16 -0.16 53.78 1021.40 0.08 14.75 $GPGGA,203556.800,3903.4325,N,07726.7606,W,2,09,1.00,72.1,M,-33.4,M,0000,0000*6D
14.96 359.07 1.81 -1.46 -0.01 -0.08 -0.16 53.78 1021.40 0.07 14.69 $GPGGA,203556.900,3903.4325,N,07726.7605,W,2,09,1.00,72.2,M,-33.4,M,0000,0000*6C
15.06 359.06 1.81 -1.46 0.01 -0.11 -0.13 53.78 1021.40 0.12 14.71 $GPGGA,203557.000,3903.4325,N,07726.7605,W,2,09,1.00,72.2,M,-33.4,M,0000,0000*64
15.16 359.06 1.81 -1.46 -0.02 -0.14 -0.17 53.78 1021.40 0.02 14.70 $GPGGA,203557.100,3903.4325,N,07726.7605,W,2,09,1.00,72.2,M,-33.4,M,0000,0000*65
15.26 359.06 1.81 -1.46 -0.04 -0.13 -0.15 53.78 1021.41 0.05 14.67 $GPGGA,203557.200,3903.4325,N,07726.7605,W,2,09,1.00,72.2,M,-33.4,M,0000,0000*66
15.36 359.06 1.81 -1.46 -0.02 -0.12 -0.14 53.78 1021.40 0.05 14.72 $GPGGA,203557.300,3903.4325,N,07726.7605,W,2,09,0.98,72.2,M,-33.4,M,0000,0000*67
15.46 359.05 1.86 -1.46 0.00 -0.17 -0.16 53.78 1021.40 0.04 14.74 $GPGGA,203557.400,3903.4325,N,07726.7605,W,2,09,1.00,72.2,M,-33.4,M,0000,0000*60
15.56 359.06 1.88 -1.46 -0.03 -0.15 -0.13 53.78 1021.40 0.03 14.78 $GPGGA,203557.500,3903.4325,N,07726.7605,W,2,09,1.00,72.2,M,-33.4,M,0000,0000*61
15.66 359.05 1.83 -1.45 -0.01 -0.09 -0.15 53.78 1021.41 0.08 14.73 $GPGGA,203557.600,3903.4325,N,07726.7605,W,2,09,1.00,72.2,M,-33.4,M,0000,0000*62
15.77 359.06 1.83 -1.45 0.00 -0.11 -0.15 53.78 1021.40 0.03 14.73 $GPGGA,203557.700,3903.4325,N,07726.7605,W,2,09,1.00,72.2,M,-33.4,M,0000,0000*63
15.87 359.06 1.78 -1.45 -0.01 -0.18 -0.16 53.78 1021.41 -0.02 14.75 $GPGGA,203557.800,3903.4325,N,07726.7605,W,2,09,1.00,72.2,M,-33.4,M,0000,0000*6C
15.97 359.06 1.72 -1.43 -0.04 -0.13 -0.15 53.78 1021.41 0.01 14.74 $GPGGA,203557.900,3903.4325,N,07726.7605,W,2,09,1.00,72.2,M,-33.4,M,0000,0000*6D
16.07 359.06 1.74 -1.42 0.00 -0.12 -0.16 53.78 1021.41 0.05 14.78 $GPGGA,203558.000,3903.4324,N,07726.7605,W,2,09,1.00,72.2,M,-33.4,M,0000,0000*6A
16.16 359.06 1.81 -1.45 -0.01 -0.12 -0.15 53.78 1021.40 0.03 14.77 $GPGGA,203558.100,3903.4324,N,07726.7605,W,2,09,0.98,72.3,M,-33.4,M,0000,0000*6A
16.26 359.06 1.82 -1.45 -0.01 -0.09 -0.14 53.78 1021.41 -0.01 14.73 $GPGGA,203558.200,3903.4324,N,07726.7605,W,2,09,0.98,72.3,M,-33.4,M,0000,0000*69
16.36 359.06 1.80 -1.45 0.02 -0.10 -0.14 53.78 1021.41 0.06 14.75 $GPGGA,203558.300,3903.4324,N,07726.7605,W,2,09,0.98,72.3,M,-33.4,M,0000,0000*68
16.46 359.09 1.70 -1.49 -0.09 -0.08 0.06 53.79 1021.40 0.01 14.77 $GPGGA,203558.400,3903.4324,N,07726.7605,W,2,09,0.98,72.3,M,-33.4,M,0000,0000*6F
16.56 359.08 1.70 -1.44 0.02 0.04 -0.16 53.79 1021.41 -0.02 14.71 $GPGGA,203558.500,3903.4324,N,07726.7605,W,2,09,0.98,72.3,M,-33.4,M,0000,0000*6E
16.66 359.08 1.69 -1.45 0.00 -0.08 -0.30 53.79 1021.41 0.01 14.74 $GPGGA,203558.600,3903.4324,N,07726.7605,W,2,09,0.98,72.3,M,-33.4,M,0000,0000*6D
16.76 359.08 1.70 -1.43 -0.11 -0.13 -0.28 53.79 1021.41 0.04 14.74 $GPGGA,203558.700,3903.4324,N,07726.7605,W,2,09,0.98,72.3,M,-33.4,M,0000,0000*6C
16.86 359.08 1.72 -1.44 0.01 -0.25 -0.09 53.79 1021.40 0.03 14.77 $GPGGA,203558.800,3903.4324,N,07726.7605,W,2,09,0.98,72.3,M,-33.4,M,0000,0000*63
16.96 359.08 1.72 -1.44 -0.16 0.06 -0.08 53.79 1021.41 0.02 14.70 $GPGGA,203558.900,3903.4324,N,07726.7605,W,2,09,0.98,72.3,M,-33.4,M,0000,0000*62
17.06 359.08 1.81 -1.45 0.17 -0.07 -0.12 53.79 1021.41 0.01 14.70 $GPGGA,203559.000,3903.4324,N,07726.7605,W,2,09,0.98,72.3,M,-33.4,M,0000,0000*6A
17.16 359.00 1.96 -1.51 -0.32 -0.33 -0.15 53.79 1021.41 0.03 14.70 $GPGGA,203559.100,3903.4324,N,07726.7605,W,2,09,0.98,72.3,M,-33.4,M,0000,0000*6B
17.26 358.92 2.02 -1.54 -0.13 0.02 -0.04 53.80 1021.41 0.01 14.78 $GPGGA,203559.200,3903.4324,N,07726.7606,W,2,09,0.98,72.3,M,-33.4,M,0000,0000*6B
17.36 358.89 1.88 -1.50 0.30 0.08 -0.14 53.80 1021.41 0.00 14.77 $GPGGA,203559.300,3903.4324,N,07726.7606,W,2,09,0.98,72.3,M,-33.4,M,0000,0000*6A
17.46 359.02 1.87 -1.50 0.08 -0.27 0.17 53.80 1021.41 0.08 14.76 $GPGGA,203559.400,3903.4324,N,07726.7606,W,2,09,0.98,72.3,M,-33.4,M,0000,0000*6D
17.56 359.13 1.94 -1.49 -0.17 -0.22 0.01 53.80 1021.40 0.07 14.81 $GPGGA,203559.500,3903.4324,N,07726.7606,W,2,09,0.98,72.3,M,-33.4,M,0000,0000*6C
17.66 359.06 1.93 -1.43 -0.05 0.00 -0.34 53.79 1021.40 0.07 14.73 $GPGGA,203559.600,3903.4324,N,07726.7606,W,2,09,0.98,72.3,M,-33.4,M,0000,0000*6F
17.76 358.93 2.12 -1.56 0.18 -0.23 -0.09 53.80 1021.40 0.05 14.70 $GPGGA,203559.700,3903.4324,N,07726.7606,W,2,09,0.98,72.3,M,-33.4,M,0000,0000*6E
17.86 358.81 2.48 -1.86 -0.03 -0.20 -0.01 53.80 1021.40 0.03 14.75 $GPGGA,203559.800,3903.4324,N,07726.7606,W,2,09,0.98,72.3,M,-33.4,M,0000,0000*61
17.96 358.64 2.85 -2.07 -0.05 -0.06 -0.11 53.80 1021.41 -0.06 14.71 $GPGGA,203559.900,3903.4324,N,07726.7605,W,2,09,0.98,72.3,M,-33.4,M,0000,0000*63
18.06 358.46 2.92 -2.11 0.15 0.03 0.12 53.80 1021.42 -0.04 14.70 $GPGGA,203600.000,3903.4324,N,07726.7606,W,2,09,0.98,72.3,M,-33.4,M,0000,0000*66
18.16 358.47 2.26 -1.82 0.32 0.14 -0.07 53.80 1021.41 -0.04 14.74 $GPGGA,203600.100,3903.4324,N,07726.7606,W,2,09,0.98,72.3,M,-33.4,M,0000,0000*67
18.26 358.83 1.56 -1.35 0.12 -0.04 -0.25 53.80 1021.41 -0.06 14.74 $GPGGA,203600.200,3903.4324,N,07726.7606,W,2,09,0.98,72.3,M,-33.4,M,0000,0000*64
18.36 359.30 1.48 -1.19 -0.25 -0.66 -0.40 53.80 1021.42 0.00 14.74 $GPGGA,203600.300,3903.4324,N,07726.7606,W,2,09,0.98,72.4,M,-33.4,M,0000,0000*62
18.46 359.29 1.30 -1.10 -0.29 -0.36 -0.22 53.80 1021.41 -0.03 14.75 $GPGGA,203600.400,3903.4324,N,07726.7606,W,2,09,0.98,72.4,M,-33.4,M,0000,0000*65
18.56 358.86 1.33 -1.20 0.21 0.00 -0.03 53.80 1021.41 -0.03 14.80 $GPGGA,203600.500,3903.4324,N,07726.7606,W,2,09,0.98,72.4,M,-33.4,M,0000,0000*64
18.66 358.57 2.01 -1.70 0.08 0.10 -0.20 53.80 1021.41 -0.02 14.72 $GPGGA,203600.600,3903.4324,N,07726.7606,W,2,09,0.98,72.4,M,-33.4,M,0000,0000*67
18.76 358.56 2.18 -1.76 -0.12 0.00 -0.25 53.80 1021.41 -0.07 14.74 $GPGGA,203600.700,3903.4324,N,07726.7606,W,2,09,0.98,72.4,M,-33.4,M,0000,0000*66
18.86 358.76 1.45 -1.38 0.20 0.06 0.05 53.80 1021.42 -0.05 14.64 $GPGGA,203600.800,3903.4325,N,07726.7606,W,2,09,0.98,72.4,M,-33.4,M,0000,0000*68
18.96 359.14 1.17 -1.14 -0.08 -0.39 -0.12 53.80 1021.42 -0.07 14.74 $GPGGA,203600.900,3903.4325,N,07726.7606,W,2,09,0.98,72.4,M,-33.4,M,0000,0000*69
19.06 359.24 1.38 -1.11 -0.47 -0.42 -0.20 53.80 1021.42 -0.02 14.75 $GPGGA,203601.000,3903.4325,N,07726.7606,W,2,09,1.00,72.4,M,-33.4,M,0000,0000*61
19.16 358.82 1.40 -1.19 0.28 -0.13 -0.22 53.80 1021.41 -0.09 14.71 $GPGGA,203601.100,3903.4325,N,07726.7606,W,2,09,1.00,72.4,M,-33.4,M,0000,0000*60
19.26 358.41 1.77 -1.60 0.31 0.24 -0.21 53.80 1021.42 0.01 14.77 $GPGGA,203601.200,3903.4325,N,07726.7606,W,2,09,1.00,72.4,M,-33.4,M,0000,0000*63
19.36 358.41 2.28 -1.83 -0.11 0.08 -0.15 53.80 1021.41 0.03 14.76 $GPGGA,203601.300,3903.4325,N,07726.7606,W,2,09,0.98,72.4,M,-33.4,M,0000,0000*62
19.46 358.63 2.02 -1.59 -0.10 -0.15 -0.13 53.80 1021.41 -0.03 14.73 $GPGGA,203601.400,3903.4325,N,07726.7606,W,2,09,0.98,72.4,M,-33.4,M,0000,0000*65
19.56 358.84 1.28 -1.23 0.18 -0.15 -0.12 53.80 1021.41 -0.05 14.75 $GPGGA,203601.500,3903.4325,N,07726.7606,W,2,09,0.98,72.4,M,-33.4,M,0000,0000*64
19.66 359.01 1.18 -1.21 -0.12 -0.31 -0.14 53.80 1021.42 -0.04 14.70 $GPGGA,203601.600,3903.4325,N,07726.7605,W,2,09,1.00,72.4,M,-33.4,M,0000,0000*64
19.76 358.90 1.34 -1.27 -0.23 -0.23 -0.17 53.80 1021.41 0.04 14.72 $GPGGA,203601.700,3903.4325,N,07726.7605,W,2,09,1.00,72.4,M,-33.4,M,0000,0000*65
19.86 358.52 1.43 -1.40 0.20 0.14 -0.12 53.80 1021.40 0.09 14.74 $GPGGA,203601.800,3903.4325,N,07726.7605,W,2,09,1.00,72.4,M,-33.4,M,0000,0000*6A
19.96 358.38 1.71 -1.65 0.19 0.16 -0.08 53.80 1021.40 0.09 14.75 $GPGGA,203601.900,3903.4325,N,07726.7606,W,2,09,1.00,72.4,M,-33.4,M,0000,0000*68
20.06 358.58 1.80 -1.64 -0.10 -0.11 -0.16 53.80 1021.40 0.02 14.71 $GPGGA,203602.000,3903.4325,N,07726.7606,W,2,09,1.00,72.4,M,-33.4,M,0000,0000*62
20.16 358.77 1.31 -1.31 -0.09 -0.12 -0.14 53.80 1021.41 0.06 14.75 $GPGGA,203602.100,3903.4325,N,07726.7606,W,2,09,0.98,72.5,M,-33.4,M,0000,0000*62
20.26 358.82 1.01 -1.18 0.07 -0.15 -0.13 53.80 1021.40 0.03 14.82 $GPGGA,203602.200,3903.4325,N,07726.7606,W,2,09,0.98,72.5,M,-33.4,M,0000,0000*61
20.36 358.79 1.27 -1.36 -0.07 -0.23 -0.17 53.80 1021.41 0.02 14.72 $GPGGA,203602.300,3903.4325,N,07726.7606,W,2,09,0.98,72.5,M,-33.4,M,0000,0000*60
20.46 358.54 1.49 -1.52 -0.07 -0.03 -0.15 53.81 1021.41 -0.01 14.78 $GPGGA,203602.400,3903.4325,N,07726.7606,W,2,09,0.98,72.5,M,-33.4,M,0000,0000*67
20.56 358.35 1.52 -1.58 0.12 0.16 -0.08 53.81 1021.41 -0.05 14.80 $GPGGA,203602.500,3903.4325,N,07726.7606,W,2,09,0.98,72.5,M,-33.4,M,0000,0000*66
20.66 358.45 1.56 -1.62 0.05 -0.04 -0.12 53.81 1021.42 -0.02 14.74 $GPGGA,203602.600,3903.4325,N,07726.7606,W,2,09,0.98,72.5,M,-33.4,M,0000,0000*65
20.76 358.66 1.36 -1.46 -0.14 -0.17 -0.15 53.81 1021.41 -0.01 14.74 $GPGGA,203602.700,3903.4325,N,07726.7606,W,2,09,0.98,72.5,M,-33.4,M,0000,0000*64
20.86 358.72 1.03 -1.24 -0.03 -0.09 -0.17 53.80 1021.41 0.03 14.74 $GPGGA,203602.800,3903.4325,N,07726.7606,W,2,09,0.98,72.5,M,-33.4,M,0000,0000*6B
20.96 358.67 1.11 -1.32 0.01 -0.14 -0.14 53.80 1021.41 -0.06 14.74 $GPGGA,203602.900,3903.4325,N,07726.7606,W,2,09,0.98,72.5,M,-33.4,M,0000,0000*6A
21.06 358.51 1.41 -1.52 -0.04 -0.08 -0.14 53.80 1021.42 -0.12 14.73 $GPGGA,203603.000,3903.4325,N,07726.7606,W,2,09,0.98,72.5,M,-33.4,M,0000,0000*62
21.16 358.34 1.48 -1.58 0.01 0.12 -0.12 53.80 1021.42 -0.02 14.70 $GPGGA,203603.100,3903.4325,N,07726.7606,W,2,09,0.98,72.5,M,-33.4,M,0000,0000*63
21.26 358.37 1.44 -1.55 0.07 0.03 -0.08 53.80 1021.41 -0.13 14.78 $GPGGA,203603.200,3903.4325,N,07726.7606,W,2,09,0.98,72.5,M,-33.4,M,0000,0000*60
21.36 358.56 1.36 -1.49 -0.02 -0.18 -0.19 53.80 1021.43 -0.15 14.73 $GPGGA,203603.300,3903.4325,N,07726.7606,W,2,09,0.98,72.5,M,-33.4,M,0000,0000*61
21.46 358.64 1.15 -1.35 -0.10 -0.20 -0.19 53.80 1021.43 -0.03 14.70 $GPGGA,203603.400,3903.4325,N,07726.7606,W,2,09,0.98,72.5,M,-33.4,M,0000,0000*66
21.56 358.54 1.13 -1.36 -0.01 -0.08 -0.13 53.80 1021.41 -0.07 14.72 $GPGGA,203603.500,3903.4325,N,07726.7606,W,2,09,0.98,72.5,M,-33.4,M,0000,0000*67
21.66 358.39 1.42 -1.56 0.03 -0.08 -0.14 53.80 1021.42 -0.16 14.68 $GPGGA,203603.600,3903.4325,N,07726.7606,W,2,09,0.98,72.5,M,-33.4,M,0000,0000*64
21.76 358.28 1.62 -1.70 -0.04 -0.02 -0.10 53.80 1021.43 -0.17 14.71 $GPGGA,203603.700,3903.4325,N,07726.7606,W,2,09,0.98,72.5,M,-33.4,M,0000,0000*65
21.86 358.25 1.54 -1.65 0.00 0.07 -0.12 53.80 1021.43 -0.10 14.66 $GPGGA,203603.800,3903.4325,N,07726.7606,W,2,09,0.98,72.5,M,-33.4,M,0000,0000*6A
21.96 358.37 1.46 -1.58 0.00 -0.10 -0.15 53.80 1021.42 -0.17 14.67 $GPGGA,203603.900,3903.4325,N,07726.7607,W,2,09,0.98,72.5,M,-33.4,M,0000,0000*6A
22.07 358.49 1.37 -1.55 -0.09 -0.26 -0.15 53.80 1021.43 -0.17 14.68 $GPGGA,203604.000,3903.4325,N,07726.7607,W,2,09,0.98,72.5,M,-33.4,M,0000,0000*64
22.16 358.42 1.26 -1.50 -0.08 -0.09 -0.15 53.80 1021.43 -0.16 14.72 $GPGGA,203604.100,3903.4325,N,07726.7607,W,2,09,0.98,72.5,M,-33.4,M,0000,0000*65
22.26 358.26 1.40 -1.61 0.03 0.00 -0.13 53.80 1021.43 -0.08 14.73 $GPGGA,203604.200,3903.4325,N,07726.7607,W,2,09,0.98,72.5,M,-33.4,M,0000,0000*66
22.36 358.18 1.64 -1.75 0.02 -0.08 -0.15 53.80 1021.42 -0.02 14.68 $GPGGA,203604.300,3903.4325,N,07726.7607,W,2,09,0.98,72.5,M,-33.4,M,0000,0000*67
22.46 358.18 1.62 -1.74 -0.01 0.01 -0.14 53.80 1021.41 -0.07 14.74 $GPGGA,203604.400,3903.4325,N,07726.7607,W,2,09,0.98,72.5,M,-33.4,M,0000,0000*60
22.56 358.24 1.44 -1.62 -0.02 -0.04 -0.15 53.80 1021.42 -0.05 14.73 $GPGGA,203604.500,3903.4325,N,07726.7608,W,2,09,0.98,72.5,M,-33.4,M,0000,0000*6E
22.66 358.36 1.36 -1.58 -0.05 -0.23 -0.15 53.80 1021.42 -0.13 14.70 $GPGGA,203604.600,3903.4325,N,07726.7608,W,2,09,0.98,72.5,M,-33.4,M,0000,0000*6D
22.76 358.36 1.26 -1.55 -0.08 -0.14 -0.18 53.81 1021.43 -0.13 14.74 $GPGGA,203604.700,3903.4325,N,07726.7608,W,2,09,0.98,72.5,M,-33.4,M,0000,0000*6C
22.86 358.22 1.32 -1.58 -0.02 -0.02 -0.13 53.80 1021.43 -0.12 14.77 $GPGGA,203604.800,3903.4325,N,07726.7608,W,2,09,0.98,72.5,M,-33.4,M,0000,0000*63
22.96 358.12 1.56 -1.72 0.00 -0.07 -0.13 53.81 1021.42 -0.11 14.76 $GPGGA,203604.900,3903.4325,N,07726.7608,W,2,09,0.98,72.5,M,-33.4,M,0000,0000*62
23.06 358.11 1.64 -1.77 0.00 -0.05 -0.16 53.81 1021.42 -0.18 14.76 $GPGGA,203605.000,3903.4325,N,07726.7608,W,2,09,0.98,72.5,M,-33.4,M,0000,0000*6A
23.16 358.12 1.49 -1.69 -0.03 0.00 -0.15 53.81 1021.43 -0.19 14.78 $GPGGA,203605.100,3903.4325,N,07726.7607,W,2,09,0.98,72.5,M,-33.4,M,0000,0000*64
23.26 358.21 1.43 -1.65 -0.02 -0.12 -0.14 53.80 1021.43 -0.06 14.73 $GPGGA,203605.200,3903.4325,N,07726.7607,W,2,09,0.98,72.5,M,-33.4,M,0000,0000*67
23.36 358.24 1.38 -1.62 -0.06 -0.20 -0.16 53.80 1021.42 -0.01 14.74 $GPGGA,203605.300,3903.4325,N,07726.7607,W,2,09,0.98,72.5,M,-33.4,M,0000,0000*66
23.46 358.17 1.32 -1.60 -0.04 -0.09 -0.16 53.80 1021.41 -0.15 14.77 $GPGGA,203605.400,3903.4325,N,07726.7606,W,2,09,0.98,72.5,M,-33.4,M,0000,0000*60
23.56 358.07 1.43 -1.66 -0.02 -0.02 -0.17 53.80 1021.43 -0.12 14.73 $GPGGA,203605.500,3903.4325,N,07726.7606,W,2,09,0.98,72.5,M,-33.4,M,0000,0000*61
23.66 358.06 1.58 -1.74 0.01 -0.07 -0.16 53.80 1021.42 -0.15 14.70 $GPGGA,203605.600,3903.4326,N,07726.7607,W,2,09,0.98,72.5,M,-33.4,M,0000,0000*60
23.76 358.06 1.54 -1.73 -0.02 -0.04 -0.14 53.80 1021.43 -0.10 14.75 $GPGGA,203605.700,3903.4326,N,07726.7606,W,2,09,0.98,72.5,M,-33.4,M,0000,0000*60
23.86 358.06 1.47 -1.70 -0.04 -0.05 -0.15 53.80 1021.42 -0.05 14.71 $GPGGA,203605.800,3903.4326,N,07726.7606,W,2,09,0.98,72.5,M,-33.4,M,0000,0000*6F
23.96 358.07 1.44 -1.69 -0.04 -0.16 -0.15 53.80 1021.41 -0.11 14.75 $GPGGA,203605.900,3903.4326,N,07726.7606,W,2,09,0.98,72.5,M,-33.4,M,0000,0000*6E
24.07 358.06 1.40 -1.67 -0.04 -0.11 -0.15 53.80 1021.42 0.03 14.77 $GPGGA,203606.000,3903.4326,N,07726.7607,W,2,09,0.98,72.5,M,-33.4,M,0000,0000*65
24.16 357.98 1.42 -1.66 -0.01 -0.01 -0.16 53.80 1021.41 -0.05 14.70 $GPGGA,203606.100,3903.4326,N,07726.7607,W,2,09,0.98,72.5,M,-33.4,M,0000,0000*64
24.26 357.96 1.46 -1.66 0.00 -0.05 -0.12 53.80 1021.41 -0.07 14.72 $GPGGA,203606.200,3903.4326,N,07726.7607,W,2,09,0.98,72.5,M,-33.4,M,0000,0000*67
24.36 357.96 1.45 -1.65 0.00 -0.10 -0.15 53.80 1021.42 -0.01 14.75 $GPGGA,203606.300,3903.4326,N,07726.7607,W,2,09,1.00,72.5,M,-33.4,M,0000,0000*66
24.46 357.97 1.42 -1.65 -0.05 -0.09 -0.17 53.80 1021.41 -0.01 14.76 $GPGGA,203606.400,3903.4326,N,07726.7607,W,2,09,1.00,72.5,M,-33.4,M,0000,0000*61
24.56 357.96 1.43 -1.65 -0.05 -0.14 -0.17 53.80 1021.41 0.02 14.81 $GPGGA,203606.500,3903.4326,N,07726.7607,W,2,09,0.98,72.5,M,-33.4,M,0000,0000*60
24.66 357.93 1.54 -1.70 -0.01 -0.13 -0.13 53.80 1021.41 -0.01 14.69 $GPGGA,203606.600,3903.4326,N,07726.7607,W,2,09,0.98,72.5,M,-33.4,M,0000,0000*63
24.76 357.85 1.65 -1.77 -0.01 -0.08 -0.16 53.81 1021.41 0.04 14.75 $GPGGA,203606.700,3903.4326,N,07726.7607,W,2,09,0.98,72.5,M,-33.4,M,0000,0000*62
24.86 357.83 1.73 -1.77 -0.02 -0.07 -0.20 53.81 1021.40 0.11 14.77 $GPGGA,203606.800,3903.4326,N,07726.7607,W,2,09,0.98,72.5,M,-33.4,M,0000,0000*6D
24.96 357.83 1.75 -1.77 -0.02 -0.14 -0.15 53.81 1021.40 0.13 14.76 $GPGGA,203606.900,3903.4326,N,07726.7608,W,2,09,0.98,72.5,M,-33.4,M,0000,0000*63
25.06 357.83 1.75 -1.77 -0.04 -0.14 -0.15 53.81 1021.39 0.07 14.73 $GPGGA,203607.000,3903.4326,N,07726.7608,W,2,09,0.98,72.5,M,-33.4,M,0000,0000*6B
25.16 357.83 1.75 -1.77 -0.05 -0.14 -0.18 53.81 1021.40 0.03 14.70 $GPGGA,203607.100,3903.4326,N,07726.7608,W,2,09,0.98,72.5,M,-33.4,M,0000,0000*6A
25.26 357.82 1.83 -1.78 -0.03 -0.15 -0.17 53.81 1021.41 0.06 14.78 $GPGGA,203607.200,3903.4326,N,07726.7608,W,2,09,0.98,72.5,M,-33.4,M,0000,0000*69
25.36 357.83 1.88 -1.78 -0.01 -0.15 -0.15 53.81 1021.40 0.00 14.76 $GPGGA,203607.300,3903.4326,N,07726.7608,W,2,09,0.98,72.5,M,-33.4,M,0000,0000*68
25.46 357.83 1.88 -1.78 -0.02 -0.11 -0.14 53.81 1021.41 0.01 14.80 $GPGGA,203607.400,3903.4326,N,07726.7608,W,2,09,0.98,72.5,M,-33.4,M,0000,0000*6F
25.56 357.83 1.88 -1.78 -0.04 -0.15 -0.16 53.81 1021.41 -0.02 14.69 $GPGGA,203607.500,3903.4326,N,07726.7608,W,2,09,0.98,72.5,M,-33.4,M,0000,0000*6E
25.66 357.83 1.83 -1.77 -0.04 -0.18 -0.16 53.81 1021.41 -0.06 14.77 $GPGGA,203607.600,3903.4327,N,07726.7608,W,2,09,0.98,72.5,M,-33.4,M,0000,0000*6C
25.76 357.83 1.76 -1.76 -0.03 -0.15 -0.13 53.81 1021.42 -0.20 14.81 $GPGGA,203607.700,3903.4327,N,07726.7608,W,2,09,0.98,72.5,M,-33.4,M,0000,0000*6D
25.86 357.83 1.74 -1.74 -0.04 -0.14 -0.17 53.81 1021.43 -0.07 14.70 $GPGGA,203607.800,3903.4327,N,07726.7608,W,2,09,0.98,72.5,M,-33.4,M,0000,0000*62
25.96 357.83 1.75 -1.73 -0.02 -0.17 -0.13 53.81 1021.42 -0.09 14.73 $GPGGA,203607.900,3903.4327,N,07726.7608,W,2,09,0.98,72.5,M,-33.4,M,0000,0000*63
26.07 357.83 1.71 -1.72 0.00 -0.12 -0.15 53.81 1021.42 -0.05 14.67 $GPGGA,203608.000,3903.4327,N,07726.7608,W,2,09,0.98,72.5,M,-33.4,M,0000,0000*65
26.16 357.84 1.68 -1.71 -0.02 -0.11 -0.14 53.81 1021.42 -0.09 14.76 $GPGGA,203608.100,3903.4327,N,07726.7608,W,2,09,0.98,72.5,M,-33.4,M,0000,0000*64
26.26 357.84 1.65 -1.70 -0.02 -0.13 -0.16 53.81 1021.42 -0.12 14.77 $GPGGA,203608.200,3903.4327,N,07726.7608,W,2,09,0.98,72.5,M,-33.4,M,0000,0000*67
26.36 357.84 1.60 -1.69 -0.03 -0.12 -0.14 53.81 1021.42 -0.10 14.74 $GPGGA,203608.300,3903.4327,N,07726.7608,W,2,09,0.98,72.5,M,-33.4,M,0000,0000*66
26.46 357.85 1.57 -1.68 -0.04 -0.13 -0.16 53.81 1021.42 -0.09 14.80 $GPGGA,203608.400,3903.4327,N,07726.7608,W,2,09,0.98,72.5,M,-33.4,M,0000,0000*61
26.56 357.84 1.58 -1.66 -0.02 -0.12 -0.16 53.82 1021.42 -0.04 14.74 $GPGGA,203608.500,3903.4327,N,07726.7609,W,2,09,0.98,72.5,M,-33.4,M,0000,0000*61
26.66 357.85 1.56 -1.66 -0.02 -0.09 -0.16 53.82 1021.41 0.00 14.81 $GPGGA,203608.600,3903.4327,N,07726.7608,W,2,09,0.98,72.5,M,-33.4,M,0000,0000*63
26.76 357.85 1.56 -1.66 -0.01 -0.07 -0.13 53.82 1021.41 0.02 14.77 $GPGGA,203608.700,3903.4327,N,07726.7609,W,2,09,1.00,72.5,M,-33.4,M,0000,0000*63
26.86 357.85 1.56 -1.66 0.00 -0.09 -0.12 53.82 1021.41 0.10 14.80 $GPGGA,203608.800,3903.4327,N,07726.7609,W,2,09,0.98,72.5,M,-33.4,M,0000,0000*6C
26.96 357.85 1.56 -1.66 0.00 -0.12 -0.15 53.82 1021.40 0.11 14.77 $GPGGA,203608.900,3903.4327,N,07726.7609,W,2,09,0.98,72.5,M,-33.4,M,0000,0000*6D
27.06 357.85 1.56 -1.66 -0.04 -0.09 -0.14 53.82 1021.40 0.10 14.77 $GPGGA,203609.000,3903.4327,N,07726.7609,W,2,09,0.98,72.5,M,-33.4,M,0000,0000*65
27.16 357.85 1.56 -1.66 -0.02 -0.10 -0.14 53.82 1021.40 0.10 14.81 $GPGGA,203609.100,3903.4327,N,07726.7609,W,2,09,0.98,72.5,M,-33.4,M,0000,0000*64
27.26 357.85 1.56 -1.66 0.00 -0.09 -0.14 53.82 1021.40 0.02 14.73 $GPGGA,203609.200,3903.4327,N,07726.7609,W,2,09,0.98,72.5,M,-33.4,M,0000,0000*67
27.36 357.85 1.56 -1.66 -0.03 -0.08 -0.11 53.82 1021.41 0.02 14.77 $GPGGA,203609.300,3903.4327,N,07726.7609,W,2,09,0.98,72.5,M,-33.4,M,0000,0000*66
27.46 357.85 1.56 -1.66 -0.01 -0.10 -0.14 53.82 1021.41 -0.05 14.70 $GPGGA,203609.400,3903.4327,N,07726.7609,W,2,09,0.98,72.4,M,-33.4,M,0000,0000*60
27.56 357.85 1.56 -1.66 -0.04 -0.14 -0.14 53.83 1021.42 -0.07 14.72 $GPGGA,203609.500,3903.4327,N,07726.7609,W,2,09,0.98,72.4,M,-33.4,M,0000,0000*61
27.66 357.85 1.56 -1.66 -0.01 -0.11 -0.14 53.82 1021.42 -0.06 14.73 $GPGGA,203609.600,3903.4327,N,07726.7609,W,2,09,0.98,72.4,M,-33.4,M,0000,0000*62
27.76 357.84 1.57 -1.66 -0.03 -0.11 -0.11 53.82 1021.42 -0.10 14.78 $GPGGA,203609.700,3903.4327,N,07726.7609,W,2,09,0.98,72.4,M,-33.4,M,0000,0000*63
27.86 357.85 1.61 -1.66 0.00 -0.11 -0.13 53.82 1021.42 -0.12 14.77 $GPGGA,203609.800,3903.4327,N,07726.7610,W,2,09,0.98,72.4,M,-33.4,M,0000,0000*64
27.96 357.85 1.63 -1.66 -0.02 -0.10 -0.14 53.83 1021.42 -0.14 14.76 $GPGGA,203609.900,3903.4327,N,07726.7610,W,2,09,0.98,72.4,M,-33.4,M,0000,0000*65
28.06 357.85 1.63 -1.66 -0.02 -0.12 -0.15 53.82 1021.43 -0.12 14.81 $GPGGA,203610.000,3903.4327,N,07726.7610,W,2,09,0.98,72.4,M,-33.4,M,0000,0000*64
28.16 357.85 1.63 -1.66 -0.03 -0.14 -0.14 53.82 1021.42 -0.09 14.72 $GPGGA,203610.100,3903.4327,N,07726.7610,W,2,09,0.98,72.4,M,-33.4,M,0000,0000*65
28.26 357.85 1.63 -1.66 -0.05 -0.14 -0.13 53.82 1021.42 -0.13 14.75 $GPGGA,203610.200,3903.4327,N,07726.7610,W,2,09,1.00,72.4,M,-33.4,M,0000,0000*66
28.36 357.85 1.63 -1.66 -0.02 -0.13 -0.15 53.83 1021.42 -0.10 14.74 $GPGGA,203610.300,3903.4327,N,07726.7610,W,2,09,0.98,72.3,M,-33.4,M,0000,0000*60
28.46 357.84 1.70 -1.67 -0.02 -0.14 -0.15 53.83 1021.42 -0.09 14.71 $GPGGA,203610.400,3903.4327,N,07726.7610,W,2,09,0.98,72.3,M,-33.4,M,0000,0000*67
28.57 357.84 1.71 -1.67 0.00 -0.10 -0.15 53.83 1021.42 -0.07 14.81 $GPGGA,203610.500,3903.4327,N,07726.7610,W,2,09,0.98,72.3,M,-33.4,M,0000,0000*66
28.66 357.84 1.71 -1.67 -0.02 -0.05 -0.14 53.83 1021.42 -0.07 14.77 $GPGGA,203610.600,3903.4327,N,07726.7610,W,2,09,0.98,72.3,M,-33.4,M,0000,0000*65
28.76 357.84 1.71 -1.67 -0.02 -0.13 -0.18 53.83 1021.42 0.01 14.69 $GPGGA,203610.700,3903.4327,N,07726.7610,W,2,09,0.98,72.3,M,-33.4,M,0000,0000*64
28.86 357.84 1.71 -1.67 -0.04 -0.15 -0.16 53.82 1021.41 -0.00 14.77 $GPGGA,203610.800,3903.4327,N,07726.7610,W,2,09,1.00,72.3,M,-33.4,M,0000,0000*6B
28.96 357.84 1.71 -1.67 -0.03 -0.11 -0.15 53.82 1021.41 0.14 14.70 $GPGGA,203610.900,3903.4327,N,07726.7610,W,2,09,1.00,72.3,M,-33.4,M,0000,0000*6A
29.06 357.84 1.72 -1.68 -0.02 -0.12 -0.17 53.82 1021.39 0.12 14.66 $GPGGA,203611.000,3903.4327,N,07726.7611,W,2,09,1.00,72.3,M,-33.4,M,0000,0000*63
29.16 357.84 1.72 -1.68 0.00 -0.11 -0.12 53.82 1021.39 0.14 14.71 $GPGGA,203611.100,3903.4327,N,07726.7611,W,2,09,1.00,72.3,M,-33.4,M,0000,0000*62
29.26 357.84 1.72 -1.67 0.00 -0.11 -0.15 53.82 1021.39 0.20 14.74 $GPGGA,203611.200,3903.4327,N,07726.7611,W,2,09,1.00,72.3,M,-33.4,M,0000,0000*61
29.36 357.84 1.72 -1.67 -0.05 -0.16 -0.14 53.82 1021.38 0.21 14.80 $GPGGA,203611.300,3903.4327,N,07726.7611,W,2,09,1.00,72.3,M,-33.4,M,0000,0000*60
29.46 357.84 1.70 -1.67 -0.04 -0.17 -0.13 53.82 1021.38 0.16 14.73 $GPGGA,203611.400,3903.4327,N,07726.7611,W,2,09,1.00,72.3,M,-33.4,M,0000,0000*67
29.56 357.85 1.65 -1.66 -0.01 -0.13 -0.14 53.82 1021.39 0.08 14.73 $GPGGA,203611.500,3903.4327,N,07726.7611,W,2,09,1.00,72.3,M,-33.4,M,0000,0000*66
29.66 357.85 1.64 -1.66 -0.02 -0.09 -0.15 53.82 1021.40 0.10 14.77 $GPGGA,203611.600,3903.4327,N,07726.7611,W,2,09,1.00,72.3,M,-33.4,M,0000,0000*65
29.76 357.85 1.62 -1.66 -0.01 -0.11 -0.13 53.82 1021.40 0.10 14.76 $GPGGA,203611.700,3903.4327,N,07726.7612,W,2,09,1.00,72.3,M,-33.4,M,0000,0000*67
29.86 357.85 1.60 -1.66 -0.02 -0.09 -0.13 53.82 1021.40 0.08 14.76 $GPGGA,203611.800,3903.4327,N,07726.7612,W,2,09,1.00,72.3,M,-33.4,M,0000,0000*68
29.96 357.86 1.56 -1.64 -0.02 -0.10 -0.13 53.83 1021.40 0.15 14.77 $GPGGA,203611.900,3903.4327,N,07726.7612,W,2,09,1.00,72.3,M,-33.4,M,0000,0000*69
30.06 357.86 1.53 -1.63 -0.02 -0.10 -0.15 53.83 1021.39 0.21 14.76 $GPGGA,203612.000,3903.4327,N,07726.7612,W,2,09,1.00,72.3,M,-33.4,M,0000,0000*63
30.16 357.86 1.49 -1.62 -0.02 -0.11 -0.15 53.83 1021.38 0.16 14.74 $GPGGA,203612.100,3903.4327,N,07726.7612,W,2,09,1.00,72.3,M,-33.4,M,0000,0000*62
30.26 357.86 1.47 -1.62 0.00 -0.08 -0.15 53.83 1021.39 0.16 14.75 $GPGGA,203612.200,3903.4327,N,07726.7612,W,2,09,1.00,72.3,M,-33.4,M,0000,0000*61
30.36 357.86 1.45 -1.62 -0.01 -0.07 -0.13 53.83 1021.39 0.20 14.70 $GPGGA,203612.300,3903.4327,N,07726.7612,W,2,09,0.98,72.3,M,-33.4,M,0000,0000*60
30.46 357.86 1.44 -1.60 0.00 -0.06 -0.15 53.83 1021.39 0.15 14.75 $GPGGA,203612.400,3903.4327,N,07726.7612,W,2,09,1.00,72.3,M,-33.4,M,0000,0000*67
30.56 357.86 1.44 -1.60 0.00 -0.09 -0.13 53.83 1021.39 0.13 14.80 $GPGGA,203612.500,3903.4327,N,07726.7613,W,2,09,1.00,72.3,M,-33.4,M,0000,0000*67
30.66 357.86 1.44 -1.60 -0.02 -0.10 -0.13 53.83 1021.39 0.05 14.72 $GPGGA,203612.600,3903.4327,N,07726.7613,W,2,09,1.00,72.3,M,-33.4,M,0000,0000*64
30.76 357.86 1.44 -1.60 -0.02 -0.10 -0.13 53.83 1021.40 0.09 14.78 $GPGGA,203612.700,3903.4327,N,07726.7613,W,2,09,1.00,72.3,M,-33.4,M,0000,0000*65
30.86 357.86 1.44 -1.60 -0.01 -0.05 -0.14 53.83 1021.40 0.09 14.80 $GPGGA,203612.800,3903.4327,N,07726.7613,W,2,09,1.00,72.3,M,-33.4,M,0000,0000*6A
30.96 357.86 1.44 -1.60 0.01 -0.05 -0.17 53.83 1021.40 0.09 14.74 $GPGGA,203612.900,3903.4327,N,07726.7613,W,2,09,1.00,72.3,M,-33.4,M,0000,0000*6B
31.06 357.86 1.43 -1.59 0.00 -0.06 -0.14 53.83 1021.40 0.06 14.75 $GPGGA,203613.000,3903.4327,N,07726.7613,W,2,09,1.00,72.3,M,-33.4,M,0000,0000*63
31.16 357.87 1.35 -1.59 0.00 -0.05 -0.13 53.84 1021.40 0.07 14.76 $GPGGA,203613.100,3903.4327,N,07726.7613,W,2,09,1.00,72.3,M,-33.4,M,0000,0000*62
31.26 357.87 1.33 -1.59 -0.01 -0.09 -0.14 53.84 1021.40 0.03 14.76 $GPGGA,203613.200,3903.4327,N,07726.7613,W,2,09,1.00,72.3,M,-33.4,M,0000,0000*61
31.36 357.87 1.33 -1.59 -0.02 -0.08 -0.14 53.84 1021.41 0.04 14.73 $GPGGA,203613.300,3903.4327,N,07726.7613,W,2,09,1.00,72.3,M,-33.4,M,0000,0000*60
31.46 357.87 1.33 -1.59 -0.01 -0.05 -0.15 53.84 1021.40 0.00 14.73 $GPGGA,203613.400,3903.4327,N,07726.7614,W,2,09,1.00,72.3,M,-33.4,M,0000,0000*60
31.56 357.87 1.33 -1.59 0.00 -0.03 -0.14 53.85 1021.41 -0.01 14.77 $GPGGA,203613.500,3903.4327,N,07726.7614,W,2,09,1.00,72.3,M,-33.4,M,0000,0000*61
31.66 357.87 1.33 -1.58 0.00 -0.03 -0.14 53.85 1021.41 -0.09 14.76 $GPGGA,203613.600,3903.4327,N,07726.7614,W,2,09,1.00,72.3,M,-33.4,M,0000,0000*62
31.76 357.89 1.24 -1.55 0.00 -0.05 -0.13 53.85 1021.42 -0.11 14.76 $GPGGA,203613.700,3903.4327,N,07726.7614,W,2,09,1.00,72.3,M,-33.4,M,0000,0000*63
31.86 357.90 1.16 -1.53 -0.02 -0.06 -0.16 53.85 1021.42 -0.09 14.78 $GPGGA,203613.800,3903.4327,N,07726.7614,W,2,09,1.00,72.3,M,-33.4,M,0000,0000*6C
31.96 357.90 1.16 -1.53 -0.01 -0.08 -0.15 53.85 1021.42 -0.08 14.73 $GPGGA,203613.900,3903.4327,N,07726.7614,W,2,09,1.00,72.3,M,-33.4,M,0000,0000*6D
32.06 357.90 1.16 -1.53 0.00 -0.06 -0.17 53.85 1021.42 -0.11 14.74 $GPGGA,203614.000,3903.4327,N,07726.7614,W,2,09,1.00,72.3,M,-33.4,M,0000,0000*63
32.16 357.90 1.18 -1.53 0.00 -0.01 -0.14 53.85 1021.42 -0.10 14.77 $GPGGA,203614.100,3903.4327,N,07726.7614,W,2,09,1.00,72.3,M,-33.4,M,0000,0000*62
32.26 357.90 1.18 -1.53 0.01 0.00 -0.13 53.85 1021.42 -0.20 14.76 $GPGGA,203614.200,3903.4327,N,07726.7615,W,2,09,1.00,72.3,M,-33.4,M,0000,0000*60
32.37 357.90 1.15 -1.52 0.00 -0.03 -0.15 53.85 1021.43 -0.22 14.73 $GPGGA,203614.300,3903.4327,N,07726.7615,W,2,09,0.98,72.3,M,-33.4,M,0000,0000*61
32.47 357.90 1.15 -1.51 -0.01 -0.07 -0.12 53.84 1021.44 -0.15 14.81 $GPGGA,203614.400,3903.4327,N,07726.7615,W,2,09,1.00,72.3,M,-33.4,M,0000,0000*66
32.57 357.90 1.15 -1.51 -0.02 -0.07 -0.13 53.84 1021.43 -0.10 14.76 $GPGGA,203614.500,3903.4327,N,07726.7615,W,2,09,1.00,72.3,M,-33.4,M,0000,0000*67
32.67 357.90 1.15 -1.51 0.00 -0.04 -0.13 53.84 1021.42 -0.06 14.76 $GPGGA,203614.600,3903.4327,N,07726.7615,W,2,09,1.00,72.3,M,-33.4,M,0000,0000*64
32.77 357.90 1.15 -1.51 0.01 -0.01 -0.13 53.84 1021.42 -0.06 14.70 $GPGGA,203614.700,3903.4327,N,07726.7615,W,2,09,1.00,72.3,M,-33.4,M,0000,0000*65
32.87 357.90 1.15 -1.51 0.00 0.00 -0.12 53.84 1021.42 -0.04 14.72 $GPGGA,203614.800,3903.4327,N,07726.7615,W,2,09,1.00,72.3,M,-33.4,M,0000,0000*6A
32.97 357.90 1.14 -1.50 0.00 -0.04 -0.13 53.84 1021.41 -0.02 14.77 $GPGGA,203614.900,3903.4327,N,07726.7615,W,2,09,1.00,72.3,M,-33.4,M,0000,0000*6B
33.07 357.90 1.11 -1.50 0.00 -0.04 -0.13 53.84 1021.41 -0.01 14.69 $GPGGA,203615.000,3903.4327,N,07726.7616,W,2,09,1.00,72.3,M,-33.4,M,0000,0000*60
33.17 357.90 1.11 -1.50 0.01 -0.05 -0.14 53.84 1021.41 -0.00 14.74 $GPGGA,203615.100,3903.4328,N,07726.7616,W,2,09,1.00,72.3,M,-33.4,M,0000,0000*6E
33.27 357.90 1.11 -1.50 -0.01 -0.02 -0.15 53.85 1021.41 -0.12 14.70 $GPGGA,203615.200,3903.4328,N,07726.7616,W,2,09,1.00,72.3,M,-33.4,M,0000,0000*6D
33.37 357.90 1.11 -1.50 0.02 -0.01 -0.12 53.85 1021.42 -0.01 14.77 $GPGGA,203615.300,3903.4328,N,07726.7616,W,2,09,1.00,72.3,M,-33.4,M,0000,0000*6C
33.47 357.90 1.12 -1.50 0.00 -0.03 -0.13 53.85 1021.41 -0.06 14.76 $GPGGA,203615.400,3903.4328,N,07726.7617,W,2,09,1.00,72.3,M,-33.4,M,0000,0000*6A
33.57 357.90 1.12 -1.50 0.01 -0.01 -0.13 53.85 1021.42 -0.09 14.76 $GPGGA,203615.500,3903.4328,N,07726.7617,W,2,09,1.00,72.3,M,-33.4,M,0000,0000*6B
33.67 357.90 1.12 -1.50 0.02 0.00 -0.13 53.86 1021.42 -0.10 14.70 $GPGGA,203615.600,3903.4328,N,07726.7617,W,2,09,1.00,72.3,M,-33.4,M,0000,0000*68
33.77 357.90 1.12 -1.50 0.01 -0.02 -0.13 53.86 1021.42 -0.04 14.78 $GPGGA,203615.700,3903.4328,N,07726.7617,W,2,09,1.00,72.3,M,-33.4,M,0000,0000*69
33.87 357.90 1.11 -1.50 0.00 -0.03 -0.14 53.86 1021.41 0.01 14.72 $GPGGA,203615.800,3903.4328,N,07726.7617,W,2,09,1.00,72.3,M,-33.4,M,0000,0000*66
33.97 357.90 1.11 -1.50 0.00 -0.03 -0.16 53.86 1021.41 0.01 14.81 $GPGGA,203615.900,3903.4328,N,07726.7617,W,2,09,1.00,72.3,M,-33.4,M,0000,0000*67
34.07 357.90 1.11 -1.50 -0.01 -0.06 -0.16 53.86 1021.41 -0.06 14.80 $GPGGA,203616.000,3903.4328,N,07726.7617,W,2,09,1.00,72.3,M,-33.4,M,0000,0000*6D
34.17 357.90 1.11 -1.50 -0.01 -0.04 -0.14 53.86 1021.42 -0.05 14.77 $GPGGA,203616.100,3903.4328,N,07726.7618,W,2,09,1.00,72.3,M,-33.4,M,0000,0000*63
34.27 357.90 1.11 -1.51 0.03 -0.01 -0.14 53.86 1021.41 0.00 14.78 $GPGGA,203616.200,3903.4328,N,07726.7618,W,2,09,1.00,72.3,M,-33.4,M,0000,0000*60
34.37 357.90 1.13 -1.51 0.02 0.00 -0.14 53.87 1021.41 -0.02 14.77 $GPGGA,203616.300,3903.4328,N,07726.7618,W,2,09,1.00,72.3,M,-33.4,M,0000,0000*61
34.47 357.91 1.11 -1.51 0.01 0.00 -0.13 53.87 1021.41 0.00 14.81 $GPGGA,203616.400,3903.4328,N,07726.7618,W,2,09,1.00,72.3,M,-33.4,M,0000,0000*66
34.57 357.91 1.07 -1.51 0.00 -0.01 -0.14 53.87 1021.41 0.06 14.77 $GPGGA,203616.500,3903.4328,N,07726.7618,W,2,09,1.00,72.3,M,-33.4,M,0000,0000*67
34.67 357.91 1.07 -1.51 0.00 -0.06 -0.15 53.87 1021.40 0.05 14.76 $GPGGA,203616.600,3903.4328,N,07726.7618,W,2,09,1.00,72.3,M,-33.4,M,0000,0000*64
34.77 357.91 1.07 -1.51 0.01 -0.01 -0.13 53.87 1021.40 -0.05 14.86 $GPGGA,203616.700,3903.4328,N,07726.7618,W,2,09,1.00,72.3,M,-33.4,M,0000,0000*65
34.87 357.91 1.07 -1.51 0.01 0.00 -0.15 53.87 1021.42 -0.08 14.73 $GPGGA,203616.800,3903.4327,N,07726.7618,W,2,09,1.00,72.3,M,-33.4,M,0000,0000*65
34.97 357.91 1.07 -1.51 0.00 0.01 -0.14 53.88 1021.42 -0.14 14.80 $GPGGA,203616.900,3903.4327,N,07726.7619,W,2,09,1.00,72.3,M,-33.4,M,0000,0000*65
35.07 357.91 1.04 -1.51 0.00 -0.01 -0.15 53.88 1021.43 -0.07 14.73 $GPGGA,203617.000,3903.4327,N,07726.7619,W,2,09,1.00,72.3,M,-33.4,M,0000,0000*6D
35.17 357.91 1.01 -1.52 0.00 -0.02 -0.13 53.88 1021.42 -0.08 14.75 $GPGGA,203617.100,3903.4327,N,07726.7619,W,2,09,1.00,72.3,M,-33.4,M,0000,0000*6C
35.27 357.91 1.01 -1.52 0.00 -0.02 -0.14 53.88 1021.42 -0.08 14.74 $GPGGA,203617.200,3903.4327,N,07726.7619,W,2,09,1.00,72.3,M,-33.4,M,0000,0000*6F
35.37 357.91 1.01 -1.52 -0.01 -0.02 -0.14 53.88 1021.42 -0.18 14.73 $GPGGA,203617.300,3903.4327,N,07726.7619,W,2,09,1.00,72.3,M,-33.4,M,0000,0000*6E
35.47 357.91 1.01 -1.52 0.00 0.00 -0.13 53.88 1021.43 -0.12 14.78 $GPGGA,203617.400,3903.4327,N,07726.7619,W,2,09,1.00,72.3,M,-33.4,M,0000,0000*69
35.57 357.91 1.01 -1.52 0.00 0.00 -0.11 53.88 1021.42 -0.09 14.78 $GPGGA,203617.500,3903.4327,N,07726.7619,W,2,09,1.00,72.3,M,-33.4,M,0000,0000*68
35.67 357.91 1.01 -1.52 0.00 0.01 -0.12 53.88 1021.42 -0.13 14.73 $GPGGA,203617.600,3903.4327,N,07726.7619,W,2,09,1.00,72.3,M,-33.4,M,0000,0000*6B
35.77 357.91 0.99 -1.52 0.00 -0.01 -0.15 53.88 1021.42 -0.18 14.75 $GPGGA,203617.700,3903.4327,N,07726.7620,W,2,09,1.00,72.3,M,-33.4,M,0000,0000*60
35.87 357.91 0.98 -1.52 -0.01 -0.02 -0.14 53.88 1021.43 -0.08 14.73 $GPGGA,203617.800,3903.4327,N,07726.7620,W,2,09,1.00,72.3,M,-33.4,M,0000,0000*6F
35.97 357.91 0.98 -1.52 0.00 -0.03 -0.14 53.88 1021.42 -0.10 14.74 $GPGGA,203617.900,3903.4327,N,07726.7620,W,2,09,1.00,72.3,M,-33.4,M,0000,0000*6E
36.07 357.91 0.98 -1.52 0.00 0.00 -0.15 53.88 1021.42 -0.16 14.73 $GPGGA,203618.000,3903.4327,N,07726.7620,W,2,09,1.00,72.3,M,-33.4,M,0000,0000*68
36.17 357.91 0.98 -1.52 0.02 0.00 -0.12 53.88 1021.43 -0.12 14.79 $GPGGA,203618.100,3903.4327,N,07726.7620,W,2,09,1.00,72.3,M,-33.4,M,0000,0000*69
36.27 357.91 0.98 -1.52 0.00 0.00 -0.12 53.88 1021.42 -0.14 14.72 $GPGGA,203618.200,3903.4327,N,07726.7620,W,2,09,1.00,72.3,M,-33.4,M,0000,0000*6A
36.37 357.91 0.96 -1.50 -0.01 -0.01 -0.12 53.88 1021.43 -0.15 14.75 $GPGGA,203618.300,3903.4327,N,07726.7620,W,2,09,0.98,72.3,M,-33.4,M,0000,0000*6B
36.47 357.91 0.95 -1.50 -0.01 -0.01 -0.13 53.88 1021.43 -0.09 14.71 $GPGGA,203618.400,3903.4327,N,07726.7620,W,2,09,1.00,72.3,M,-33.4,M,0000,0000*6C
36.57 357.91 0.95 -1.50 0.00 -0.01 -0.15 53.89 1021.42 -0.13 14.70 $GPGGA,203618.500,3903.4327,N,07726.7620,W,2,09,1.00,72.3,M,-33.4,M,0000,0000*6D
36.67 357.91 0.95 -1.50 0.01 0.00 -0.14 53.89 1021.43 -0.07 14.72 $GPGGA,203618.600,3903.4327,N,07726.7620,W,2,09,1.00,72.3,M,-33.4,M,0000,0000*6E
36.77 357.91 0.95 -1.50 0.00 0.01 -0.13 53.89 1021.42 -0.04 14.74 $GPGGA,203618.700,3903.4327,N,07726.7620,W,2,09,1.00,72.3,M,-33.4,M,0000,0000*6F
36.87 357.91 0.95 -1.50 0.01 0.00 -0.11 53.89 1021.41 -0.10 14.75 $GPGGA,203618.800,3903.4327,N,07726.7620,W,2,09,1.00,72.3,M,-33.4,M,0000,0000*60
36.97 357.91 0.95 -1.50 -0.01 0.00 -0.11 53.89 1021.42 0.00 14.71 $GPGGA,203618.900,3903.4327,N,07726.7620,W,2,09,1.00,72.3,M,-33.4,M,0000,0000*61
37.07 357.91 0.95 -1.50 0.01 -0.01 -0.13 53.89 1021.41 -0.01 14.73 $GPGGA,203619.000,3903.4327,N,07726.7620,W,2,09,1.00,72.3,M,-33.4,M,0000,0000*69
37.17 357.91 0.95 -1.50 0.01 -0.01 -0.13 53.89 1021.41 -0.05 14.77 $GPGGA,203619.100,3903.4327,N,07726.7620,W,2,09,1.00,72.3,M,-33.4,M,0000,0000*68
37.27 357.91 0.95 -1.50 0.00 0.00 -0.13 53.89 1021.42 -0.08 14.74 $GPGGA,203619.200,3903.4327,N,07726.7620,W,2,09,1.00,72.3,M,-33.4,M,0000,0000*6B
37.37 357.91 0.95 -1.50 0.00 0.01 -0.12 53.89 1021.42 -0.11 14.78 $GPGGA,203619.300,3903.4327,N,07726.7620,W,2,09,0.98,72.3,M,-33.4,M,0000,0000*6A
37.47 357.91 0.95 -1.50 0.00 0.00 -0.13 53.89 1021.42 -0.11 14.78 $GPGGA,203619.400,3903.4327,N,07726.7621,W,2,09,1.00,72.3,M,-33.4,M,0000,0000*6C
37.57 357.91 0.96 -1.50 0.00 0.00 -0.12 53.90 1021.42 -0.13 14.74 $GPGGA,203619.500,3903.4327,N,07726.7621,W,2,09,1.00,72.3,M,-33.4,M,0000,0000*6D
37.67 357.91 0.96 -1.50 0.00 0.00 -0.13 53.90 1021.42 -0.17 14.73 $GPGGA,203619.600,3903.4327,N,07726.7621,W,2,09,1.00,72.3,M,-33.4,M,0000,0000*6E
37.77 357.91 0.96 -1.50 0.00 0.00 -0.12 53.90 1021.43 -0.13 14.73 $GPGGA,203619.700,3903.4327,N,07726.7621,W,2,09,1.00,72.3,M,-33.4,M,0000,0000*6F
37.87 357.91 0.96 -1.50 0.00 0.02 -0.12 53.90 1021.43 -0.11 14.82 $GPGGA,203619.800,3903.4327,N,07726.7621,W,2,09,1.00,72.3,M,-33.4,M,0000,0000*60
37.97 357.91 0.96 -1.50 0.01 0.01 -0.16 53.90 1021.42 -0.09 14.77 $GPGGA,203619.900,3903.4327,N,07726.7621,W,2,09,1.00,72.3,M,-33.4,M,0000,0000*61
38.07 357.91 0.96 -1.50 0.01 0.01 -0.15 53.90 1021.42 -0.03 14.73 $GPGGA,203620.000,3903.4327,N,07726.7621,W,2,09,1.00,72.3,M,-33.4,M,0000,0000*62
38.17 357.91 0.96 -1.50 0.02 -0.01 -0.11 53.90 1021.41 0.00 14.74 $GPGGA,203620.100,3903.4327,N,07726.7621,W,2,09,1.00,72.3,M,-33.4,M,0000,0000*63
38.27 357.91 0.96 -1.50 0.00 -0.03 -0.13 53.90 1021.41 0.01 14.75 $GPGGA,203620.200,3903.4327,N,07726.7621,W,2,09,1.00,72.3,M,-33.4,M,0000,0000*60
38.37 357.91 0.96 -1.50 0.00 0.00 -0.13 53.90 1021.41 0.01 14.76 $GPGGA,203620.300,3903.4327,N,07726.7621,W,2,09,0.98,72.3,M,-33.4,M,0000,0000*61
38.47 357.91 0.97 -1.50 0.01 -0.02 -0.12 53.90 1021.41 -0.04 14.77 $GPGGA,203620.400,3903.4327,N,07726.7621,W,2,09,1.00,72.3,M,-33.4,M,0000,0000*66
38.57 357.91 0.97 -1.50 0.00 -0.02 -0.12 53.91 1021.41 -0.11 14.80 $GPGGA,203620.500,3903.4327,N,07726.7621,W,2,09,1.00,72.3,M,-33.4,M,0000,0000*67
38.67 357.91 0.97 -1.50 0.01 0.02 -0.13 53.91 1021.42 -0.14 14.72 $GPGGA,203620.600,3903.4327,N,07726.7621,W,2,09,1.00,72.3,M,-33.4,M,0000,0000*64
38.77 357.91 0.97 -1.50 0.00 -0.01 -0.11 53.91 1021.43 -0.20 14.75 $GPGGA,203620.700,3903.4327,N,07726.7621,W,2,09,1.00,72.3,M,-33.4,M,0000,0000*65
38.87 357.91 0.97 -1.50 0.00 -0.01 -0.14 53.91 1021.43 -0.13 14.74 $GPGGA,203620.800,3903.4327,N,07726.7621,W,2,09,1.00,72.3,M,-33.4,M,0000,0000*6A
38.97 357.91 0.97 -1.50 0.00 0.01 -0.14 53.91 1021.43 -0.15 14.73 $GPGGA,203620.900,3903.4327,N,07726.7621,W,2,09,1.00,72.3,M,-33.4,M,0000,0000*6B
39.07 357.91 0.97 -1.50 0.00 0.00 -0.12 53.91 1021.43 -0.12 14.75 $GPGGA,203621.000,3903.4327,N,07726.7621,W,2,09,1.00,72.3,M,-33.4,M,0000,0000*63
39.17 357.91 0.97 -1.50 -0.02 -0.02 -0.14 53.91 1021.42 -0.19 14.76 $GPGGA,203621.100,3903.4327,N,07726.7621,W,2,09,1.00,72.3,M,-33.4,M,0000,0000*62
39.27 357.91 0.97 -1.50 0.01 0.00 -0.13 53.92 1021.43 -0.15 14.77 $GPGGA,203621.200,3903.4327,N,07726.7621,W,2,09,1.00,72.3,M,-33.4,M,0000,0000*61
39.37 357.91 0.97 -1.50 0.01 0.00 -0.13 53.92 1021.43 -0.20 14.73 $GPGGA,203621.300,3903.4327,N,07726.7621,W,2,09,0.98,72.3,M,-33.4,M,0000,0000*60
39.47 357.91 0.97 -1.50 0.00 -0.01 -0.12 53.92 1021.43 -0.07 14.74 $GPGGA,203621.400,3903.4327,N,07726.7621,W,2,09,1.00,72.3,M,-33.4,M,0000,0000*67
39.57 357.91 0.97 -1.50 -0.01 -0.02 -0.13 53.92 1021.42 -0.05 14.70 $GPGGA,203621.500,3903.4327,N,07726.7621,W,2,09,1.00,72.3,M,-33.4,M,0000,0000*66
39.67 357.91 0.97 -1.50 0.00 0.00 -0.12 53.92 1021.42 -0.06 14.75 $GPGGA,203621.600,3903.4327,N,07726.7621,W,2,09,1.00,72.3,M,-33.4,M,0000,0000*65
39.77 357.91 0.97 -1.50 0.01 0.00 -0.14 53.92 1021.42 -0.05 14.81 $GPGGA,203621.700,3903.4327,N,07726.7621,W,2,09,1.00,72.3,M,-33.4,M,0000,0000*64
39.87 357.91 0.97 -1.50 0.00 -0.03 -0.12 53.92 1021.42 -0.15 14.76 $GPGGA,203621.800,3903.4327,N,07726.7621,W,2,09,1.00,72.3,M,-33.4,M,0000,0000*6B
39.97 357.91 0.97 -1.50 0.01 0.01 -0.10 53.92 1021.43 -0.05 14.78 $GPGGA,203621.900,3903.4327,N,07726.7621,W,2,09,1.00,72.3,M,-33.4,M,0000,0000*6A
40.07 357.91 0.97 -1.50 0.01 0.00 -0.13 53.92 1021.42 -0.03 14.76 $GPGGA,203622.000,3903.4327,N,07726.7621,W,2,09,1.00,72.3,M,-33.4,M,0000,0000*60
40.17 357.91 0.97 -1.50 0.00 -0.02 -0.13 53.92 1021.41 -0.06 14.80 $GPGGA,203622.100,3903.4327,N,07726.7621,W,2,09,1.00,72.3,M,-33.4,M,0000,0000*61
40.27 357.91 0.97 -1.50 0.00 0.00 -0.13 53.92 1021.42 -0.03 14.78 $GPGGA,203622.200,3903.4327,N,07726.7621,W,2,09,1.00,72.3,M,-33.4,M,0000,0000*62
40.37 357.91 0.97 -1.50 0.00 -0.01 -0.12 53.92 1021.41 -0.10 14.73 $GPGGA,203622.300,3903.4327,N,07726.7621,W,2,09,0.98,72.3,M,-33.4,M,0000,0000*63
40.47 357.91 0.97 -1.50 0.00 0.00 -0.13 53.92 1021.42 0.01 14.80 $GPGGA,203622.400,3903.4327,N,07726.7621,W,2,09,1.00,72.3,M,-33.4,M,0000,0000*64
40.57 357.91 0.97 -1.50 -0.01 0.00 -0.11 53.92 1021.41 -0.09 14.78 $GPGGA,203622.500,3903.4327,N,07726.7621,W,2,09,1.00,72.3,M,-33.4,M,0000,0000*65
40.67 357.91 0.97 -1.50 0.00 0.00 -0.09 53.92 1021.42 -0.04 14.73 $GPGGA,203622.600,3903.4327,N,07726.7621,W,2,09,1.00,72.3,M,-33.4,M,0000,0000*66
40.77 357.91 0.97 -1.50 0.00 -0.02 -0.12 53.92 1021.41 -0.07 14.77 $GPGGA,203622.700,3903.4327,N,07726.7621,W,2,09,1.00,72.3,M,-33.4,M,0000,0000*67
40.87 357.91 0.97 -1.50 0.01 -0.03 -0.11 53.92 1021.42 -0.05 14.78 $GPGGA,203622.800,3903.4327,N,07726.7621,W,2,09,1.00,72.3,M,-33.4,M,0000,0000*68
40.97 357.91 0.97 -1.50 0.00 -0.01 -0.14 53.93 1021.42 0.00 14.72 $GPGGA,203622.900,3903.4327,N,07726.7621,W,2,09,1.00,72.3,M,-33.4,M,0000,0000*69
41.07 357.91 0.97 -1.50 0.02 0.00 -0.12 53.93 1021.41 -0.02 14.75 $GPGGA,203623.000,3903.4327,N,07726.7621,W,2,09,1.00,72.3,M,-33.4,M,0000,0000*61
41.17 357.91 0.97 -1.50 0.00 0.00 -0.12 53.93 1021.41 0.06 14.70 $GPGGA,203623.100,3903.4327,N,07726.7621,W,2,09,1.00,72.3,M,-33.4,M,0000,0000*60
41.27 357.91 0.97 -1.50 -0.01 0.02 -0.11 53.93 1021.40 -0.02 14.74 $GPGGA,203623.200,3903.4327,N,07726.7621,W,2,09,1.00,72.3,M,-33.4,M,0000,0000*63
41.37 357.91 0.97 -1.50 0.00 0.00 -0.13 53.93 1021.41 0.05 14.74 $GPGGA,203623.300,3903.4327,N,07726.7621,W,2,09,0.98,72.3,M,-33.4,M,0000,0000*62
41.47 357.91 0.97 -1.50 0.00 -0.02 -0.15 53.93 1021.40 -0.03 14.80 $GPGGA,203623.400,3903.4327,N,07726.7621,W,2,09,1.00,72.3,M,-33.4,M,0000,0000*65
41.57 357.91 0.97 -1.50 0.00 0.00 -0.11 53.93 1021.41 -0.05 14.72 $GPGGA,203623.500,3903.4327,N,07726.7621,W,2,09,1.00,72.3,M,-33.4,M,0000,0000*64
41.67 357.91 0.97 -1.50 0.02 0.00 -0.11 53.93 1021.42 -0.04 14.73 $GPGGA,203623.600,3903.4327,N,07726.7621,W,2,09,1.00,72.3,M,-33.4,M,0000,0000*67
41.77 357.91 0.97 -1.50 0.01 0.00 -0.15 53.93 1021.41 0.00 14.73 $GPGGA,203623.700,3903.4327,N,07726.7621,W,2,09,1.00,72.3,M,-33.4,M,0000,0000*66
41.87 357.91 0.97 -1.50 0.00 0.01 -0.12 53.93 1021.41 0.03 14.67 $GPGGA,203623.800,3903.4327,N,07726.7621,W,2,09,1.00,72.3,M,-33.4,M,0000,0000*69
41.97 357.91 0.97 -1.50 0.02 0.00 -0.12 53.94 1021.41 0.03 14.74 $GPGGA,203623.900,3903.4327,N,07726.7621,W,2,09,1.00,72.3,M,-33.4,M,0000,0000*68
42.07 357.91 0.97 -1.50 0.00 -0.01 -0.12 53.94 1021.41 -0.10 14.82 $GPGGA,203624.000,3903.4327,N,07726.7621,W,2,09,1.00,72.3,M,-33.4,M,0000,0000*66
42.17 357.91 0.97 -1.50 0.00 -0.02 -0.14 53.94 1021.42 -0.01 14.73 $GPGGA,203624.100,3903.4327,N,07726.7621,W,2,09,1.00,72.3,M,-33.4,M,0000,0000*67
42.27 357.91 0.97 -1.50 -0.01 0.00 -0.13 53.94 1021.41 -0.07 14.74 $GPGGA,203624.200,3903.4327,N,07726.7621,W,2,09,1.00,72.3,M,-33.4,M,0000,0000*64
42.37 357.91 0.98 -1.51 0.00 0.00 -0.13 53.94 1021.42 -0.17 14.75 $GPGGA,203624.300,3903.4327,N,07726.7621,W,2,09,0.98,72.3,M,-33.4,M,0000,0000*65
42.47 357.91 0.99 -1.51 0.00 0.00 -0.12 53.94 1021.43 -0.07 14.77 $GPGGA,203624.400,3903.4327,N,07726.7621,W,2,09,1.00,72.3,M,-33.4,M,0000,0000*62
42.57 357.91 0.99 -1.51 0.00 0.00 -0.14 53.94 1021.42 -0.17 14.73 $GPGGA,203624.500,3903.4327,N,07726.7621,W,2,09,1.00,72.3,M,-33.4,M,0000,0000*63
42.67 357.91 0.98 -1.51 0.02 0.00 -0.15 53.94 1021.43 -0.08 14.68 $GPGGA,203624.600,3903.4327,N,07726.7621,W,2,09,1.00,72.3,M,-33.4,M,0000,0000*60
42.77 357.91 0.97 -1.51 -0.01 0.00 -0.14 53.94 1021.42 -0.01 14.75 $GPGGA,203624.700,3903.4327,N,07726.7621,W,2,09,1.00,72.3,M,-33.4,M,0000,0000*61
42.87 357.91 0.97 -1.51 0.00 -0.04 -0.14 53.95 1021.41 -0.03 14.75 $GPGGA,203624.800,3903.4327,N,07726.7621,W,2,09,1.00,72.3,M,-33.4,M,0000,0000*6E
42.97 357.91 0.97 -1.51 0.00 -0.03 -0.16 53.95 1021.41 -0.03 14.74 $GPGGA,203624.900,3903.4327,N,07726.7621,W,2,09,1.00,72.3,M,-33.4,M,0000,0000*6F
43.07 357.91 0.98 -1.51 0.01 0.00 -0.12 53.95 1021.41 0.04 14.75 $GPGGA,203625.000,3903.4327,N,07726.7621,W,2,09,1.00,72.3,M,-33.4,M,0000,0000*67
43.17 357.91 0.99 -1.51 0.01 0.00 -0.12 53.95 1021.40 -0.04 14.74 $GPGGA,203625.100,3903.4327,N,07726.7621,W,2,09,1.00,72.3,M,-33.4,M,0000,0000*66
43.27 357.92 0.99 -1.51 0.00 -0.01 -0.15 53.95 1021.41 0.04 14.77 $GPGGA,203625.200,3903.4327,N,07726.7621,W,2,09,1.00,72.3,M,-33.4,M,0000,0000*65
43.37 357.92 0.99 -1.51 0.00 -0.03 -0.11 53.96 1021.40 0.03 14.74 $GPGGA,203625.300,3903.4327,N,07726.7621,W,2,09,0.98,72.3,M,-33.4,M,0000,0000*64
43.47 357.92 0.99 -1.51 0.01 0.00 -0.10 53.96 1021.41 -0.05 14.75 $GPGGA,203625.400,3903.4327,N,07726.7621,W,2,09,1.00,72.3,M,-33.4,M,0000,0000*63
43.57 357.92 0.99 -1.51 0.00 0.01 -0.15 53.96 1021.42 0.04 14.76 $GPGGA,203625.500,3903.4327,N,07726.7621,W,2,09,1.00,72.3,M,-33.4,M,0000,0000*62
43.67 357.92 0.98 -1.51 0.00 0.00 -0.13 53.96 1021.40 -0.05 14.71 $GPGGA,203625.600,3903.4327,N,07726.7621,W,2,09,1.00,72.3,M,-33.4,M,0000,0000*61
43.77 357.92 0.98 -1.51 0.00 -0.03 -0.14 53.97 1021.42 -0.06 14.74 $GPGGA,203625.700,3903.4327,N,07726.7621,W,2,09,1.00,72.3,M,-33.4,M,0000,0000*60
43.87 357.92 0.98 -1.51 0.00 0.00 -0.14 53.97 1021.42 -0.10 14.77 $GPGGA,203625.800,3903.4327,N,07726.7621,W,2,09,1.00,72.3,M,-33.4,M,0000,0000*6F
43.97 357.92 0.99 -1.51 0.01 -0.01 -0.15 53.97 1021.42 -0.06 14.76 $GPGGA,203625.900,3903.4327,N,07726.7621,W,2,09,1.00,72.3,M,-33.4,M,0000,0000*6E
44.07 357.92 1.07 -1.54 0.00 0.00 -0.09 53.97 1021.42 -0.03 14.80 $GPGGA,203626.000,3903.4327,N,07726.7621,W,2,09,1.00,72.3,M,-33.4,M,0000,0000*64
44.17 357.92 1.08 -1.54 0.02 0.00 -0.12 53.97 1021.41 0.07 14.80 $GPGGA,203626.100,3903.4327,N,07726.7621,W,2,09,1.00,72.3,M,-33.4,M,0000,0000*65
44.27 357.93 0.99 -1.50 0.03 0.01 -0.14 53.97 1021.40 0.01 14.83 $GPGGA,203626.200,3903.4327,N,07726.7621,W,2,09,1.00,72.3,M,-33.4,M,0000,0000*66
44.37 358.02 0.88 -1.41 0.01 0.01 -0.15 53.97 1021.41 -0.12 14.81 $GPGGA,203626.300,3903.4327,N,07726.7621,W,2,09,1.00,72.3,M,-33.4,M,0000,0000*67
44.47 358.07 0.89 -1.41 0.00 -0.10 -0.15 53.97 1021.42 -0.16 14.79 $GPGGA,203626.400,3903.4327,N,07726.7621,W,2,09,1.00,72.3,M,-33.4,M,0000,0000*60
44.57 358.07 0.89 -1.41 -0.04 -0.01 -0.14 53.97 1021.43 -0.04 14.73 $GPGGA,203626.500,3903.4327,N,07726.7621,W,2,09,1.00,72.3,M,-33.4,M,0000,0000*61
44.67 358.04 0.95 -1.44 0.03 0.03 -0.11 53.98 1021.41 0.03 14.70 $GPGGA,203626.600,3903.4327,N,07726.7621,W,2,09,1.00,72.3,M,-33.4,M,0000,0000*62
44.77 358.04 1.01 -1.45 0.04 0.01 -0.12 53.98 1021.41 0.04 14.77 $GPGGA,203626.700,3903.4327,N,07726.7621,W,2,09,1.00,72.3,M,-33.4,M,0000,0000*63
44.87 358.09 0.95 -1.43 0.02 0.04 -0.12 53.98 1021.40 0.04 14.78 $GPGGA,203626.800,3903.4327,N,07726.7621,W,2,09,1.00,72.3,M,-33.4,M,0000,0000*6C
44.97 358.18 0.87 -1.35 0.00 0.00 -0.15 53.98 1021.40 0.13 14.72 $GPGGA,203626.900,3903.4327,N,07726.7621,W,2,09,1.00,72.3,M,-33.4,M,0000,0000*6D
45.07 358.22 0.85 -1.34 -0.02 -0.03 -0.16 53.98 1021.39 0.19 14.75 $GPGGA,203627.000,3903.4327,N,07726.7621,W,2,09,1.00,72.3,M,-33.4,M,0000,0000*65
45.17 358.22 0.86 -1.34 0.02 0.01 -0.14 53.98 1021.39 0.07 14.76 $GPGGA,203627.100,3903.4327,N,07726.7621,W,2,09,1.00,72.3,M,-33.4,M,0000,0000*64
45.27 358.22 0.92 -1.34 0.05 0.06 -0.13 53.98 1021.40 0.14 14.74 $GPGGA,203627.200,3903.4327,N,07726.7621,W,2,09,1.00,72.3,M,-33.4,M,0000,0000*67
45.37 358.22 0.92 -1.34 0.08 0.06 -0.13 53.98 1021.39 0.24 14.74 $GPGGA,203627.300,3903.4327,N,07726.7621,W,2,09,0.98,72.3,M,-33.4,M,0000,0000*66
45.47 358.28 0.89 -1.32 0.04 0.02 -0.13 53.98 1021.38 0.15 14.73 $GPGGA,203627.400,3903.4327,N,07726.7621,W,2,09,1.00,72.3,M,-33.4,M,0000,0000*61
45.57 358.37 0.77 -1.24 0.00 0.00 -0.14 53.98 1021.39 0.11 14.70 $GPGGA,203627.500,3903.4327,N,07726.7621,W,2,09,1.00,72.3,M,-33.4,M,0000,0000*60
45.67 358.38 0.70 -1.22 0.01 0.00 -0.14 53.99 1021.40 0.16 14.72 $GPGGA,203627.600,3903.4327,N,07726.7621,W,2,09,1.00,72.3,M,-33.4,M,0000,0000*63
45.77 358.38 0.73 -1.23 0.03 0.01 -0.17 53.98 1021.39 0.20 14.77 $GPGGA,203627.700,3903.4327,N,07726.7621,W,2,09,1.00,72.3,M,-33.4,M,0000,0000*62
45.87 358.38 0.76 -1.23 0.01 0.04 -0.10 53.99 1021.39 0.28 14.71 $GPGGA,203627.800,3903.4327,N,07726.7621,W,2,09,1.00,72.3,M,-33.4,M,0000,0000*6D
45.97 358.38 0.72 -1.23 0.05 0.10 -0.15 53.99 1021.37 0.30 14.75 $GPGGA,203627.900,3903.4327,N,07726.7621,W,2,09,1.00,72.3,M,-33.4,M,0000,0000*6C
46.07 358.44 0.71 -1.23 0.04 0.04 -0.15 53.99 1021.37 0.30 14.74 $GPGGA,203628.000,3903.4327,N,07726.7621,W,2,09,1.00,72.3,M,-33.4,M,0000,0000*6A
46.17 358.51 0.71 -1.22 -0.02 0.00 -0.14 53.99 1021.37 0.25 14.74 $GPGGA,203628.100,3903.4327,N,07726.7621,W,2,09,1.00,72.3,M,-33.4,M,0000,0000*6B
46.27 358.52 0.63 -1.22 0.04 0.05 -0.14 53.99 1021.38 0.17 14.71 $GPGGA,203628.200,3903.4327,N,07726.7621,W,2,09,1.00,72.3,M,-33.4,M,0000,0000*68
46.37 358.52 0.61 -1.20 0.02 0.08 -0.06 53.99 1021.39 0.10 14.78 $GPGGA,203628.300,3903.4327,N,07726.7621,W,2,09,1.00,72.3,M,-33.4,M,0000,0000*69
46.47 358.51 0.70 -1.21 0.03 0.00 -0.12 53.99 1021.40 0.11 14.74 $GPGGA,203628.400,3903.4327,N,07726.7621,W,2,09,1.00,72.3,M,-33.4,M,0000,0000*6E
46.57 358.51 0.70 -1.20 0.03 0.04 -0.12 53.99 1021.40 0.02 14.82 $GPGGA,203628.500,3903.4327,N,07726.7621,W,2,09,1.00,72.3,M,-33.4,M,0000,0000*6F
46.67 358.52 0.63 -1.18 0.03 0.11 -0.12 53.99 1021.41 0.07 14.77 $GPGGA,203628.600,3903.4327,N,07726.7621,W,2,09,1.00,72.3,M,-33.4,M,0000,0000*6C
46.77 358.56 0.62 -1.18 0.06 0.03 -0.10 53.99 1021.40 0.08 14.77 $GPGGA,203628.700,3903.4327,N,07726.7621,W,2,09,1.00,72.3,M,-33.4,M,0000,0000*6D
46.87 358.58 0.63 -1.18 0.01 0.00 -0.10 53.99 1021.40 0.03 14.74 $GPGGA,203628.800,3903.4327,N,07726.7621,W,2,09,1.00,72.3,M,-33.4,M,0000,0000*62
46.97 358.58 0.63 -1.18 0.02 0.07 -0.12 54.00 1021.41 0.12 14.77 $GPGGA,203628.900,3903.4327,N,07726.7621,W,2,09,1.00,72.3,M,-33.4,M,0000,0000*63
47.07 358.58 0.63 -1.18 0.08 0.10 -0.09 54.00 1021.40 0.06 14.76 $GPGGA,203629.000,3903.4327,N,07726.7621,W,2,09,1.00,72.3,M,-33.4,M,0000,0000*6B
47.17 358.59 0.63 -1.18 0.05 0.06 -0.11 54.00 1021.40 -0.01 14.77 $GPGGA,203629.100,3903.4327,N,07726.7621,W,2,09,1.00,72.3,M,-33.4,M,0000,0000*6A
47.27 358.59 0.58 -1.16 0.01 0.05 -0.13 54.00 1021.41 0.13 14.80 $GPGGA,203629.200,3903.4327,N,07726.7621,W,2,09,1.00,72.3,M,-33.4,M,0000,0000*69
47.37 358.60 0.54 -1.15 0.02 0.07 -0.11 53.99 1021.39 0.12 14.77 $GPGGA,203629.300,3903.4327,N,07726.7621,W,2,09,0.98,72.3,M,-33.4,M,0000,0000*68
47.47 358.59 0.56 -1.15 0.06 0.06 -0.14 53.99 1021.39 0.10 14.78 $GPGGA,203629.400,3903.4327,N,07726.7621,W,2,09,1.00,72.3,M,-33.4,M,0000,0000*6F
47.57 358.59 0.57 -1.15 0.05 0.07 -0.13 53.99 1021.40 0.16 14.73 $GPGGA,203629.500,3903.4327,N,07726.7621,W,2,09,1.00,72.3,M,-33.4,M,0000,0000*6E
47.67 358.59 0.57 -1.15 0.06 0.15 -0.14 53.99 1021.39 0.18 14.75 $GPGGA,203629.600,3903.4327,N,07726.7621,W,2,09,1.00,72.3,M,-33.4,M,0000,0000*6D
47.77 358.60 0.57 -1.15 0.07 0.06 -0.10 53.99 1021.39 0.10 14.77 $GPGGA,203629.700,3903.4327,N,07726.7621,W,2,09,1.00,72.3,M,-33.4,M,0000,0000*6C
47.87 358.63 0.57 -1.13 0.04 0.07 -0.13 53.99 1021.40 0.12 14.73 $GPGGA,203629.800,3903.4327,N,07726.7621,W,2,09,1.00,72.3,M,-33.4,M,0000,0000*63
47.97 358.64 0.55 -1.13 0.02 0.05 -0.13 53.99 1021.40 -0.07 14.75 $GPGGA,203629.900,3903.4327,N,07726.7621,W,2,09,1.00,72.3,M,-33.4,M,0000,0000*62
48.07 358.64 0.55 -1.13 0.07 0.06 -0.10 53.99 1021.42 -0.11 14.74 $GPGGA,203630.000,3903.4327,N,07726.7621,W,2,09,1.00,72.3,M,-33.4,M,0000,0000*63
48.17 358.64 0.55 -1.13 0.04 0.06 -0.12 53.99 1021.42 -0.10 14.77 $GPGGA,203630.100,3903.4327,N,07726.7621,W,2,09,1.00,72.3,M,-33.4,M,0000,0000*62
48.27 358.64 0.55 -1.13 0.02 0.09 -0.13 53.99 1021.42 -0.11 14.81 $GPGGA,203630.200,3903.4327,N,07726.7620,W,2,09,1.00,72.3,M,-33.4,M,0000,0000*60
48.37 358.64 0.55 -1.12 0.06 0.10 -0.13 53.99 1021.42 -0.15 14.73 $GPGGA,203630.300,3903.4327,N,07726.7620,W,2,09,0.98,72.3,M,-33.4,M,0000,0000*61
48.47 358.64 0.55 -1.12 0.07 0.06 -0.11 53.99 1021.43 -0.07 14.78 $GPGGA,203630.400,3903.4327,N,07726.7620,W,2,09,1.00,72.3,M,-33.4,M,0000,0000*66
48.57 358.65 0.52 -1.11 0.00 0.06 -0.10 53.99 1021.42 -0.04 14.73 $GPGGA,203630.500,3903.4327,N,07726.7620,W,2,09,1.00,72.3,M,-33.4,M,0000,0000*67
48.67 358.64 0.47 -1.09 0.07 0.09 -0.09 53.99 1021.41 -0.12 14.75 $GPGGA,203630.600,3903.4327,N,07726.7620,W,2,09,1.00,72.3,M,-33.4,M,0000,0000*64
48.77 358.64 0.47 -1.09 0.06 0.06 -0.08 53.99 1021.42 -0.16 14.77 $GPGGA,203630.700,3903.4327,N,07726.7620,W,2,09,1.00,72.3,M,-33.4,M,0000,0000*65
48.87 358.64 0.47 -1.09 0.04 0.08 -0.14 53.98 1021.43 -0.15 14.80 $GPGGA,203630.800,3903.4327,N,07726.7620,W,2,09,1.00,72.3,M,-33.4,M,0000,0000*6A
48.97 358.64 0.47 -1.09 0.04 0.08 -0.12 53.98 1021.43 -0.07 14.70 $GPGGA,203630.900,3903.4327,N,07726.7620,W,2,09,0.98,72.3,M,-33.4,M,0000,0000*6B
49.07 358.64 0.47 -1.09 0.08 0.08 -0.09 53.98 1021.42 0.03 14.83 $GPGGA,203631.000,3903.4327,N,07726.7620,W,2,09,0.98,72.3,M,-33.4,M,0000,0000*63
49.17 358.64 0.47 -1.09 0.07 0.07 -0.10 53.99 1021.41 -0.05 14.72 $GPGGA,203631.100,3903.4327,N,07726.7620,W,2,09,0.98,72.3,M,-33.4,M,0000,0000*62
49.27 358.64 0.47 -1.09 0.05 0.09 -0.10 53.99 1021.42 -0.08 14.74 $GPGGA,203631.200,3903.4327,N,07726.7620,W,2,09,0.98,72.3,M,-33.4,M,0000,0000*61
49.37 358.64 0.47 -1.09 0.06 0.06 -0.12 53.99 1021.42 -0.10 14.77 $GPGGA,203631.300,3903.4327,N,07726.7620,W,2,09,0.98,72.3,M,-33.4,M,0000,0000*60
49.47 358.64 0.47 -1.09 0.05 0.05 -0.10 53.99 1021.42 0.05 14.77 $GPGGA,203631.400,3903.4327,N,07726.7620,W,2,09,0.98,72.3,M,-33.4,M,0000,0000*67
49.57 358.64 0.47 -1.09 0.02 0.08 -0.13 53.99 1021.40 0.04 14.71 $GPGGA,203631.500,3903.4327,N,07726.7620,W,2,09,0.98,72.3,M,-33.4,M,0000,0000*66
49.67 358.64 0.47 -1.09 0.04 0.11 -0.10 53.99 1021.40 0.06 14.78 $GPGGA,203631.600,3903.4327,N,07726.7620,W,2,09,0.98,72.3,M,-33.4,M,0000,0000*65
49.77 358.64 0.47 -1.09 0.04 0.08 -0.13 53.99 1021.40 -0.01 14.78 $GPGGA,203631.700,3903.4327,N,07726.7620,W,2,09,0.98,72.3,M,-33.4,M,0000,0000*64
49.87 358.64 0.47 -1.09 0.02 0.08 -0.10 54.00 1021.41 0.03 14.72 $GPGGA,203631.800,3903.4327,N,07726.7620,W,2,09,0.98,72.3,M,-33.4,M,0000,0000*6B
49.97 358.64 0.47 -1.09 0.04 0.08 -0.10 54.00 1021.41 0.03 14.75 $GPGGA,203631.900,3903.4327,N,07726.7620,W,2,09,0.98,72.3,M,-33.4,M,0000,0000*6A
50.07 358.64 0.47 -1.09 0.06 0.07 -0.11 54.00 1021.41 0.12 14.73 $GPGGA,203632.000,3903.4327,N,07726.7620,W,2,09,0.98,72.3,M,-33.4,M,0000,0000*60
50.17 358.64 0.47 -1.09 0.05 0.10 -0.10 54.00 1021.39 0.04 14.73 $GPGGA,203632.100,3903.4327,N,07726.7620,W,2,09,0.98,72.3,M,-33.4,M,0000,0000*61
50.27 358.64 0.47 -1.09 0.04 0.10 -0.10 54.00 1021.40 0.05 14.79 $GPGGA,203632.200,3903.4327,N,07726.7620,W,2,09,0.98,72.3,M,-33.4,M,0000,0000*62
50.37 358.64 0.46 -1.09 0.06 0.06 -0.11 54.00 1021.40 0.07 14.76 $GPGGA,203632.300,3903.4327,N,07726.7620,W,2,09,0.98,72.3,M,-33.4,M,0000,0000*63
50.47 358.64 0.46 -1.09 0.02 0.07 -0.10 54.00 1021.40 0.05 14.74 $GPGGA,203632.400,3903.4327,N,07726.7620,W,2,09,0.98,72.3,M,-33.4,M,0000,0000*64
50.57 358.64 0.46 -1.09 0.04 0.08 -0.11 54.00 1021.40 0.00 14.77 $GPGGA,203632.500,3903.4327,N,07726.7620,W,2,09,0.98,72.3,M,-33.4,M,0000,0000*65
50.67 358.64 0.46 -1.09 0.07 0.10 -0.09 54.00 1021.41 0.03 14.84 $GPGGA,203632.600,3903.4327,N,07726.7620,W,2,09,0.98,72.3,M,-33.4,M,0000,0000*66
50.77 358.64 0.46 -1.09 0.07 0.10 -0.11 54.00 1021.41 0.00 14.73 $GPGGA,203632.700,3903.4327,N,07726.7620,W,2,09,0.98,72.3,M,-33.4,M,0000,0000*67
50.87 358.64 0.46 -1.09 0.03 0.10 -0.11 54.00 1021.41 -0.01 14.74 $GPGGA,203632.800,3903.4327,N,07726.7620,W,2,09,0.98,72.3,M,-33.4,M,0000,0000*68
50.97 358.64 0.46 -1.09 0.06 0.06 -0.11 54.00 1021.41 -0.04 14.70 $GPGGA,203632.900,3903.4327,N,07726.7620,W,2,09,0.98,72.3,M,-33.4,M,0000,0000*69
51.07 358.64 0.46 -1.09 0.07 0.07 -0.12 54.00 1021.41 0.10 14.75 $GPGGA,203633.000,3903.4327,N,07726.7620,W,2,09,0.98,72.3,M,-33.4,M,0000,0000*61
