393.46 358.22 5.11 1.28 -1.04 -0.80 0.20 60.24 1019.39 0.39 -49.48 $GPGGA,201321.600,3903.4323,N,07726.7590,W,1,08,0.99,96.0,M,-33.4,M,,*65
393.53 358.70 5.05 1.82 0.14 -0.06 0.05 60.23 1019.39 0.44 -49.48 $GPGGA,201321.600,3903.4323,N,07726.7590,W,1,08,0.99,96.0,M,-33.4,M,,*65
393.59 358.70 5.04 1.82 0.06 0.00 -0.07 60.22 1019.38 0.35 -49.46 $GPGGA,201321.600,3903.4323,N,07726.7590,W,1,08,0.99,96.0,M,-33.4,M,,*65
393.65 358.71 5.11 1.80 0.11 0.00 0.10 60.16 1019.40 0.24 -49.49 $GPGGA,201321.600,3903.4323,N,07726.7590,W,1,08,0.99,96.0,M,-33.4,M,,*65
393.72 358.69 5.11 1.80 -0.02 -0.22 -0.03 60.12 1019.41 0.20 -49.49 $GPGGA,201321.600,3903.4323,N,07726.7590,W,1,08,0.99,96.0,M,-33.4,M,,*65
393.78 358.69 5.11 1.81 -0.10 0.11 -0.16 60.10 1019.41 0.20 -49.49 $GPGGA,201321.600,3903.4323,N,07726.7590,W,1,08,0.99,96.0,M,-33.4,M,,*65
393.83 358.72 5.13 1.83 0.00 -0.04 0.00 60.08 1019.41 0.35 -49.47 $GPGGA,201321.600,3903.4323,N,07726.7590,W,1,08,0.99,96.0,M,-33.4,M,,*65
393.89 358.78 5.16 1.82 0.17 -0.15 0.03 60.07 1019.40 0.32 -49.48 $GPGGA,201321.700,3903.4323,N,07726.7590,W,1,08,0.99,95.9,M,-33.4,M,,*6E
393.97 358.79 5.26 1.78 -0.17 -0.02 0.00 60.06 1019.40 0.32 -49.49 $GPGGA,201321.700,3903.4323,N,07726.7590,W,1,08,0.99,95.9,M,-33.4,M,,*6E
394.02 358.79 5.26 1.79 -0.16 0.00 -0.11 60.06 1019.40 0.38 -49.48 $GPGGA,201321.700,3903.4323,N,07726.7590,W,1,08,0.99,95.9,M,-33.4,M,,*6E
394.08 358.79 5.25 1.81 -0.07 -0.25 -0.28 60.05 1019.39 0.37 -49.48 $GPGGA,201321.700,3903.4323,N,07726.7590,W,1,08,0.99,95.9,M,-33.4,M,,*6E
394.15 358.80 5.78 2.13 0.59 -0.09 -0.40 60.05 1019.39 0.53 -49.47 $GPGGA,201321.700,3903.4323,N,07726.7590,W,1,08,0.99,95.9,M,-33.4,M,,*6E
394.21 358.64 5.42 1.85 0.08 0.77 1.16 60.05 1019.37 0.93 -49.49 $GPGGA,201321.700,3903.4323,N,07726.7590,W,1,08,0.99,95.9,M,-33.4,M,,*6E
394.27 358.63 5.34 1.88 0.13 -0.19 -0.45 60.05 1019.33 1.18 -49.46 $GPGGA,201321.700,3903.4323,N,07726.7590,W,1,08,0.99,95.9,M,-33.4,M,,*6E
394.33 358.63 5.32 1.87 -0.07 -0.07 -0.07 60.05 1019.30 1.41 -49.48 $GPGGA,201321.700,3903.4323,N,07726.7590,W,1,08,0.99,95.9,M,-33.4,M,,*6E
394.40 358.64 5.37 1.88 0.08 -0.13 -0.03 60.07 1019.27 1.49 -49.47 $GPGGA,201321.700,3903.4323,N,07726.7590,W,1,08,0.99,95.9,M,-33.4,M,,*6E
394.46 358.64 5.39 1.88 -0.01 0.01 -0.21 60.08 1019.26 1.51 -49.47 $GPGGA,201321.700,3903.4323,N,07726.7590,W,1,08,0.99,95.9,M,-33.4,M,,*6E
394.51 358.64 5.39 1.88 0.01 0.00 0.00 60.10 1019.26 1.48 -49.48 $GPGGA,201321.700,3903.4323,N,07726.7590,W,1,08,0.99,95.9,M,-33.4,M,,*6E
394.57 358.64 5.38 1.87 0.06 -0.14 0.00 60.12 1019.26 1.24 -49.48 $GPGGA,201321.700,3903.4323,N,07726.7590,W,1,08,0.99,95.9,M,-33.4,M,,*6E
394.65 358.63 5.34 1.86 0.05 -0.07 -0.03 60.14 1019.29 1.14 -49.49 $GPGGA,201321.700,3903.4323,N,07726.7590,W,1,08,0.99,95.9,M,-33.4,M,,*6E
394.70 358.63 5.34 1.86 -0.10 -0.10 -0.10 60.16 1019.30 1.02 -49.48 $GPGGA,201321.700,3903.4323,N,07726.7590,W,1,08,0.99,95.9,M,-33.4,M,,*6E
394.76 358.63 5.32 1.88 0.02 -0.07 -0.04 60.16 1019.31 0.96 -49.48 $GPGGA,201321.700,3903.4323,N,07726.7590,W,1,08,0.99,95.9,M,-33.4,M,,*6E
394.84 358.63 5.31 1.86 0.09 -0.01 -0.03 60.17 1019.32 1.02 -49.48 $GPGGA,201321.700,3903.4323,N,07726.7590,W,1,08,0.99,95.9,M,-33.4,M,,*6E
394.89 358.63 5.30 1.85 -0.01 -0.01 -0.03 60.18 1019.31 1.13 -49.48 $GPGGA,201321.700,3903.4323,N,07726.7590,W,1,08,0.99,95.9,M,-33.4,M,,*6E
394.95 358.62 5.29 1.85 -0.03 -0.04 -0.08 60.18 1019.30 1.25 -49.47 $GPGGA,201321.700,3903.4323,N,07726.7590,W,1,08,0.99,95.9,M,-33.4,M,,*6E
395.01 358.62 5.26 1.85 -0.02 -0.12 -0.14 60.19 1019.29 1.26 -49.48 $GPGGA,201321.700,3903.4323,N,07726.7590,W,1,08,0.99,95.9,M,-33.4,M,,*6E
395.08 358.62 5.26 1.85 0.03 -0.03 -0.08 60.20 1019.29 1.34 -49.48 $GPGGA,201321.700,3903.4323,N,07726.7590,W,1,08,0.99,95.9,M,-33.4,M,,*6E
395.13 358.62 5.26 1.85 0.01 -0.08 -0.11 60.21 1019.28 1.33 -49.48 
395.23 358.62 5.24 1.85 -0.01 -0.08 -0.04 60.23 1019.28 1.43 -49.48 $GPGGA,201324.500,3903.4324,N,07726.7589,W,1,07,1.21,95.8,M,-33.4,M,,*6A
395.33 358.62 5.23 1.85 -0.01 -0.05 -0.06 60.24 1019.27 1.52 -49.49 $GPGGA,201324.600,3903.4324,N,07726.7589,W,1,07,1.21,95.8,M,-33.4,M,,*69
395.43 358.62 5.21 1.85 0.03 -0.09 -0.03 60.25 1019.25 1.37 -49.49 $GPGGA,201324.700,3903.4324,N,07726.7589,W,1,07,1.21,95.8,M,-33.4,M,,*68
395.53 358.62 5.21 1.85 0.01 -0.07 -0.10 60.25 1019.27 1.31 -49.49 $GPGGA,201324.800,3903.4324,N,07726.7589,W,1,07,1.21,95.8,M,-33.4,M,,*67
395.63 358.62 5.21 1.85 -0.02 -0.09 -0.04 60.25 1019.28 1.33 -49.49 $GPGGA,201324.900,3903.4324,N,07726.7589,W,1,07,1.21,95.8,M,-33.4,M,,*66
395.73 358.63 5.32 1.85 0.07 -0.15 -0.05 60.25 1019.28 1.42 -49.48 $GPGGA,201325.000,3903.4324,N,07726.7589,W,1,07,1.21,95.8,M,-33.4,M,,*6E
395.83 358.63 5.42 1.85 0.04 -0.08 -0.03 60.25 1019.27 1.49 -49.48 $GPGGA,201325.100,3903.4324,N,07726.7589,W,1,07,1.21,95.8,M,-33.4,M,,*6F
395.93 358.63 5.44 1.85 -0.03 0.00 -0.02 60.25 1019.26 1.56 -49.50 $GPGGA,201325.200,3903.4324,N,07726.7589,W,1,07,1.21,95.8,M,-33.4,M,,*6C
396.03 358.63 5.51 1.86 -0.07 -0.10 -0.03 60.26 1019.25 1.68 -49.48 $GPGGA,201325.300,3903.4324,N,07726.7589,W,1,07,1.21,95.8,M,-33.4,M,,*6D
396.13 358.63 5.44 1.85 0.08 0.00 -0.02 60.27 1019.23 1.39 -49.47 $GPGGA,201325.300,3903.4324,N,07726.7589,W,1,07,1.21,95.8,M,-33.4,M,,*6D
396.23 358.62 5.22 1.85 -0.03 -0.18 0.04 60.26 1019.27 1.19 -49.47 $GPGGA,201325.400,3903.4324,N,07726.7589,W,1,07,1.21,95.8,M,-33.4,M,,*6A
396.33 358.59 5.18 1.86 -0.06 -0.15 -0.06 60.26 1019.29 0.94 -49.49 $GPGGA,201325.500,3903.4324,N,07726.7589,W,1,07,1.21,95.8,M,-33.4,M,,*6B
396.43 358.58 5.25 1.83 0.12 -0.08 -0.08 60.24 1019.32 0.73 -49.48 $GPGGA,201325.600,3903.4324,N,07726.7589,W,1,07,1.21,95.8,M,-33.4,M,,*68
396.53 358.65 5.48 1.84 0.02 -0.01 -0.25 60.22 1019.35 0.69 -49.48 $GPGGA,201325.700,3903.4324,N,07726.7589,W,1,07,1.21,95.8,M,-33.4,M,,*69
396.63 358.66 5.60 1.85 -0.11 -0.16 -0.32 60.20 1019.35 0.57 -49.47 $GPGGA,201325.800,3903.4324,N,07726.7589,W,1,07,1.21,95.8,M,-33.4,M,,*66
396.73 358.66 5.55 1.83 0.14 -0.18 0.00 60.17 1019.37 0.49 -49.48 $GPGGA,201325.900,3903.4324,N,07726.7589,W,1,07,1.21,95.8,M,-33.4,M,,*67
396.83 358.66 5.46 1.82 0.04 -0.14 0.03 60.15 1019.38 0.31 -49.48 $GPGGA,201326.000,3903.4324,N,07726.7589,W,1,07,1.21,95.8,M,-33.4,M,,*6D
396.93 358.66 5.43 1.84 -0.11 -0.01 0.12 60.13 1019.40 0.40 -49.46 $GPGGA,201326.200,3903.4324,N,07726.7589,W,1,07,1.21,95.8,M,-33.4,M,,*6F
397.03 358.66 5.41 1.80 0.10 -0.06 -0.25 60.10 1019.39 0.73 -49.47 $GPGGA,201326.300,3903.4324,N,07726.7589,W,1,07,1.21,95.8,M,-33.4,M,,*6E
397.13 358.66 5.40 1.82 0.00 -0.11 -0.08 60.09 1019.35 0.64 -49.47 $GPGGA,201326.400,3903.4324,N,07726.7589,W,1,07,1.21,95.8,M,-33.4,M,,*69
397.23 358.66 5.37 1.83 -0.05 -0.01 -0.03 60.08 1019.36 0.61 -49.48 $GPGGA,201326.500,3903.4324,N,07726.7589,W,1,07,1.21,95.8,M,-33.4,M,,*68
397.33 358.65 5.36 1.82 0.03 -0.07 -0.05 60.07 1019.36 0.86 -49.47 $GPGGA,201326.600,3903.4324,N,07726.7589,W,1,07,1.21,95.8,M,-33.4,M,,*6B
397.43 358.65 5.32 1.82 0.01 -0.08 -0.08 60.06 1019.33 1.11 -49.47 $GPGGA,201326.700,3903.4324,N,07726.7589,W,1,07,1.21,95.8,M,-33.4,M,,*6A
397.53 358.65 5.33 1.82 0.00 -0.12 -0.04 60.06 1019.30 1.33 -49.46 $GPGGA,201326.700,3903.4324,N,07726.7589,W,1,07,1.21,95.8,M,-33.4,M,,*6A
397.63 358.66 5.41 1.82 -0.02 -0.04 -0.02 60.07 1019.28 1.39 -49.48 $GPGGA,201326.800,3903.4324,N,07726.7589,W,1,07,1.21,95.8,M,-33.4,M,,*65
397.73 358.66 5.41 1.82 0.05 -0.06 -0.08 60.08 1019.27 1.37 -49.48 $GPGGA,201326.900,3903.4324,N,07726.7589,W,1,07,1.21,95.8,M,-33.4,M,,*64
397.83 358.67 5.45 1.82 -0.01 -0.28 0.01 60.10 1019.27 1.57 -49.49 $GPGGA,201327.100,3903.4324,N,07726.7589,W,1,07,1.21,95.8,M,-33.4,M,,*6D
397.93 358.67 5.48 1.83 -0.21 -0.15 0.08 60.12 1019.25 1.47 -49.48 $GPGGA,201327.200,3903.4324,N,07726.7589,W,1,07,1.21,95.8,M,-33.4,M,,*6E
398.03 358.67 5.48 1.82 0.05 -0.02 -0.13 60.14 1019.26 1.41 -49.48 $GPGGA,201327.300,3903.4324,N,07726.7589,W,1,07,1.21,95.8,M,-33.4,M,,*6F
398.13 358.67 5.48 1.82 0.00 -0.16 -0.03 60.16 1019.27 1.15 -49.47 $GPGGA,201327.400,3903.4324,N,07726.7589,W,1,07,1.21,95.8,M,-33.4,M,,*68
398.23 358.67 5.49 1.82 -0.06 -0.08 -0.02 60.17 1019.30 1.02 -49.48 $GPGGA,201327.500,3903.4324,N,07726.7589,W,1,07,1.21,95.8,M,-33.4,M,,*69
398.33 358.67 5.49 1.82 0.01 -0.08 -0.06 60.16 1019.31 0.72 -49.49 $GPGGA,201327.600,3903.4324,N,07726.7589,W,1,07,1.21,95.8,M,-33.4,M,,*6A
398.43 358.67 5.49 1.82 0.01 -0.10 -0.07 60.15 1019.35 0.94 -49.47 $GPGGA,201327.700,3903.4324,N,07726.7589,W,1,07,1.21,95.8,M,-33.4,M,,*6B
398.53 358.69 5.41 1.76 0.00 0.29 -4.32 60.14 1019.32 1.05 -49.48 $GPGGA,201327.700,3903.4324,N,07726.7589,W,1,07,1.21,95.8,M,-33.4,M,,*6B
398.63 358.72 5.48 1.77 0.91 -0.25 -1.76 60.14 1019.31 1.11 -49.48 $GPGGA,201327.900,3903.4324,N,07726.7589,W,1,07,1.21,95.8,M,-33.4,M,,*65
398.73 358.74 5.52 1.77 0.09 -0.34 0.08 60.15 1019.30 1.22 -49.50 $GPGGA,201328.000,3903.4324,N,07726.7589,W,1,07,1.21,95.8,M,-33.4,M,,*63
398.83 358.72 5.52 1.80 0.30 -0.34 -0.58 60.16 1019.29 1.22 -49.49 $GPGGA,201328.100,3903.4324,N,07726.7589,W,1,07,1.21,95.8,M,-33.4,M,,*62
398.93 358.74 5.54 1.82 -0.13 -0.53 0.31 60.17 1019.29 1.33 -49.50 $GPGGA,201328.200,3903.4324,N,07726.7589,W,1,07,1.14,95.8,M,-33.4,M,,*67
399.03 358.73 5.55 1.79 0.22 -0.06 -0.20 60.19 1019.28 1.06 -49.50 $GPGGA,201328.300,3903.4324,N,07726.7589,W,1,07,1.21,95.8,M,-33.4,M,,*60
399.13 358.76 5.60 1.81 0.09 0.01 -0.01 60.20 1019.31 0.95 -49.48 $GPGGA,201328.400,3903.4324,N,07726.7589,W,1,07,1.21,95.8,M,-33.4,M,,*67
399.23 358.76 5.59 1.81 -0.10 0.06 0.17 60.19 1019.32 0.81 -49.48 $GPGGA,201328.500,3903.4324,N,07726.7589,W,1,07,1.21,95.8,M,-33.4,M,,*66
399.33 358.75 5.54 1.81 0.05 -0.14 -0.15 60.18 1019.34 0.62 -49.49 $GPGGA,201328.600,3903.4324,N,07726.7589,W,1,07,1.21,95.8,M,-33.4,M,,*65
399.43 358.75 5.52 1.80 0.06 -0.19 -0.15 60.16 1019.36 0.54 -49.48 $GPGGA,201328.600,3903.4324,N,07726.7589,W,1,07,1.21,95.8,M,-33.4,M,,*65
399.53 358.75 5.49 1.80 -0.08 -0.15 -0.02 60.13 1019.37 0.70 -49.49 $GPGGA,201328.700,3903.4324,N,07726.7589,W,1,07,1.21,95.8,M,-33.4,M,,*64
399.63 358.75 5.50 1.80 0.06 -0.12 -0.11 60.12 1019.35 0.84 -49.49 $GPGGA,201328.800,3903.4324,N,07726.7589,W,1,07,1.21,95.8,M,-33.4,M,,*6B
399.73 358.75 5.49 1.80 -0.02 -0.05 -0.07 60.11 1019.34 0.94 -49.50 $GPGGA,201328.900,3903.4324,N,07726.7589,W,1,07,1.21,95.8,M,-33.4,M,,*6A
399.83 358.75 5.47 1.80 -0.02 -0.08 -0.06 60.12 1019.32 0.97 -49.49 $GPGGA,201329.000,3903.4324,N,07726.7589,W,1,07,1.21,95.8,M,-33.4,M,,*62
399.93 358.75 5.45 1.80 0.00 -0.06 -0.08 60.13 1019.32 0.99 -49.50 $GPGGA,201329.100,3903.4324,N,07726.7589,W,1,07,1.21,95.8,M,-33.4,M,,*63
400.03 358.75 5.43 1.80 0.05 -0.13 -0.08 60.14 1019.32 1.06 -49.47 $GPGGA,201329.200,3903.4324,N,07726.7589,W,1,07,1.21,95.8,M,-33.4,M,,*60
400.13 358.75 5.41 1.79 -0.01 -0.11 -0.03 60.16 1019.31 1.15 -49.49 $GPGGA,201329.300,3903.4324,N,07726.7589,W,1,07,1.21,95.8,M,-33.4,M,,*61
400.23 358.75 5.38 1.80 -0.04 -0.09 -0.02 60.17 1019.30 1.21 -49.48 $GPGGA,201329.400,3903.4324,N,07726.7589,W,1,07,1.21,95.8,M,-33.4,M,,*66
400.33 358.77 5.43 1.78 0.27 -0.15 -0.38 60.19 1019.29 1.26 -49.48 $GPGGA,201329.500,3903.4324,N,07726.7589,W,1,07,1.21,95.8,M,-33.4,M,,*67
400.43 358.78 5.49 1.83 -0.18 0.00 0.00 60.20 1019.29 1.37 -49.48 $GPGGA,201329.600,3903.4324,N,07726.7589,W,1,07,1.21,95.8,M,-33.4,M,,*64
400.53 358.79 5.67 1.86 0.15 0.03 -0.04 60.21 1019.27 1.40 -49.48 $GPGGA,201329.700,3903.4324,N,07726.7589,W,1,07,1.21,95.8,M,-33.4,M,,*65
400.63 358.82 5.61 1.76 0.06 -0.11 -0.12 60.23 1019.27 1.39 -49.49 $GPGGA,201329.800,3903.4324,N,07726.7589,W,1,07,1.21,95.8,M,-33.4,M,,*6A
400.73 358.84 5.62 1.79 -0.19 0.00 -0.05 60.24 1019.27 1.35 -49.49 $GPGGA,201329.900,3903.4324,N,07726.7589,W,1,07,1.21,95.8,M,-33.4,M,,*6B
400.83 358.83 5.60 1.82 0.08 -0.07 0.00 60.25 1019.27 1.40 -49.48 $GPGGA,201330.000,3903.4324,N,07726.7589,W,1,07,1.21,95.8,M,-33.4,M,,*6A
400.93 358.83 5.59 1.80 0.05 -0.08 -0.02 60.26 1019.27 1.39 -49.50 $GPGGA,201330.100,3903.4324,N,07726.7589,W,1,07,1.21,95.8,M,-33.4,M,,*6B
401.03 358.83 5.55 1.80 -0.08 -0.09 -0.11 60.27 1019.27 1.38 -49.50 $GPGGA,201330.200,3903.4324,N,07726.7589,W,1,07,1.14,95.8,M,-33.4,M,,*6E
401.13 358.83 5.58 1.82 -0.05 -0.06 -0.08 60.28 1019.27 1.07 -49.50 $GPGGA,201330.300,3903.4324,N,07726.7589,W,1,08,0.99,95.8,M,-33.4,M,,*64
401.23 358.83 5.58 1.81 0.04 -0.05 -0.02 60.27 1019.31 0.83 -49.49 $GPGGA,201330.400,3903.4324,N,07726.7589,W,1,08,0.99,95.8,M,-33.4,M,,*63
401.33 358.83 5.56 1.81 -0.05 -0.09 -0.03 60.26 1019.34 0.65 -49.48 $GPGGA,201330.500,3903.4324,N,07726.7589,W,1,08,0.99,95.8,M,-33.4,M,,*62
401.43 358.82 5.46 1.83 -0.36 -0.27 -0.11 60.23 1019.36 0.58 -49.49 $GPGGA,201330.600,3903.4324,N,07726.7589,W,1,08,0.99,95.8,M,-33.4,M,,*61
401.53 358.83 5.49 1.80 0.14 -0.09 0.00 60.20 1019.37 0.40 -49.50 $GPGGA,201330.700,3903.4324,N,07726.7589,W,1,08,0.99,95.8,M,-33.4,M,,*60
401.63 358.83 5.49 1.79 0.07 -0.01 -0.15 60.16 1019.39 0.31 -49.51 $GPGGA,201330.800,3903.4324,N,07726.7589,W,1,08,0.99,95.8,M,-33.4,M,,*6F
401.73 358.86 5.39 1.67 -0.11 -0.08 -0.13 60.13 1019.40 0.20 -49.49 $GPGGA,201330.900,3903.4324,N,07726.7589,W,1,08,0.99,95.8,M,-33.4,M,,*6E
401.83 358.98 5.08 1.12 0.22 -0.10 -0.40 60.10 1019.41 0.10 -49.48 $GPGGA,201331.000,3903.4324,N,07726.7588,W,1,08,0.99,95.8,M,-33.4,M,,*67
401.93 359.04 4.38 0.92 0.11 -0.18 0.00 60.06 1019.43 0.11 -49.49 $GPGGA,201331.100,3903.4324,N,07726.7588,W,1,08,0.99,95.8,M,-33.4,M,,*66
402.03 359.26 4.04 1.10 -0.02 -0.08 0.15 60.03 1019.42 0.08 -49.48 $GPGGA,201331.200,3903.4324,N,07726.7588,W,1,07,1.14,95.8,M,-33.4,M,,*6E
402.13 359.31 4.00 1.12 0.01 0.00 -0.03 60.00 1019.43 -0.03 -49.49 $GPGGA,201331.300,3903.4324,N,07726.7588,W,1,07,1.14,95.8,M,-33.4,M,,*6F
402.23 359.31 3.85 1.11 0.21 -0.09 -0.16 59.98 1019.44 0.03 -49.50 $GPGGA,201331.400,3903.4324,N,07726.7588,W,1,07,1.14,95.8,M,-33.4,M,,*68
402.33 359.34 3.88 1.17 -0.06 -0.03 -0.29 59.96 1019.43 0.00 -49.46 $GPGGA,201331.500,3903.4324,N,07726.7588,W,1,07,1.14,95.8,M,-33.4,M,,*69
402.43 359.35 3.89 1.19 0.08 0.02 -0.12 59.95 1019.44 0.05 -49.48 $GPGGA,201331.600,3903.4324,N,07726.7588,W,1,07,1.14,95.8,M,-33.4,M,,*6A
402.53 359.35 3.89 1.27 0.09 -0.16 0.08 59.94 1019.43 0.01 -49.47 $GPGGA,201331.700,3903.4324,N,07726.7588,W,1,07,1.14,95.8,M,-33.4,M,,*6B
402.63 359.39 3.93 1.26 0.14 0.06 -0.03 59.93 1019.44 0.06 -49.48 $GPGGA,201331.800,3903.4324,N,07726.7588,W,1,07,1.14,95.8,M,-33.4,M,,*64
402.73 359.39 4.05 1.25 0.18 0.00 -0.35 59.92 1019.43 0.03 -49.47 $GPGGA,201331.900,3903.4324,N,07726.7588,W,1,07,1.14,95.8,M,-33.4,M,,*65
402.83 359.39 4.14 1.23 -0.11 -0.07 -0.10 59.92 1019.43 0.07 -49.46 $GPGGA,201332.000,3903.4324,N,07726.7588,W,1,07,1.14,95.8,M,-33.4,M,,*6F
402.93 359.39 4.18 1.21 -0.12 -0.10 0.08 59.91 1019.43 0.11 -49.49 $GPGGA,201332.100,3903.4325,N,07726.7588,W,1,08,0.99,95.8,M,-33.4,M,,*64
403.03 359.39 4.12 1.21 0.40 -0.09 0.54 59.90 1019.42 0.02 -49.47 $GPGGA,201332.200,3903.4325,N,07726.7588,W,1,08,0.99,95.8,M,-33.4,M,,*67
403.13 359.39 4.01 1.16 -0.32 -0.01 -0.23 59.89 1019.43 0.06 -49.48 $GPGGA,201332.300,3903.4325,N,07726.7588,W,1,08,0.99,95.8,M,-33.4,M,,*66
403.23 359.38 3.90 1.15 -0.38 -0.26 -0.19 59.89 1019.43 0.07 -49.50 $GPGGA,201332.400,3903.4325,N,07726.7588,W,1,08,0.99,95.8,M,-33.4,M,,*61
403.33 359.37 3.87 1.15 0.37 -0.07 0.53 59.88 1019.43 0.02 -49.49 $GPGGA,201332.500,3903.4325,N,07726.7588,W,1,07,1.14,95.8,M,-33.4,M,,*6B
403.43 359.34 3.76 1.11 0.04 -0.31 -0.05 59.87 1019.43 0.05 -49.48 $GPGGA,201332.600,3903.4325,N,07726.7588,W,1,07,1.21,95.8,M,-33.4,M,,*6E
403.53 359.36 3.67 1.11 -0.07 -0.16 -0.35 59.86 1019.43 0.05 -49.49 $GPGGA,201332.700,3903.4325,N,07726.7588,W,1,07,1.21,95.8,M,-33.4,M,,*6F
403.63 359.34 3.61 1.08 -0.11 0.28 0.11 59.85 1019.43 0.05 -49.48 $GPGGA,201332.800,3903.4325,N,07726.7588,W,1,07,1.21,95.8,M,-33.4,M,,*60
403.73 359.32 3.50 1.10 0.21 -0.75 0.47 59.84 1019.43 0.04 -49.46 $GPGGA,201332.900,3903.4325,N,07726.7588,W,1,07,1.21,95.8,M,-33.4,M,,*61
403.83 359.26 3.25 1.06 -0.05 -0.07 -0.15 59.84 1019.43 -0.08 -49.48 $GPGGA,201333.000,3903.4325,N,07726.7588,W,1,07,1.21,95.8,M,-33.4,M,,*69
403.93 359.31 3.24 1.12 0.19 -0.40 -0.09 59.83 1019.45 0.00 -49.43 $GPGGA,201333.100,3903.4325,N,07726.7588,W,1,07,1.21,95.8,M,-33.4,M,,*68
404.03 359.33 3.66 1.17 0.26 -0.41 -0.45 59.82 1019.44 -0.08 -49.47 $GPGGA,201333.200,3903.4325,N,07726.7588,W,1,07,1.21,95.8,M,-33.4,M,,*6B
404.13 359.44 4.21 1.21 0.21 -0.08 -0.16 59.81 1019.45 -0.12 -49.47 $GPGGA,201333.300,3903.4325,N,07726.7588,W,1,07,1.21,95.8,M,-33.4,M,,*6A
404.23 359.66 5.36 1.28 0.32 0.02 0.71 59.80 1019.45 -0.08 -49.45 $GPGGA,201333.400,3903.4325,N,07726.7588,W,1,07,1.21,95.8,M,-33.4,M,,*6D
404.33 359.89 6.25 1.26 -0.11 -0.30 -0.54 59.79 1019.45 -0.09 -49.48 $GPGGA,201333.500,3903.4325,N,07726.7588,W,1,07,1.21,95.8,M,-33.4,M,,*6C
404.43 0.06 6.18 1.35 0.48 0.24 0.00 59.78 1019.45 -0.11 -49.47 $GPGGA,201333.600,3903.4325,N,07726.7588,W,1,07,1.21,95.8,M,-33.4,M,,*6F
404.53 359.94 6.08 1.33 -0.59 -0.56 -0.19 59.77 1019.45 -0.11 -49.47 $GPGGA,201333.700,3903.4325,N,07726.7588,W,1,07,1.21,95.7,M,-33.4,M,,*61
404.63 359.63 5.37 1.29 0.16 0.25 0.20 59.75 1019.45 -0.05 -49.49 $GPGGA,201333.800,3903.4325,N,07726.7588,W,1,07,1.21,95.7,M,-33.4,M,,*6E
404.73 359.61 4.19 1.24 0.33 -0.13 -0.25 59.74 1019.44 -0.06 -49.46 $GPGGA,201333.900,3903.4326,N,07726.7588,W,1,07,1.21,95.7,M,-33.4,M,,*6C
404.83 359.28 3.53 1.13 -0.32 0.06 -0.26 59.72 1019.44 -0.08 -49.49 $GPGGA,201334.000,3903.4326,N,07726.7588,W,1,07,1.21,95.7,M,-33.4,M,,*62
404.93 359.21 3.04 1.14 -0.09 -0.21 -0.11 59.71 1019.45 -0.07 -49.46 $GPGGA,201334.100,3903.4326,N,07726.7588,W,1,07,1.21,95.7,M,-33.4,M,,*63
405.03 359.20 2.87 1.13 -0.01 0.00 0.08 59.70 1019.45 -0.06 -49.46 $GPGGA,201334.200,3903.4326,N,07726.7588,W,1,07,1.21,95.7,M,-33.4,M,,*60
405.13 359.22 3.35 1.12 0.16 -0.26 0.02 59.69 1019.44 -0.10 -49.48 $GPGGA,201334.300,3903.4326,N,07726.7588,W,1,07,1.21,95.7,M,-33.4,M,,*61
405.23 359.37 3.69 1.09 0.01 0.00 0.07 59.68 1019.45 -0.04 -49.46 $GPGGA,201334.400,3903.4326,N,07726.7588,W,1,07,1.21,95.7,M,-33.4,M,,*66
405.33 359.52 4.07 1.12 -0.09 -0.11 -0.12 59.67 1019.44 -0.09 -49.49 $GPGGA,201334.500,3903.4326,N,07726.7588,W,1,07,1.21,95.7,M,-33.4,M,,*67
405.43 359.53 4.51 1.14 0.00 -0.05 -0.29 59.66 1019.45 -0.08 -49.49 $GPGGA,201334.600,3903.4326,N,07726.7588,W,1,07,1.21,95.7,M,-33.4,M,,*64
405.53 359.56 4.48 1.11 0.04 -0.10 0.02 59.66 1019.45 0.04 -49.49 $GPGGA,201334.700,3903.4326,N,07726.7588,W,1,07,1.21,95.7,M,-33.4,M,,*65
405.63 359.51 4.37 1.09 -0.13 -0.04 0.20 59.65 1019.43 0.06 -49.48 $GPGGA,201334.800,3903.4326,N,07726.7588,W,1,07,1.21,95.7,M,-33.4,M,,*6A
405.73 359.50 4.35 1.04 -0.02 -0.13 -0.09 59.65 1019.43 -0.03 -49.49 $GPGGA,201334.900,3903.4326,N,07726.7588,W,1,07,1.21,95.7,M,-33.4,M,,*6B
405.83 359.50 4.36 0.97 0.03 -0.19 -0.43 59.64 1019.44 -0.10 -49.47 $GPGGA,201335.000,3903.4326,N,07726.7588,W,1,07,1.14,95.7,M,-33.4,M,,*65
405.93 359.50 4.40 0.96 -0.11 -0.19 -0.07 59.64 1019.45 -0.10 -49.48 $GPGGA,201335.100,3903.4326,N,07726.7588,W,1,07,1.14,95.7,M,-33.4,M,,*64
406.03 359.50 4.55 0.98 -0.10 -0.28 0.16 59.63 1019.45 -0.07 -49.47 $GPGGA,201335.200,3903.4327,N,07726.7588,W,1,07,1.14,95.7,M,-33.4,M,,*66
406.13 359.54 4.67 1.00 -0.16 -0.02 0.07 59.63 1019.45 -0.09 -49.47 $GPGGA,201335.300,3903.4327,N,07726.7587,W,1,07,1.14,95.7,M,-33.4,M,,*68
406.23 359.55 4.78 1.03 0.04 -0.01 1.65 59.62 1019.45 -0.03 -49.48 $GPGGA,201335.400,3903.4327,N,07726.7587,W,1,07,1.14,95.7,M,-33.4,M,,*6F
406.33 359.56 4.86 1.01 0.02 -0.10 -0.22 59.61 1019.44 -0.05 -49.49 $GPGGA,201335.500,3903.4327,N,07726.7587,W,1,07,1.14,95.7,M,-33.4,M,,*6E
406.43 359.56 4.80 1.04 0.03 -0.09 -0.20 59.60 1019.44 -0.06 -49.49 $GPGGA,201335.600,3903.4327,N,07726.7587,W,1,07,1.14,95.7,M,-33.4,M,,*6D
406.53 359.55 4.68 1.06 -0.06 -0.22 0.36 59.60 1019.44 -0.09 -49.48 $GPGGA,201335.700,3903.4327,N,07726.7587,W,1,07,1.14,95.7,M,-33.4,M,,*6C
406.63 359.53 4.54 1.03 0.01 -0.21 -0.27 59.59 1019.45 -0.07 -49.49 $GPGGA,201335.800,3903.4327,N,07726.7587,W,1,07,1.14,95.7,M,-33.4,M,,*63
406.73 359.53 4.37 1.02 0.00 -0.22 -0.13 59.59 1019.45 0.00 -49.51 $GPGGA,201335.900,3903.4327,N,07726.7587,W,1,07,1.14,95.7,M,-33.4,M,,*62
406.83 359.52 4.26 1.00 -0.07 -0.11 -0.09 59.58 1019.44 0.08 -49.50 $GPGGA,201336.000,3903.4327,N,07726.7587,W,1,07,1.14,95.7,M,-33.4,M,,*68
406.93 359.52 4.23 1.02 0.00 -0.14 -0.11 59.58 1019.43 0.09 -49.48 $GPGGA,201336.100,3903.4327,N,07726.7587,W,1,07,1.14,95.7,M,-33.4,M,,*69
407.03 359.52 4.26 1.02 0.00 -0.05 0.09 59.57 1019.43 0.05 -49.49 $GPGGA,201336.200,3903.4328,N,07726.7586,W,1,07,1.14,95.7,M,-33.4,M,,*64
407.13 359.52 4.37 1.03 -0.04 -0.11 -0.03 59.56 1019.43 0.07 -49.48 $GPGGA,201336.300,3903.4328,N,07726.7586,W,1,07,1.14,95.7,M,-33.4,M,,*65
407.23 359.52 4.43 1.05 -0.03 -0.12 -0.17 59.55 1019.43 0.06 -49.49 $GPGGA,201336.400,3903.4328,N,07726.7586,W,1,07,1.14,95.7,M,-33.4,M,,*62
407.33 359.52 4.42 1.05 -0.02 -0.17 -0.04 59.54 1019.43 0.08 -49.50 $GPGGA,201336.500,3903.4328,N,07726.7586,W,1,07,1.14,95.7,M,-33.4,M,,*63
407.43 359.52 4.39 1.05 -0.01 -0.10 0.01 59.52 1019.43 0.06 -49.49 $GPGGA,201336.600,3903.4328,N,07726.7586,W,1,07,1.14,95.7,M,-33.4,M,,*60
407.53 359.52 4.37 1.06 0.00 -0.12 0.00 59.50 1019.43 0.06 -49.48 $GPGGA,201336.700,3903.4328,N,07726.7586,W,1,07,1.14,95.7,M,-33.4,M,,*61
407.63 359.52 4.35 1.06 -0.01 -0.11 -0.06 59.49 1019.43 0.03 -49.49 $GPGGA,201336.800,3903.4328,N,07726.7586,W,1,07,1.14,95.7,M,-33.4,M,,*6E
407.73 359.51 4.38 1.07 -0.05 -0.09 -0.16 59.48 1019.43 0.03 -49.50 $GPGGA,201336.900,3903.4328,N,07726.7586,W,1,07,1.14,95.7,M,-33.4,M,,*6F
407.83 359.51 4.39 1.07 -0.04 -0.06 -0.08 59.49 1019.43 0.04 -49.47 $GPGGA,201337.000,3903.4329,N,07726.7586,W,1,07,1.14,95.7,M,-33.4,M,,*66
407.93 359.51 4.39 1.07 0.00 -0.10 0.02 59.50 1019.43 0.06 -49.49 $GPGGA,201337.200,3903.4329,N,07726.7586,W,1,07,1.21,95.7,M,-33.4,M,,*62
408.03 359.51 4.35 1.07 -0.01 -0.17 -0.01 59.51 1019.43 0.14 -49.48 $GPGGA,201337.300,3903.4329,N,07726.7586,W,1,07,1.21,95.7,M,-33.4,M,,*63
408.13 359.52 4.25 1.06 -0.02 -0.12 -0.06 59.52 1019.42 0.07 -49.48 $GPGGA,201337.400,3903.4329,N,07726.7586,W,1,07,1.21,95.7,M,-33.4,M,,*64
408.23 359.52 4.23 1.06 0.00 -0.20 -0.09 59.54 1019.43 0.14 -49.48 $GPGGA,201337.400,3903.4329,N,07726.7586,W,1,07,1.21,95.7,M,-33.4,M,,*64
408.33 359.51 4.19 1.07 0.00 -0.10 -0.09 59.56 1019.42 0.10 -49.47 $GPGGA,201337.600,3903.4329,N,07726.7586,W,1,07,1.14,95.7,M,-33.4,M,,*60
408.43 359.51 4.28 1.07 -0.04 -0.11 0.00 59.59 1019.43 0.07 -49.48 $GPGGA,201337.700,3903.4330,N,07726.7586,W,1,07,1.14,95.7,M,-33.4,M,,*69
408.53 359.51 4.41 1.08 0.00 -0.09 -0.07 59.61 1019.43 0.03 -49.48 $GPGGA,201337.800,3903.4330,N,07726.7586,W,1,07,1.14,95.7,M,-33.4,M,,*66
408.63 359.52 4.50 1.08 -0.02 -0.13 -0.10 59.63 1019.43 -0.08 -49.49 $GPGGA,201337.800,3903.4330,N,07726.7586,W,1,07,1.14,95.7,M,-33.4,M,,*66
408.73 359.52 4.51 1.09 -0.05 -0.09 -0.08 59.64 1019.45 -0.20 -49.48 $GPGGA,201337.900,3903.4330,N,07726.7585,W,1,07,1.14,95.7,M,-33.4,M,,*64
408.83 359.52 4.44 1.09 0.00 -0.14 -0.01 59.66 1019.46 -0.21 -49.49 $GPGGA,201338.000,3903.4330,N,07726.7585,W,1,07,1.14,95.7,M,-33.4,M,,*62
408.93 359.51 4.33 1.09 0.00 -0.12 0.00 59.67 1019.46 -0.19 -49.51 $GPGGA,201338.100,3903.4330,N,07726.7585,W,1,07,1.14,95.7,M,-33.4,M,,*63
409.03 359.51 4.20 1.10 -0.05 -0.13 -0.05 59.68 1019.46 -0.17 -49.49 $GPGGA,201338.300,3903.4330,N,07726.7585,W,1,07,1.14,95.7,M,-33.4,M,,*61
409.13 359.51 4.16 1.10 0.04 -0.10 -0.10 59.69 1019.46 -0.19 -49.49 $GPGGA,201338.400,3903.4330,N,07726.7585,W,1,07,1.14,95.7,M,-33.4,M,,*66
409.23 359.51 4.14 1.10 -0.01 -0.13 -0.10 59.71 1019.46 -0.11 -49.48 $GPGGA,201338.500,3903.4330,N,07726.7585,W,1,07,1.14,95.7,M,-33.4,M,,*67
409.33 359.51 4.27 1.11 -0.01 -0.11 -0.04 59.72 1019.45 -0.08 -49.49 $GPGGA,201338.600,3903.4330,N,07726.7585,W,1,07,1.14,95.7,M,-33.4,M,,*64
409.43 359.52 4.45 1.10 -0.01 -0.08 -0.02 59.73 1019.45 -0.10 -49.49 $GPGGA,201338.700,3903.4330,N,07726.7585,W,1,07,1.14,95.7,M,-33.4,M,,*65
409.53 359.54 4.65 1.11 -0.04 -0.14 -0.05 59.74 1019.45 -0.22 -49.48 $GPGGA,201338.800,3903.4330,N,07726.7585,W,1,07,1.14,95.7,M,-33.4,M,,*6A
409.63 359.55 4.84 1.11 -0.02 -0.08 -0.08 59.76 1019.46 -0.35 -49.47 $GPGGA,201338.900,3903.4330,N,07726.7584,W,1,07,1.14,95.7,M,-33.4,M,,*6A
409.73 359.55 4.90 1.11 -0.03 -0.11 -0.07 59.77 1019.48 -0.40 -49.49 $GPGGA,201339.000,3903.4331,N,07726.7584,W,1,07,1.14,95.7,M,-33.4,M,,*63
409.83 359.55 4.83 1.10 -0.03 -0.04 -0.04 59.78 1019.49 -0.39 -49.48 $GPGGA,201339.100,3903.4331,N,07726.7584,W,1,07,1.14,95.7,M,-33.4,M,,*62
409.93 359.54 4.64 1.11 -0.02 -0.10 -0.03 59.79 1019.48 -0.46 -49.48 $GPGGA,201339.200,3903.4331,N,07726.7584,W,1,07,1.14,95.7,M,-33.4,M,,*61
410.03 359.50 4.37 1.10 -0.04 -0.07 -0.05 59.80 1019.49 -0.48 -49.49 $GPGGA,201339.300,3903.4331,N,07726.7584,W,1,07,1.14,95.7,M,-33.4,M,,*60
410.13 359.49 4.21 1.10 0.00 -0.19 -0.08 59.80 1019.50 -0.41 -49.50 $GPGGA,201339.300,3903.4331,N,07726.7584,W,1,07,1.14,95.7,M,-33.4,M,,*60
410.23 359.49 4.18 1.10 0.01 -0.15 -0.06 59.80 1019.49 -0.19 -49.48 $GPGGA,201339.400,3903.4331,N,07726.7584,W,1,07,1.14,95.7,M,-33.4,M,,*67
410.33 359.50 4.36 1.11 -0.03 -0.19 -0.05 59.80 1019.46 -0.14 -49.48 $GPGGA,201339.500,3903.4331,N,07726.7584,W,1,07,1.14,95.7,M,-33.4,M,,*66
410.43 359.58 4.69 1.12 0.00 -0.14 -0.08 59.80 1019.45 -0.13 -49.49 $GPGGA,201339.600,3903.4331,N,07726.7584,W,1,07,1.14,95.7,M,-33.4,M,,*65
410.53 359.70 4.98 1.13 0.00 -0.10 -0.05 59.80 1019.45 -0.31 -49.49 $GPGGA,201339.700,3903.4331,N,07726.7584,W,1,07,1.14,95.7,M,-33.4,M,,*64
410.63 359.71 5.09 1.14 -0.07 -0.06 -0.04 59.80 1019.48 -0.51 -49.50 $GPGGA,201339.800,3903.4331,N,07726.7583,W,1,07,1.14,95.7,M,-33.4,M,,*6C
410.73 359.69 4.83 1.14 0.01 -0.06 -0.09 59.80 1019.50 -0.65 -49.50 $GPGGA,201339.900,3903.4331,N,07726.7583,W,1,08,0.97,95.7,M,-33.4,M,,*68
410.83 359.57 4.34 1.13 0.00 -0.09 -0.07 59.80 1019.52 -0.79 -49.49 $GPGGA,201340.000,3903.4331,N,07726.7583,W,1,07,1.14,95.7,M,-33.4,M,,*6A
410.93 359.42 3.80 1.13 -0.04 -0.18 -0.06 59.81 1019.53 -0.61 -49.49 $GPGGA,201340.100,3903.4331,N,07726.7583,W,1,07,1.14,95.7,M,-33.4,M,,*6B
411.03 359.36 3.40 1.12 0.03 -0.17 -0.05 59.81 1019.51 -0.50 -49.47 $GPGGA,201340.200,3903.4331,N,07726.7583,W,1,07,1.14,95.7,M,-33.4,M,,*68
411.13 359.36 3.43 1.12 0.00 -0.20 -0.07 59.83 1019.50 -0.57 -49.47 $GPGGA,201340.300,3903.4331,N,07726.7583,W,1,08,0.97,95.7,M,-33.4,M,,*6C
411.23 359.46 3.69 1.13 -0.03 -0.16 -0.06 59.83 1019.51 -0.50 -49.50 $GPGGA,201340.400,3903.4331,N,07726.7583,W,1,08,0.97,95.7,M,-33.4,M,,*6B
411.33 359.60 4.08 1.14 0.02 -0.06 -0.09 59.84 1019.50 -0.43 -49.48 $GPGGA,201340.500,3903.4331,N,07726.7583,W,1,08,0.97,95.7,M,-33.4,M,,*6A
411.43 359.64 4.49 1.15 -0.07 -0.12 -0.06 59.84 1019.49 -0.44 -49.48 $GPGGA,201340.600,3903.4331,N,07726.7583,W,1,07,1.14,95.7,M,-33.4,M,,*6C
411.53 359.68 4.63 1.16 0.00 -0.07 -0.06 59.84 1019.49 -0.42 -49.49 $GPGGA,201340.700,3903.4331,N,07726.7583,W,1,07,1.14,95.7,M,-33.4,M,,*6D
411.63 359.67 4.55 1.16 0.00 -0.06 -0.11 59.85 1019.49 -0.47 -49.48 $GPGGA,201340.800,3903.4331,N,07726.7583,W,1,07,1.14,95.7,M,-33.4,M,,*62
411.73 359.59 4.38 1.16 -0.05 -0.16 -0.11 59.85 1019.49 -0.47 -49.47 $GPGGA,201340.900,3903.4331,N,07726.7582,W,1,07,1.14,95.7,M,-33.4,M,,*62
411.83 359.56 3.99 1.16 0.06 -0.11 -0.04 59.86 1019.49 -0.43 -49.50 $GPGGA,201341.000,3903.4331,N,07726.7582,W,1,07,1.14,95.7,M,-33.4,M,,*6A
411.93 359.50 3.61 1.15 -0.03 -0.08 -0.03 59.87 1019.49 -0.31 -49.50 $GPGGA,201341.100,3903.4331,N,07726.7582,W,1,07,1.14,95.7,M,-33.4,M,,*6B
412.03 359.42 3.58 1.17 0.00 -0.24 -0.11 59.87 1019.47 -0.23 -49.49 $GPGGA,201341.200,3903.4331,N,07726.7582,W,1,07,1.14,95.7,M,-33.4,M,,*68
412.13 359.52 3.73 1.15 0.06 -0.08 -0.10 59.88 1019.47 -0.08 -49.48 $GPGGA,201341.300,3903.4331,N,07726.7582,W,1,07,1.14,95.7,M,-33.4,M,,*69
412.23 359.66 4.09 1.16 -0.10 -0.05 -0.03 59.88 1019.45 -0.02 -49.51 $GPGGA,201341.500,3903.4331,N,07726.7582,W,1,07,1.14,95.7,M,-33.4,M,,*6F
412.33 359.67 4.51 1.19 -0.01 -0.08 -0.07 59.88 1019.44 -0.18 -49.49 $GPGGA,201341.600,3903.4332,N,07726.7582,W,1,07,1.14,95.7,M,-33.4,M,,*6F
412.43 359.71 4.53 1.18 0.07 0.00 -0.01 59.87 1019.46 -0.32 -49.47 $GPGGA,201341.700,3903.4332,N,07726.7582,W,1,07,1.14,95.7,M,-33.4,M,,*6E
412.53 359.66 4.37 1.18 -0.09 -0.06 -0.03 59.87 1019.48 -0.49 -49.48 $GPGGA,201341.700,3903.4332,N,07726.7582,W,1,07,1.14,95.7,M,-33.4,M,,*6E
412.63 359.56 4.10 1.20 0.00 -0.17 -0.06 59.87 1019.50 -0.50 -49.48 $GPGGA,201341.800,3903.4332,N,07726.7582,W,1,07,1.14,95.7,M,-33.4,M,,*61
412.73 359.55 3.73 1.18 0.12 -0.06 -0.06 59.86 1019.50 -0.39 -49.48 $GPGGA,201341.900,3903.4332,N,07726.7582,W,1,07,1.14,95.7,M,-33.4,M,,*60
412.83 359.50 3.54 1.17 -0.10 -0.17 -0.05 59.85 1019.49 -0.25 -49.48 $GPGGA,201342.000,3903.4332,N,07726.7582,W,1,07,1.14,95.7,M,-33.4,M,,*6A
412.93 359.47 3.49 1.20 0.04 -0.15 -0.04 59.84 1019.47 -0.28 -49.50 $GPGGA,201342.100,3903.4332,N,07726.7582,W,1,07,1.14,95.7,M,-33.4,M,,*6B
413.03 359.51 3.52 1.16 0.09 -0.04 -0.01 59.84 1019.47 -0.12 -49.49 $GPGGA,201342.200,3903.4332,N,07726.7582,W,1,07,1.14,95.7,M,-33.4,M,,*68
413.13 359.59 3.85 1.17 -0.09 -0.13 -0.03 59.83 1019.45 -0.02 -49.48 $GPGGA,201342.300,3903.4332,N,07726.7582,W,1,07,1.14,95.7,M,-33.4,M,,*69
413.23 359.67 4.32 1.18 0.01 -0.06 -0.08 59.83 1019.44 -0.10 -49.48 $GPGGA,201342.400,3903.4332,N,07726.7582,W,1,07,1.14,95.7,M,-33.4,M,,*6E
413.33 359.79 4.62 1.18 0.13 -0.02 -0.07 59.83 1019.45 -0.32 -49.47 $GPGGA,201342.500,3903.4332,N,07726.7582,W,1,07,1.14,95.7,M,-33.4,M,,*6F
413.43 359.84 4.79 1.19 -0.20 -0.06 -0.16 59.84 1019.48 -0.45 -49.49 $GPGGA,201342.600,3903.4332,N,07726.7582,W,1,08,0.97,95.7,M,-33.4,M,,*69
413.53 359.84 4.89 1.19 0.03 -0.10 -0.48 59.84 1019.49 -0.65 -49.48 $GPGGA,201342.700,3903.4332,N,07726.7582,W,1,08,0.97,95.7,M,-33.4,M,,*68
413.63 359.83 4.70 1.17 -0.27 -0.17 -0.24 59.85 1019.52 -0.68 -49.50 $GPGGA,201342.800,3903.4332,N,07726.7582,W,1,08,0.97,95.7,M,-33.4,M,,*67
413.73 359.82 4.19 1.20 0.31 0.02 -0.09 59.85 1019.52 -0.70 -49.49 $GPGGA,201342.900,3903.4332,N,07726.7581,W,1,08,0.97,95.7,M,-33.4,M,,*65
413.83 359.77 3.97 1.21 -0.20 -0.18 0.27 59.85 1019.52 -0.75 -49.49 $GPGGA,201343.000,3903.4332,N,07726.7581,W,1,08,0.97,95.7,M,-33.4,M,,*6D
413.93 359.69 3.88 1.18 -0.05 -0.18 0.00 59.86 1019.53 -0.58 -49.49 $GPGGA,201343.100,3903.4332,N,07726.7581,W,1,08,0.97,95.7,M,-33.4,M,,*6C
414.03 359.76 3.79 1.19 0.00 0.01 -0.36 59.86 1019.51 -0.53 -49.48 $GPGGA,201343.200,3903.4332,N,07726.7581,W,1,08,0.97,95.7,M,-33.4,M,,*6F
414.13 359.78 4.16 1.19 -0.23 -0.15 -0.16 59.85 1019.50 -0.59 -49.49 $GPGGA,201343.300,3903.4333,N,07726.7581,W,1,08,0.97,95.7,M,-33.4,M,,*6F
414.23 359.82 4.61 1.19 -0.24 -0.13 0.20 59.85 1019.51 -0.61 -49.49 $GPGGA,201343.400,3903.4333,N,07726.7581,W,1,08,0.97,95.7,M,-33.4,M,,*68
414.33 359.97 4.91 1.21 0.18 -0.01 -0.28 59.84 1019.51 -0.67 -49.49 $GPGGA,201343.500,3903.4333,N,07726.7581,W,1,08,0.97,95.7,M,-33.4,M,,*69
414.43 0.07 5.14 1.22 0.00 -0.28 -0.19 59.84 1019.52 -0.89 -49.49 $GPGGA,201343.600,3903.4333,N,07726.7581,W,1,08,0.97,95.7,M,-33.4,M,,*6A
414.53 0.08 5.33 1.24 0.09 -0.10 -0.22 59.85 1019.54 -0.95 -49.50 $GPGGA,201343.700,3903.4333,N,07726.7581,W,1,08,0.97,95.7,M,-33.4,M,,*6B
414.63 0.16 5.30 1.30 -0.07 -0.15 -0.09 59.84 1019.55 -0.87 -49.49 $GPGGA,201343.800,3903.4333,N,07726.7581,W,1,08,1.01,95.7,M,-33.4,M,,*6A
414.73 0.20 5.24 1.31 0.00 0.07 0.20 59.84 1019.54 -0.98 -49.46 $GPGGA,201344.000,3903.4333,N,07726.7581,W,1,07,1.21,95.7,M,-33.4,M,,*68
414.83 0.22 5.57 1.32 -0.05 -0.02 0.14 59.84 1019.56 -0.91 -49.48 $GPGGA,201344.100,3903.4333,N,07726.7581,W,1,07,1.21,95.7,M,-33.4,M,,*69
414.93 0.23 5.81 1.35 0.08 -0.13 -0.27 59.85 1019.55 -0.68 -49.49 $GPGGA,201344.200,3903.4333,N,07726.7581,W,1,07,1.21,95.7,M,-33.4,M,,*6A
415.03 0.31 5.80 1.35 -0.33 -0.32 -0.05 59.85 1019.52 -0.53 -49.48 $GPGGA,201344.300,3903.4333,N,07726.7581,W,1,07,1.21,95.7,M,-33.4,M,,*6B
415.13 0.31 5.87 1.36 -0.17 -0.12 -0.13 59.86 1019.50 -0.46 -49.48 $GPGGA,201344.400,3903.4333,N,07726.7581,W,1,07,1.21,95.7,M,-33.4,M,,*6C
415.23 0.30 5.80 1.38 -0.03 -0.15 0.00 59.87 1019.49 -0.63 -49.49 $GPGGA,201344.400,3903.4333,N,07726.7581,W,1,07,1.21,95.7,M,-33.4,M,,*6C
415.33 0.29 5.61 1.36 -0.08 -0.07 0.01 59.87 1019.51 -0.47 -49.49 $GPGGA,201344.500,3903.4333,N,07726.7581,W,1,07,1.21,95.7,M,-33.4,M,,*6D
415.43 0.29 5.39 1.36 -0.01 -0.02 0.14 59.87 1019.49 -0.37 -49.51 $GPGGA,201344.700,3903.4333,N,07726.7581,W,1,07,1.21,95.7,M,-33.4,M,,*6F
415.53 0.24 5.16 1.34 0.09 -0.08 -0.17 59.87 1019.48 -0.30 -49.49 $GPGGA,201344.800,3903.4333,N,07726.7581,W,1,08,1.01,95.7,M,-33.4,M,,*6D
415.63 0.18 4.77 1.35 -0.22 -0.08 0.02 59.87 1019.47 -0.45 -49.48 $GPGGA,201344.800,3903.4333,N,07726.7581,W,1,08,1.01,95.7,M,-33.4,M,,*6D
415.73 0.09 4.43 1.36 0.01 -0.20 0.04 59.87 1019.49 -0.51 -49.50 $GPGGA,201345.000,3903.4333,N,07726.7581,W,1,08,1.01,95.7,M,-33.4,M,,*64
415.83 0.03 4.02 1.33 0.12 -0.20 -0.10 59.87 1019.50 -0.55 -49.48 $GPGGA,201345.100,3903.4333,N,07726.7581,W,1,07,1.21,95.7,M,-33.4,M,,*68
415.93 0.06 3.84 1.32 -0.04 -0.12 -0.08 59.88 1019.50 -0.49 -49.49 $GPGGA,201345.200,3903.4333,N,07726.7581,W,1,07,1.21,95.7,M,-33.4,M,,*6B
416.03 0.09 4.39 1.35 0.08 -0.08 0.03 59.89 1019.50 -0.43 -49.46 $GPGGA,201345.300,3903.4334,N,07726.7581,W,1,07,1.21,95.7,M,-33.4,M,,*6D
416.13 0.21 5.19 1.37 0.05 -0.04 -0.07 59.90 1019.49 -0.58 -49.48 $GPGGA,201345.400,3903.4334,N,07726.7581,W,1,07,1.21,95.7,M,-33.4,M,,*6A
416.23 0.34 5.56 1.37 0.06 -0.01 0.02 59.91 1019.51 -0.51 -49.48 $GPGGA,201345.500,3903.4334,N,07726.7581,W,1,07,1.21,95.7,M,-33.4,M,,*6B
416.33 0.35 5.64 1.36 0.02 -0.07 0.00 59.91 1019.50 -0.48 -49.48 $GPGGA,201345.600,3903.4334,N,07726.7581,W,1,07,1.21,95.7,M,-33.4,M,,*68
416.43 0.34 5.39 1.36 0.01 -0.02 -0.16 59.92 1019.50 -0.42 -49.50 $GPGGA,201345.700,3903.4334,N,07726.7581,W,1,07,1.21,95.7,M,-33.4,M,,*69
416.53 0.34 5.15 1.36 0.00 -0.06 -0.14 59.91 1019.49 -0.32 -49.51 $GPGGA,201345.800,3903.4334,N,07726.7581,W,1,07,1.15,95.7,M,-33.4,M,,*61
416.63 0.31 4.96 1.36 -0.04 -0.07 -0.10 59.91 1019.48 -0.32 -49.48 $GPGGA,201345.900,3903.4334,N,07726.7581,W,1,07,1.14,95.7,M,-33.4,M,,*61
416.73 0.31 4.99 1.37 0.05 -0.06 -0.05 59.91 1019.48 -0.39 -49.50 $GPGGA,201346.000,3903.4334,N,07726.7581,W,1,07,1.14,95.7,M,-33.4,M,,*6B
416.83 0.36 5.19 1.37 0.01 -0.06 0.00 59.92 1019.48 -0.36 -49.46 $GPGGA,201346.100,3903.4334,N,07726.7581,W,1,07,1.14,95.7,M,-33.4,M,,*6A
416.93 0.38 5.48 1.37 0.00 -0.09 0.17 59.93 1019.48 -0.35 -49.48 $GPGGA,201346.200,3903.4334,N,07726.7581,W,1,07,1.14,95.7,M,-33.4,M,,*69
417.03 0.41 5.64 1.38 -0.03 -0.10 0.00 59.95 1019.48 -0.41 -49.50 $GPGGA,201346.300,3903.4334,N,07726.7582,W,1,07,1.14,95.7,M,-33.4,M,,*6B
417.13 0.43 5.72 1.38 0.03 0.02 0.00 59.96 1019.49 -0.44 -49.51 $GPGGA,201346.400,3903.4334,N,07726.7582,W,1,07,1.14,95.7,M,-33.4,M,,*6C
417.23 0.43 5.88 1.38 -0.03 -0.06 0.00 59.97 1019.49 -0.45 -49.49 $GPGGA,201346.500,3903.4334,N,07726.7582,W,1,07,1.15,95.7,M,-33.4,M,,*6C
417.33 0.38 5.96 1.38 0.07 0.05 1.24 59.98 1019.49 -0.61 -49.48 $GPGGA,201346.600,3903.4334,N,07726.7582,W,1,07,1.14,95.7,M,-33.4,M,,*6E
417.43 0.43 5.72 1.37 -0.10 0.09 0.40 59.99 1019.51 -0.58 -49.49 $GPGGA,201346.700,3903.4334,N,07726.7582,W,1,07,1.15,95.7,M,-33.4,M,,*6E
417.53 0.41 5.73 1.37 0.00 0.07 -0.17 60.00 1019.51 -0.47 -49.48 $GPGGA,201346.700,3903.4334,N,07726.7582,W,1,07,1.15,95.7,M,-33.4,M,,*6E
417.63 0.34 5.75 1.34 0.44 -0.32 0.58 60.02 1019.49 -0.34 -49.50 $GPGGA,201346.800,3903.4334,N,07726.7582,W,1,07,1.14,95.7,M,-33.4,M,,*60
417.73 0.16 4.94 1.27 -0.19 -0.28 0.21 60.03 1019.48 -0.17 -49.49 $GPGGA,201346.900,3903.4334,N,07726.7582,W,1,07,1.15,95.7,M,-33.4,M,,*60
417.83 0.02 4.86 1.38 -1.22 -0.83 0.12 60.05 1019.46 -0.29 -49.46 $GPGGA,201347.000,3903.4334,N,07726.7582,W,1,07,1.14,95.7,M,-33.4,M,,*69
417.93 0.87 5.31 1.45 0.26 -0.91 -1.68 60.06 1019.47 -0.29 -49.48 $GPGGA,201347.100,3903.4334,N,07726.7582,W,1,07,1.14,95.7,M,-33.4,M,,*68
418.03 1.41 6.08 1.56 0.69 -0.53 0.96 60.06 1019.47 -0.56 -49.48 $GPGGA,201347.200,3903.4334,N,07726.7582,W,1,07,1.14,95.7,M,-33.4,M,,*6B
418.13 1.02 6.81 1.52 -0.97 0.47 -0.93 60.07 1019.51 -0.63 -49.49 $GPGGA,201347.400,3903.4334,N,07726.7582,W,1,07,1.14,95.7,M,-33.4,M,,*6D
418.23 0.98 5.66 1.42 -0.54 -0.09 -0.67 60.07 1019.51 -0.68 -49.47 $GPGGA,201347.500,3903.4334,N,07726.7582,W,1,07,1.14,95.7,M,-33.4,M,,*6C
418.33 1.06 4.60 1.31 0.11 -0.23 -0.32 60.06 1019.52 -0.58 -49.48 $GPGGA,201347.600,3903.4334,N,07726.7582,W,1,07,1.15,95.7,M,-33.4,M,,*6E
418.43 0.68 5.56 1.30 -0.28 0.29 -0.08 60.05 1019.51 -0.40 -49.49 $GPGGA,201347.700,3903.4334,N,07726.7582,W,1,07,1.14,95.7,M,-33.4,M,,*6E
418.53 0.85 5.88 1.40 -0.01 -0.50 0.65 60.04 1019.49 -0.41 -49.48 $GPGGA,201347.700,3903.4334,N,07726.7582,W,1,07,1.14,95.7,M,-33.4,M,,*6E
418.63 1.08 5.65 1.38 0.41 0.07 -0.17 60.03 1019.49 -0.63 -49.48 $GPGGA,201347.800,3903.4334,N,07726.7582,W,1,08,0.97,95.7,M,-33.4,M,,*64
418.73 1.19 6.36 1.45 -0.09 0.07 0.42 60.03 1019.51 -0.76 -49.48 $GPGGA,201347.900,3903.4334,N,07726.7582,W,1,08,0.97,95.7,M,-33.4,M,,*65
418.83 1.41 7.27 1.51 0.05 -0.45 0.59 60.02 1019.53 -0.58 -49.49 $GPGGA,201348.000,3903.4334,N,07726.7582,W,1,08,0.97,95.7,M,-33.4,M,,*63
418.93 1.61 7.76 1.59 -0.36 -0.53 0.70 60.01 1019.51 -0.82 -49.48 $GPGGA,201348.100,3903.4334,N,07726.7582,W,1,08,0.97,95.7,M,-33.4,M,,*62
419.03 1.68 7.96 1.63 -0.34 -0.46 0.59 60.00 1019.54 -0.89 -49.47 $GPGGA,201348.200,3903.4334,N,07726.7582,W,1,08,0.97,95.7,M,-33.4,M,,*61
419.13 1.50 7.58 1.44 0.03 -0.33 -0.82 60.00 1019.54 -0.96 -49.49 $GPGGA,201348.400,3903.4334,N,07726.7582,W,1,07,1.14,95.7,M,-33.4,M,,*62
419.23 1.09 7.01 1.38 -0.11 -0.19 0.22 59.99 1019.55 -1.00 -49.50 $GPGGA,201348.400,3903.4334,N,07726.7582,W,1,07,1.14,95.7,M,-33.4,M,,*62
419.33 0.98 6.04 1.32 -0.12 -0.28 -0.40 59.99 1019.56 -0.96 -49.47 $GPGGA,201348.600,3903.4334,N,07726.7582,W,1,07,1.15,95.7,M,-33.4,M,,*61
419.43 1.04 5.48 1.37 -0.31 -0.15 0.10 59.98 1019.55 -1.05 -49.49 $GPGGA,201348.700,3903.4335,N,07726.7583,W,1,07,1.15,95.7,M,-33.4,M,,*60
419.53 1.04 5.86 1.36 0.00 -0.20 -0.19 59.98 1019.56 -0.96 -49.48 $GPGGA,201348.800,3903.4335,N,07726.7583,W,1,07,1.15,95.7,M,-33.4,M,,*6F
419.63 1.05 6.23 1.38 -0.15 0.12 -0.26 59.98 1019.55 -0.94 -49.48 $GPGGA,201348.900,3903.4335,N,07726.7583,W,1,07,1.15,95.7,M,-33.4,M,,*6E
419.73 1.11 6.13 1.39 -0.14 0.15 -0.03 59.98 1019.55 -0.88 -49.48 $GPGGA,201348.900,3903.4335,N,07726.7583,W,1,07,1.15,95.7,M,-33.4,M,,*6E
419.83 1.02 6.04 1.38 0.05 -0.22 0.29 59.98 1019.54 -0.99 -49.48 $GPGGA,201349.000,3903.4335,N,07726.7583,W,1,08,0.97,95.7,M,-33.4,M,,*62
419.93 0.90 5.74 1.33 -0.20 -0.16 -0.16 59.99 1019.56 -1.03 -49.48 $GPGGA,201349.100,3903.4335,N,07726.7583,W,1,08,0.97,95.7,M,-33.4,M,,*63
420.03 0.89 5.36 1.34 0.21 -0.33 0.01 60.00 1019.56 -1.09 -49.48 $GPGGA,201349.200,3903.4335,N,07726.7583,W,1,08,0.97,95.7,M,-33.4,M,,*60
420.13 0.89 5.25 1.28 -0.01 -0.07 -0.14 60.01 1019.57 -0.91 -49.50 $GPGGA,201349.300,3903.4335,N,07726.7583,W,1,08,0.97,95.7,M,-33.4,M,,*61
420.23 0.91 5.37 1.33 0.02 -0.14 0.00 60.01 1019.55 -0.94 -49.47 $GPGGA,201349.400,3903.4335,N,07726.7583,W,1,08,0.97,95.7,M,-33.4,M,,*66
420.33 0.98 5.32 1.34 -0.11 0.05 -0.30 60.02 1019.55 -0.93 -49.48 $GPGGA,201349.500,3903.4335,N,07726.7583,W,1,07,1.26,95.7,M,-33.4,M,,*63
420.43 0.93 5.52 1.33 -0.14 -0.09 -0.02 60.02 1019.55 -0.96 -49.48 $GPGGA,201349.600,3903.4335,N,07726.7583,W,1,07,1.26,95.7,M,-33.4,M,,*60
420.53 0.94 5.60 1.35 -0.06 -0.12 0.29 60.02 1019.55 -1.08 -49.49 $GPGGA,201349.700,3903.4335,N,07726.7583,W,1,07,1.26,95.7,M,-33.4,M,,*61
420.63 0.96 5.65 1.32 0.00 -0.14 0.06 60.02 1019.57 -1.14 -49.49 $GPGGA,201349.800,3903.4335,N,07726.7583,W,1,07,1.26,95.7,M,-33.4,M,,*6E
420.73 0.90 5.72 1.31 0.03 -0.13 -0.28 60.02 1019.58 -1.23 -49.49 $GPGGA,201349.900,3903.4335,N,07726.7583,W,1,07,1.26,95.7,M,-33.4,M,,*6F
420.83 0.85 5.41 1.31 0.00 -0.07 -0.09 60.01 1019.59 -1.14 -49.48 $GPGGA,201350.000,3903.4335,N,07726.7584,W,1,07,1.26,95.7,M,-33.4,M,,*69
420.93 0.78 4.93 1.29 -0.02 -0.05 -0.13 60.01 1019.57 -1.02 -49.49 $GPGGA,201350.100,3903.4336,N,07726.7584,W,1,07,1.26,95.7,M,-33.4,M,,*6B
421.03 0.70 4.87 1.29 0.01 -0.05 -0.04 60.01 1019.56 -0.89 -49.49 $GPGGA,201350.300,3903.4336,N,07726.7584,W,1,06,1.52,95.7,M,-33.4,M,,*6B
421.13 0.70 4.76 1.26 0.11 -0.10 -0.11 60.01 1019.54 -0.73 -49.48 $GPGGA,201350.400,3903.4336,N,07726.7584,W,1,06,1.52,95.7,M,-33.4,M,,*6C
421.23 0.70 4.84 1.26 0.05 -0.15 0.00 60.02 1019.53 -0.70 -49.49 $GPGGA,201350.500,3903.4336,N,07726.7584,W,1,06,1.52,95.7,M,-33.4,M,,*6D
421.33 0.72 5.04 1.27 0.02 -0.11 -0.11 60.02 1019.52 -0.70 -49.48 $GPGGA,201350.600,3903.4336,N,07726.7584,W,1,06,1.52,95.7,M,-33.4,M,,*6E
421.43 0.75 5.21 1.28 -0.06 -0.01 0.00 60.03 1019.52 -0.73 -49.48 $GPGGA,201350.700,3903.4336,N,07726.7584,W,1,06,1.52,95.7,M,-33.4,M,,*6F
421.53 0.76 5.36 1.28 -0.06 -0.14 0.04 60.04 1019.53 -0.78 -49.47 $GPGGA,201350.800,3903.4336,N,07726.7584,W,1,06,1.52,95.7,M,-33.4,M,,*60
421.63 0.76 5.34 1.30 -0.05 -0.10 -0.07 60.05 1019.53 -0.89 -49.46 $GPGGA,201350.800,3903.4336,N,07726.7584,W,1,06,1.52,95.7,M,-33.4,M,,*60
421.73 0.75 5.30 1.30 0.11 -0.14 0.01 60.06 1019.55 -0.95 -49.48 $GPGGA,201350.900,3903.4336,N,07726.7584,W,1,06,1.52,95.7,M,-33.4,M,,*61
421.83 0.75 5.20 1.28 -0.09 -0.05 0.03 60.08 1019.55 -1.01 -49.49 $GPGGA,201351.000,3903.4336,N,07726.7584,W,1,06,1.52,95.7,M,-33.4,M,,*69
421.93 0.75 5.17 1.30 0.02 -0.17 -0.03 60.09 1019.56 -0.94 -49.49 $GPGGA,201351.100,3903.4336,N,07726.7584,W,1,06,1.52,95.7,M,-33.4,M,,*68
422.03 0.75 5.12 1.30 0.04 -0.08 -0.02 60.10 1019.55 -0.87 -49.47 $GPGGA,201351.200,3903.4336,N,07726.7584,W,1,06,1.52,95.7,M,-33.4,M,,*6B
422.13 0.74 5.01 1.30 -0.13 -0.03 -0.09 60.10 1019.54 -0.85 -49.48 $GPGGA,201351.400,3903.4336,N,07726.7584,W,1,06,1.52,95.7,M,-33.4,M,,*6D
422.23 0.71 4.94 1.32 -0.03 -0.16 0.10 60.10 1019.54 -0.74 -49.48 $GPGGA,201351.500,3903.4336,N,07726.7584,W,1,06,1.52,95.7,M,-33.4,M,,*6C
422.33 0.70 4.90 1.25 0.16 -0.12 0.10 60.10 1019.53 -0.64 -49.49 $GPGGA,201351.500,3903.4336,N,07726.7584,W,1,06,1.52,95.7,M,-33.4,M,,*6C
422.43 0.70 4.89 1.22 -0.20 -0.16 0.03 60.10 1019.52 -0.67 -49.47 $GPGGA,201351.600,3903.4336,N,07726.7584,W,1,06,1.52,95.7,M,-33.4,M,,*6F
422.53 0.73 4.96 1.21 -0.08 -0.24 0.00 60.09 1019.52 -0.70 -49.48 $GPGGA,201351.700,3903.4336,N,07726.7584,W,1,06,1.52,95.7,M,-33.4,M,,*6E
422.63 0.73 4.94 1.23 -0.13 0.05 -0.15 60.09 1019.52 -0.81 -49.50 $GPGGA,201351.800,3903.4336,N,07726.7585,W,1,06,1.52,95.7,M,-33.4,M,,*60
422.73 0.77 4.74 1.21 0.04 0.07 0.15 60.09 1019.54 -0.81 -49.47 $GPGGA,201351.900,3903.4336,N,07726.7585,W,1,06,1.52,95.7,M,-33.4,M,,*61
422.83 0.79 4.23 1.19 0.05 0.22 0.30 60.10 1019.54 -0.80 -49.50 $GPGGA,201352.000,3903.4336,N,07726.7585,W,1,06,1.52,95.7,M,-33.4,M,,*6B
422.93 0.79 3.99 1.35 -0.25 -0.29 -0.07 60.10 1019.53 -0.77 -49.47 $GPGGA,201352.200,3903.4336,N,07726.7585,W,1,06,1.52,95.7,M,-33.4,M,,*69
423.03 0.49 3.83 1.72 -0.06 -0.35 0.37 60.11 1019.53 -0.63 -49.49 $GPGGA,201352.300,3903.4336,N,07726.7585,W,1,06,1.52,95.7,M,-33.4,M,,*68
423.13 359.95 3.73 1.90 0.06 -0.21 0.44 60.12 1019.51 -0.52 -49.48 $GPGGA,201352.400,3903.4336,N,07726.7585,W,1,06,1.52,95.7,M,-33.4,M,,*6F
423.23 359.41 3.84 1.62 0.14 -0.11 0.53 60.12 1019.50 -0.25 -49.50 $GPGGA,201352.500,3903.4335,N,07726.7585,W,1,06,1.52,95.7,M,-33.4,M,,*6D
423.33 359.12 3.51 0.88 0.04 -0.14 0.55 60.12 1019.47 -0.04 -49.51 $GPGGA,201352.600,3903.4335,N,07726.7585,W,1,06,1.52,95.7,M,-33.4,M,,*6E
423.43 359.15 3.03 -0.30 -0.06 -0.18 0.52 60.12 1019.44 -0.02 -49.49 $GPGGA,201352.700,3903.4335,N,07726.7585,W,1,06,1.52,95.7,M,-33.4,M,,*6F
423.53 359.46 2.68 -1.74 -0.62 0.01 0.22 60.11 1019.44 -0.42 -49.48 $GPGGA,201352.800,3903.4335,N,07726.7585,W,1,06,1.52,95.7,M,-33.4,M,,*60
423.63 359.93 2.66 -3.10 -0.29 -0.09 -0.54 60.10 1019.49 -0.89 -49.50 $GPGGA,201352.900,3903.4335,N,07726.7585,W,1,06,1.52,95.7,M,-33.4,M,,*61
423.73 0.79 2.83 -4.41 -0.04 -0.03 -0.65 60.09 1019.55 -1.62 -49.49 $GPGGA,201353.000,3903.4335,N,07726.7585,W,1,06,1.52,95.7,M,-33.4,M,,*69
423.83 2.52 2.62 -5.21 1.09 -0.50 -2.13 60.08 1019.63 -3.00 -49.48 $GPGGA,201353.100,3903.4335,N,07726.7585,W,1,06,1.52,95.7,M,-33.4,M,,*68
423.93 4.98 1.67 -5.78 -0.17 -0.31 -0.32 60.07 1019.80 -3.63 -49.48 $GPGGA,201353.200,3903.4335,N,07726.7585,W,1,06,1.52,95.7,M,-33.4,M,,*6B
424.03 8.28 -0.16 -5.69 0.08 0.17 0.16 60.07 1019.88 -3.31 -49.48 $GPGGA,201353.300,3903.4335,N,07726.7586,W,1,06,1.52,95.7,M,-33.4,M,,*69
424.13 11.65 -1.82 -5.23 0.25 0.01 0.61 60.08 1019.84 -3.06 -49.48 $GPGGA,201353.400,3903.4335,N,07726.7586,W,1,06,1.52,95.7,M,-33.4,M,,*6E
424.23 14.59 -3.24 -4.43 -0.71 -0.64 -0.77 60.10 1019.81 -2.72 -49.49 $GPGGA,201353.500,3903.4335,N,07726.7586,W,1,06,1.52,95.7,M,-33.4,M,,*6F
424.33 17.22 -3.85 -3.85 -0.98 0.01 -0.56 60.12 1019.77 -2.34 -49.50 $GPGGA,201353.500,3903.4335,N,07726.7586,W,1,06,1.52,95.7,M,-33.4,M,,*6F
424.43 19.93 -3.68 -4.04 -0.60 0.19 0.72 60.14 1019.72 -2.23 -49.50 $GPGGA,201353.600,3903.4335,N,07726.7586,W,1,06,1.52,95.7,M,-33.4,M,,*6C
424.53 23.02 -3.49 -4.36 -0.47 -0.05 0.76 60.16 1019.71 -2.17 -49.47 $GPGGA,201353.700,3903.4335,N,07726.7586,W,1,06,1.52,95.7,M,-33.4,M,,*6D
424.63 26.41 -3.69 -4.89 -0.55 -0.04 0.50 60.18 1019.70 -1.75 -49.48 $GPGGA,201353.800,3903.4335,N,07726.7586,W,1,06,1.52,95.7,M,-33.4,M,,*62
424.73 30.08 -4.09 -5.55 -0.38 -0.28 0.50 60.20 1019.65 -1.35 -49.48 $GPGGA,201353.900,3903.4335,N,07726.7586,W,1,06,1.52,95.7,M,-33.4,M,,*63
424.83 34.02 -4.08 -6.08 0.00 0.07 0.72 60.23 1019.60 -1.02 -49.48 $GPGGA,201354.000,3903.4335,N,07726.7586,W,1,06,1.52,95.7,M,-33.4,M,,*6D
424.93 38.31 -3.60 -6.18 -0.28 0.11 -0.19 60.25 1019.56 -0.79 -49.50 $GPGGA,201354.100,3903.4335,N,07726.7586,W,1,06,1.52,95.7,M,-33.4,M,,*6C
425.03 42.86 -3.17 -5.93 0.20 0.00 -0.18 60.27 1019.53 -0.36 -49.48 $GPGGA,201354.200,3903.4335,N,07726.7586,W,1,06,1.52,95.7,M,-33.4,M,,*6F
425.13 47.80 -3.28 -5.36 0.78 0.18 -0.24 60.28 1019.48 -0.06 -49.49 $GPGGA,201354.300,3903.4335,N,07726.7586,W,1,06,1.52,95.7,M,-33.4,M,,*6E
425.23 52.97 -3.71 -4.45 0.84 0.02 -0.30 60.29 1019.44 0.26 -49.46 $GPGGA,201354.400,3903.4335,N,07726.7586,W,1,06,1.52,95.7,M,-33.4,M,,*69
425.33 57.97 -4.32 -3.55 0.58 0.34 0.09 60.29 1019.41 0.52 -49.48 $GPGGA,201354.500,3903.4335,N,07726.7586,W,1,06,1.52,95.7,M,-33.4,M,,*68
425.43 62.78 -5.32 -2.77 0.50 0.41 -0.02 60.30 1019.38 0.76 -49.50 $GPGGA,201354.600,3903.4335,N,07726.7586,W,1,06,1.52,95.7,M,-33.4,M,,*6B
425.53 67.16 -6.23 -2.38 0.19 0.22 -0.13 60.30 1019.35 0.83 -49.49 $GPGGA,201354.700,3903.4335,N,07726.7586,W,1,06,1.52,95.7,M,-33.4,M,,*6A
425.63 71.03 -6.70 -2.08 -0.07 0.19 -0.17 60.30 1019.34 1.00 -49.49 $GPGGA,201354.800,3903.4335,N,07726.7586,W,1,06,1.52,95.7,M,-33.4,M,,*65
425.73 74.45 -6.80 -1.92 -0.26 0.08 -0.12 60.30 1019.32 1.11 -49.49 $GPGGA,201354.900,3903.4335,N,07726.7586,W,1,06,1.52,95.7,M,-33.4,M,,*64
425.83 77.28 -6.97 -1.98 -0.27 -0.04 -0.01 60.30 1019.30 1.17 -49.50 $GPGGA,201355.000,3903.4335,N,07726.7586,W,1,06,1.52,95.7,M,-33.4,M,,*6C
425.93 79.47 -7.13 -2.18 -0.10 -0.25 0.35 60.29 1019.30 1.20 -49.50 $GPGGA,201355.100,3903.4335,N,07726.7586,W,1,06,1.52,95.7,M,-33.4,M,,*6D
426.03 81.25 -6.96 -2.47 -0.12 -0.43 -0.02 60.29 1019.29 1.28 -49.49 $GPGGA,201355.200,3903.4335,N,07726.7586,W,1,07,1.26,95.7,M,-33.4,M,,*6C
426.13 82.65 -6.70 -2.92 -0.64 -0.33 0.12 60.29 1019.28 1.20 -49.49 $GPGGA,201355.300,3903.4334,N,07726.7586,W,1,07,1.26,95.7,M,-33.4,M,,*6C
426.23 84.01 -6.62 -3.40 -0.34 -0.37 -0.27 60.29 1019.29 1.17 -49.49 $GPGGA,201355.400,3903.4334,N,07726.7585,W,1,08,0.97,95.7,M,-33.4,M,,*6C
426.33 85.25 -6.83 -3.70 -0.38 -0.21 -0.11 60.28 1019.30 1.07 -49.49 $GPGGA,201355.500,3903.4334,N,07726.7585,W,1,08,0.97,95.7,M,-33.4,M,,*6D
426.43 86.48 -6.73 -4.13 -0.40 -0.16 -0.32 60.26 1019.31 1.10 -49.49 $GPGGA,201355.600,3903.4334,N,07726.7585,W,1,07,1.15,95.7,M,-33.4,M,,*6A
426.53 87.67 -6.46 -4.68 -0.05 0.00 -0.45 60.24 1019.30 1.13 -49.48 $GPGGA,201355.700,3903.4334,N,07726.7585,W,1,07,1.15,95.7,M,-33.4,M,,*6B
426.63 88.70 -6.36 -5.05 0.10 0.22 -0.46 60.23 1019.30 1.11 -49.48 $GPGGA,201355.800,3903.4335,N,07726.7585,W,1,07,1.15,95.7,M,-33.4,M,,*65
426.73 89.49 -6.50 -5.17 -0.04 0.16 -0.62 60.20 1019.30 1.15 -49.48 $GPGGA,201355.900,3903.4335,N,07726.7583,W,1,08,0.97,95.7,M,-33.4,M,,*66
426.83 90.05 -6.56 -5.30 0.00 0.01 -0.12 60.18 1019.30 1.08 -49.49 $GPGGA,201356.000,3903.4335,N,07726.7582,W,1,09,0.87,95.7,M,-33.4,M,,*6D
426.93 90.52 -6.16 -5.55 0.13 -0.02 -0.08 60.16 1019.31 0.92 -49.49 $GPGGA,201356.100,3903.4336,N,07726.7580,W,1,09,0.87,95.7,M,-33.4,M,,*6D
427.03 91.21 -5.54 -5.79 0.39 -0.12 -0.16 60.14 1019.33 0.79 -49.49 $GPGGA,201356.200,3903.4336,N,07726.7579,W,1,09,0.87,95.7,M,-33.4,M,,*68
427.13 92.18 -5.00 -5.75 0.51 -0.46 -0.05 60.12 1019.34 0.75 -49.48 $GPGGA,201356.300,3903.4336,N,07726.7578,W,1,08,0.97,95.7,M,-33.4,M,,*68
427.23 93.46 -5.02 -5.82 0.29 -0.82 -0.29 60.10 1019.35 0.71 -49.48 $GPGGA,201356.400,3903.4335,N,07726.7576,W,1,08,0.97,95.7,M,-33.4,M,,*62
427.33 95.21 -4.51 -5.80 -0.03 -0.87 0.02 60.08 1019.35 0.67 -49.48 $GPGGA,201356.500,3903.4335,N,07726.7576,W,1,08,0.97,95.7,M,-33.4,M,,*63
427.43 97.31 -4.87 -5.80 0.05 -0.68 0.00 60.06 1019.36 0.69 -49.50 $GPGGA,201356.600,3903.4335,N,07726.7574,W,1,09,0.87,95.7,M,-33.4,M,,*62
427.53 99.65 -4.78 -5.98 -0.23 -0.61 0.00 60.04 1019.35 0.66 -49.47 $GPGGA,201356.700,3903.4335,N,07726.7574,W,1,09,0.87,95.6,M,-33.4,M,,*62
427.63 102.08 -4.90 -5.96 -0.47 -0.87 -0.01 60.02 1019.36 0.73 -49.49 $GPGGA,201356.800,3903.4336,N,07726.7573,W,1,09,0.87,95.6,M,-33.4,M,,*69
427.73 104.52 -4.67 -5.76 -0.49 -1.07 0.12 60.00 1019.35 0.63 -49.45 $GPGGA,201356.900,3903.4336,N,07726.7571,W,1,09,0.87,95.5,M,-33.4,M,,*69
427.83 106.99 -4.06 -5.46 -0.33 -0.82 0.41 59.99 1019.36 0.56 -49.49 $GPGGA,201357.000,3903.4335,N,07726.7569,W,1,09,0.87,95.5,M,-33.4,M,,*6B
427.93 109.54 -3.46 -4.96 0.19 -0.80 1.16 59.99 1019.37 0.51 -49.49 $GPGGA,201357.100,3903.4335,N,07726.7567,W,1,09,0.87,95.5,M,-33.4,M,,*64
428.03 112.19 -3.08 -4.07 0.45 -0.19 0.71 59.98 1019.38 0.49 -49.48 $GPGGA,201357.200,3903.4335,N,07726.7566,W,1,09,0.87,95.5,M,-33.4,M,,*66
428.13 114.87 -3.18 -3.14 -0.03 -0.10 -0.36 59.98 1019.38 0.43 -49.49 $GPGGA,201357.300,3903.4335,N,07726.7567,W,1,09,0.87,95.4,M,-33.4,M,,*67
428.23 117.61 -3.72 -2.89 -0.26 -0.06 -0.55 59.98 1019.39 0.38 -49.48 $GPGGA,201357.400,3903.4335,N,07726.7568,W,1,09,0.87,95.4,M,-33.4,M,,*6F
428.33 120.43 -4.45 -3.28 -0.56 -0.05 -0.87 59.97 1019.39 0.42 -49.50 $GPGGA,201357.500,3903.4333,N,07726.7570,W,1,07,1.06,95.4,M,-33.4,M,,*67
428.43 122.89 -4.79 -3.88 -0.11 -0.27 -0.41 59.96 1019.39 0.29 -49.49 $GPGGA,201357.600,3903.4333,N,07726.7571,W,1,07,1.06,95.3,M,-33.4,M,,*62
428.53 125.23 -4.78 -4.57 0.33 0.03 0.74 59.95 1019.40 0.27 -49.50 $GPGGA,201357.700,3903.4333,N,07726.7572,W,1,07,1.06,95.3,M,-33.4,M,,*60
428.63 127.17 -5.02 -5.07 0.91 0.68 1.66 59.94 1019.41 0.28 -49.49 $GPGGA,201357.800,3903.4333,N,07726.7573,W,1,07,1.06,95.3,M,-33.4,M,,*6E
428.73 128.96 -6.02 -4.86 1.19 0.50 0.50 59.93 1019.40 0.36 -49.48 $GPGGA,201357.900,3903.4333,N,07726.7573,W,1,08,0.96,95.3,M,-33.4,M,,*68
428.83 130.46 -7.86 -3.99 0.81 0.19 -0.89 59.90 1019.39 0.39 -49.49 $GPGGA,201358.000,3903.4333,N,07726.7574,W,1,08,0.96,95.3,M,-33.4,M,,*69
428.93 131.75 -9.44 -3.12 0.74 0.32 -1.05 59.85 1019.39 0.43 -49.49 $GPGGA,201358.100,3903.4333,N,07726.7573,W,1,08,0.96,95.3,M,-33.4,M,,*6F
429.03 133.52 -10.11 -2.98 0.72 -0.02 -0.53 59.80 1019.39 0.41 -49.48 $GPGGA,201358.200,3903.4333,N,07726.7574,W,1,08,0.96,95.3,M,-33.4,M,,*6B
429.13 135.83 -10.17 -2.79 -0.68 0.71 2.45 59.73 1019.39 0.34 -49.49 $GPGGA,201358.300,3903.4333,N,07726.7574,W,1,08,0.96,95.3,M,-33.4,M,,*6A
429.23 138.44 -10.04 -2.42 -0.37 0.37 0.59 59.68 1019.40 0.30 -49.49 $GPGGA,201358.400,3903.4333,N,07726.7574,W,1,08,0.96,95.2,M,-33.4,M,,*6C
429.33 141.25 -9.83 -2.49 -0.93 -0.03 -0.42 59.64 1019.40 0.41 -49.50 $GPGGA,201358.500,3903.4333,N,07726.7574,W,1,08,0.96,95.2,M,-33.4,M,,*6D
429.43 144.21 -9.97 -3.12 -0.55 -0.13 -1.09 59.60 1019.39 0.55 -49.48 $GPGGA,201358.600,3903.4332,N,07726.7574,W,1,08,0.96,95.2,M,-33.4,M,,*6F
429.53 147.05 -10.16 -4.31 -0.59 0.04 -1.17 59.55 1019.37 0.53 -49.47 $GPGGA,201358.700,3903.4332,N,07726.7575,W,1,08,0.96,95.2,M,-33.4,M,,*6F
429.63 149.40 -10.40 -6.08 -0.47 0.69 0.15 59.52 1019.37 0.55 -49.48 $GPGGA,201358.800,3903.4331,N,07726.7576,W,1,08,0.96,95.2,M,-33.4,M,,*60
429.73 151.73 -10.00 -7.75 -0.62 1.04 1.11 59.49 1019.37 0.59 -49.48 $GPGGA,201358.900,3903.4330,N,07726.7577,W,1,08,0.96,95.2,M,-33.4,M,,*61
429.83 154.14 -8.86 -8.63 -0.22 0.80 0.23 59.47 1019.37 0.61 -49.49 $GPGGA,201359.000,3903.4330,N,07726.7577,W,1,08,0.97,95.2,M,-33.4,M,,*68
429.93 156.80 -7.35 -8.95 -0.20 0.53 -1.12 59.45 1019.36 0.68 -49.49 $GPGGA,201359.100,3903.4330,N,07726.7579,W,1,08,0.97,95.2,M,-33.4,M,,*67
430.03 160.17 -6.44 -9.14 -0.01 0.38 -1.55 59.44 1019.36 0.67 -49.50 $GPGGA,201359.200,3903.4330,N,07726.7580,W,1,08,0.97,95.1,M,-33.4,M,,*61
430.13 164.38 -6.43 -9.50 -0.07 0.36 -0.17 59.42 1019.36 0.56 -49.49 $GPGGA,201359.300,3903.4329,N,07726.7580,W,1,08,0.97,95.1,M,-33.4,M,,*68
430.23 169.32 -6.66 -9.64 -1.15 0.84 1.01 59.41 1019.37 0.56 -49.46 $GPGGA,201359.400,3903.4329,N,07726.7581,W,1,08,0.96,95.1,M,-33.4,M,,*6F
430.33 174.71 -6.05 -9.80 -0.77 0.24 0.72 59.41 1019.37 0.56 -49.50 $GPGGA,201359.500,3903.4329,N,07726.7581,W,1,08,0.96,95.1,M,-33.4,M,,*6E
430.43 180.15 -5.01 -10.04 -1.32 0.00 0.40 59.41 1019.37 0.62 -49.47 $GPGGA,201359.600,3903.4328,N,07726.7582,W,1,08,0.96,95.0,M,-33.4,M,,*6E
430.53 185.13 -4.37 -10.37 -1.62 -0.40 0.18 59.42 1019.36 0.59 -49.48 $GPGGA,201359.700,3903.4328,N,07726.7583,W,1,08,0.96,95.0,M,-33.4,M,,*6E
430.63 189.32 -4.73 -10.48 -0.88 -0.13 0.05 59.42 1019.37 0.52 -49.47 $GPGGA,201359.800,3903.4327,N,07726.7584,W,1,08,0.96,95.0,M,-33.4,M,,*69
430.73 192.51 -5.43 -10.85 -0.91 0.00 0.02 59.43 1019.38 0.50 -49.48 $GPGGA,201359.900,3903.4327,N,07726.7585,W,1,08,0.96,95.0,M,-33.4,M,,*69
430.83 195.22 -5.61 -11.16 -0.63 -0.11 -0.08 59.44 1019.38 0.48 -49.49 $GPGGA,201400.000,3903.4327,N,07726.7586,W,1,08,0.96,94.9,M,-33.4,M,,*60
430.93 196.81 -4.80 -11.48 -0.60 -0.06 0.10 59.45 1019.38 0.55 -49.48 $GPGGA,201400.100,3903.4327,N,07726.7587,W,1,08,0.96,94.9,M,-33.4,M,,*60
431.03 197.74 -3.68 -11.90 -0.47 0.08 0.53 59.46 1019.37 0.56 -49.49 $GPGGA,201400.200,3903.4326,N,07726.7588,W,1,08,0.96,94.9,M,-33.4,M,,*6D
431.13 198.42 -2.78 -12.56 -0.23 0.06 0.48 59.46 1019.37 0.55 -49.48 $GPGGA,201400.300,3903.4326,N,07726.7588,W,1,08,0.96,94.8,M,-33.4,M,,*6D
431.23 199.18 -2.35 -13.32 0.00 -0.81 -0.07 59.47 1019.37 0.49 -49.47 $GPGGA,201400.400,3903.4325,N,07726.7588,W,1,08,0.96,94.8,M,-33.4,M,,*69
431.33 200.11 -2.07 -13.95 -0.11 -1.03 -0.37 59.47 1019.38 0.46 -49.48 $GPGGA,201400.500,3903.4325,N,07726.7588,W,1,08,0.96,94.8,M,-33.4,M,,*68
431.43 200.96 -1.61 -14.23 -0.01 -1.05 -0.78 59.47 1019.38 0.50 -49.49 $GPGGA,201400.600,3903.4325,N,07726.7589,W,1,07,1.07,94.8,M,-33.4,M,,*6C
431.53 201.52 -1.40 -14.42 0.28 -0.73 -0.96 59.47 1019.38 0.43 -49.48 $GPGGA,201400.700,3903.4324,N,07726.7590,W,1,07,1.07,94.7,M,-33.4,M,,*6B
431.63 201.87 -1.63 -14.53 0.18 -0.48 -1.26 59.47 1019.39 0.40 -49.49 $GPGGA,201400.800,3903.4324,N,07726.7590,W,1,07,1.07,94.7,M,-33.4,M,,*64
431.73 201.93 -2.26 -14.53 0.00 -0.37 -1.67 59.46 1019.39 0.41 -49.47 $GPGGA,201400.900,3903.4324,N,07726.7590,W,1,07,1.07,94.7,M,-33.4,M,,*65
431.83 201.59 -2.78 -14.31 -0.01 -0.16 -1.73 59.45 1019.39 0.36 -49.48 $GPGGA,201401.000,3903.4325,N,07726.7590,W,1,07,1.07,94.7,M,-33.4,M,,*6C
431.93 201.10 -3.05 -13.72 -0.68 0.14 -1.36 59.45 1019.39 0.35 -49.48 $GPGGA,201401.100,3903.4325,N,07726.7590,W,1,07,1.07,94.7,M,-33.4,M,,*6D
432.03 200.40 -2.95 -13.07 -0.62 0.06 -1.40 59.44 1019.40 0.31 -49.49 $GPGGA,201401.200,3903.4325,N,07726.7590,W,1,07,1.07,94.7,M,-33.4,M,,*6E
432.13 199.70 -2.77 -12.49 -0.75 0.01 -0.79 59.42 1019.40 0.28 -49.50 $GPGGA,201401.300,3903.4325,N,07726.7590,W,1,07,1.07,94.7,M,-33.4,M,,*6F
432.23 198.97 -2.75 -11.98 -0.73 -0.26 0.75 59.41 1019.40 0.26 -49.49 $GPGGA,201401.400,3903.4325,N,07726.7590,W,1,07,1.07,94.7,M,-33.4,M,,*68
432.33 198.17 -2.37 -11.58 -0.67 -0.25 1.20 59.40 1019.41 0.24 -49.50 $GPGGA,201401.500,3903.4325,N,07726.7590,W,1,07,1.07,94.7,M,-33.4,M,,*69
432.43 197.39 -1.59 -10.86 -0.76 -0.35 1.85 59.39 1019.41 0.10 -49.47 $GPGGA,201401.600,3903.4325,N,07726.7590,W,1,07,1.07,94.7,M,-33.4,M,,*6A
432.53 196.93 -1.22 -9.55 -0.81 -0.39 2.00 59.37 1019.43 0.07 -49.48 $GPGGA,201401.700,3903.4325,N,07726.7590,W,1,08,0.96,94.7,M,-33.4,M,,*6D
432.63 196.88 -1.65 -7.99 0.00 -0.58 1.46 59.36 1019.43 0.04 -49.48 $GPGGA,201401.800,3903.4325,N,07726.7591,W,1,08,0.96,94.7,M,-33.4,M,,*63
432.73 197.27 -2.30 -6.51 -0.25 -0.47 1.73 59.35 1019.43 -0.07 -49.48 $GPGGA,201401.900,3903.4325,N,07726.7591,W,1,08,0.96,94.7,M,-33.4,M,,*62
432.83 197.74 -2.35 -5.58 -0.15 -0.25 1.27 59.33 1019.45 -0.09 -49.48 $GPGGA,201402.000,3903.4325,N,07726.7591,W,1,08,0.96,94.7,M,-33.4,M,,*68
432.93 198.37 -2.01 -4.89 -0.04 -0.43 0.79 59.31 1019.45 -0.17 -49.49 $GPGGA,201402.100,3903.4325,N,07726.7591,W,1,08,0.96,94.7,M,-33.4,M,,*69
433.03 198.82 -1.66 -4.26 -0.06 -0.01 -0.08 59.29 1019.46 -0.29 -49.50 $GPGGA,201402.200,3903.4325,N,07726.7591,W,1,08,0.96,94.7,M,-33.4,M,,*6A
433.13 199.06 -1.18 -3.79 -0.31 -0.34 -0.45 59.27 1019.47 -0.34 -49.49 $GPGGA,201402.300,3903.4325,N,07726.7591,W,1,08,0.96,94.7,M,-33.4,M,,*6B
433.23 199.07 -0.34 -3.80 -0.07 -0.17 3.49 59.25 1019.48 -0.43 -49.50 $GPGGA,201402.400,3903.4325,N,07726.7591,W,1,08,0.96,94.7,M,-33.4,M,,*6C
433.33 199.38 -0.28 -4.45 -0.67 -0.37 0.00 59.23 1019.49 -0.52 -49.49 $GPGGA,201402.500,3903.4325,N,07726.7591,W,1,08,0.96,94.7,M,-33.4,M,,*6D
433.43 199.35 -0.06 -5.31 -0.40 -0.71 -0.57 59.20 1019.50 -0.52 -49.48 $GPGGA,201402.600,3903.4325,N,07726.7591,W,1,08,0.96,94.7,M,-33.4,M,,*6E
433.53 198.94 0.04 -5.44 -0.21 0.05 -0.61 59.18 1019.50 -0.55 -49.48 $GPGGA,201402.700,3903.4325,N,07726.7591,W,1,08,0.96,94.7,M,-33.4,M,,*6F
433.63 198.92 0.41 -5.36 0.03 -0.11 0.22 59.17 1019.50 -0.60 -49.47 $GPGGA,201402.800,3903.4325,N,07726.7591,W,1,08,0.96,94.7,M,-33.4,M,,*60
433.73 198.97 0.94 -5.35 -0.30 -0.25 0.03 59.15 1019.51 -0.57 -49.48 $GPGGA,201402.900,3903.4325,N,07726.7592,W,1,08,0.96,94.7,M,-33.4,M,,*62
433.83 199.03 1.39 -5.16 -0.28 -0.47 -0.06 59.13 1019.51 -0.56 -49.48 $GPGGA,201403.000,3903.4325,N,07726.7592,W,1,09,0.87,94.7,M,-33.4,M,,*6B
433.93 199.22 1.74 -5.04 -0.04 -0.24 -0.16 59.11 1019.51 -0.58 -49.49 $GPGGA,201403.100,3903.4325,N,07726.7592,W,1,09,0.87,94.7,M,-33.4,M,,*6A
434.03 199.35 2.67 -4.98 -0.09 -0.32 -0.29 59.10 1019.51 -0.61 -49.49 $GPGGA,201403.200,3903.4325,N,07726.7592,W,1,09,0.87,94.7,M,-33.4,M,,*69
434.13 199.48 3.53 -4.89 -0.10 -0.24 0.08 59.08 1019.51 -0.59 -49.51 $GPGGA,201403.300,3903.4325,N,07726.7592,W,1,09,0.87,94.7,M,-33.4,M,,*68
434.23 199.67 4.05 -4.81 -0.32 -0.17 0.13 59.07 1019.51 -0.63 -49.48 $GPGGA,201403.400,3903.4325,N,07726.7592,W,1,09,0.87,94.7,M,-33.4,M,,*6F
434.33 199.68 4.48 -4.81 -0.20 -0.05 0.15 59.05 1019.51 -0.58 -49.50 $GPGGA,201403.500,3903.4325,N,07726.7592,W,1,09,0.87,94.7,M,-33.4,M,,*6E
434.43 199.69 4.44 -4.76 -0.09 -0.18 -0.22 59.04 1019.51 -0.48 -49.46 $GPGGA,201403.600,3903.4325,N,07726.7592,W,1,09,0.87,94.7,M,-33.4,M,,*6D
434.53 199.70 3.97 -4.71 -0.12 -0.12 -0.21 59.03 1019.50 -0.49 -49.47 $GPGGA,201403.700,3903.4325,N,07726.7592,W,1,09,0.87,94.7,M,-33.4,M,,*6C
434.63 199.60 3.42 -4.66 -0.13 -0.19 0.00 59.02 1019.50 -0.52 -49.49 $GPGGA,201403.800,3903.4325,N,07726.7592,W,1,09,0.87,94.7,M,-33.4,M,,*63
434.73 199.50 2.77 -4.63 -0.07 -0.18 0.01 59.02 1019.50 -0.56 -49.47 $GPGGA,201403.900,3903.4325,N,07726.7592,W,1,09,0.87,94.7,M,-33.4,M,,*62
