0,0,-0.08,0.12,0.03,-2.06,0.56,-0.06,0.9940,-0.1091,0.0063,-0.0089,$GPGGA,131706.891,,,,,0,00,,,M,,M,,*7A
1,0,-0.01,0.01,-0.04,-3.56,2.00,-0.19,0.9938,-0.1105,0.0070,-0.0090,$GPGGA,131706.992,,,,,0,00,,,M,,M,,*78
2,0,-0.05,0.15,0.31,2.44,-1.81,0.13,0.9937,-0.1113,0.0073,-0.0090,$GPGGA,131707.092,,,,,0,00,,,M,,M,,*70
3,0,-0.06,-0.20,0.36,2.00,-2.12,0.06,0.9944,-0.1048,0.0031,-0.0086,$GPGGA,131707.191,,,,,0,00,,,M,,M,,*72
4,0,-0.05,0.11,0.03,0.44,-0.75,0.13,0.9946,-0.1039,0.0021,-0.0085,$GPGGA,131707.292,,,,,0,00,,,M,,M,,*72
5,0,-0.02,-0.09,0.01,0.13,-0.62,0.00,0.9946,-0.1039,0.0021,-0.0085,$GPGGA,131707.391,,,,,0,00,,,M,,M,,*70
6,0,-0.02,0.03,0.09,0.19,-0.13,0.13,0.9946,-0.1039,0.0021,-0.0085,$GPGGA,131707.492,,,,,0,00,,,M,,M,,*74
7,0,-0.02,-0.03,0.02,0.25,-0.19,0.00,0.9946,-0.1039,0.0021,-0.0084,$GPGGA,131707.592,,,,,0,00,,,M,,M,,*75
8,0,-0.02,0.01,0.04,0.13,-0.19,-0.06,0.9946,-0.1039,0.0021,-0.0084,$GPGGA,131707.691,,,,,0,00,,,M,,M,,*75
9,0,-0.04,-0.01,0.04,-0.06,-0.06,0.13,0.9946,-0.1039,0.0021,-0.0084,$GPGGA,131707.792,,,,,0,00,,,M,,M,,*77
10,0,-0.01,0.02,0.03,0.06,0.13,-0.06,0.9946,-0.1039,0.0021,-0.0084,$GPGGA,131707.891,,,,,0,00,,,M,,M,,*7B
11,0,-0.02,0.02,0.05,0.00,-0.13,0.00,0.9946,-0.1039,0.0022,-0.0084,$GPGGA,131707.992,,,,,0,00,,,M,,M,,*79
12,0,0.00,0.00,0.05,-0.13,0.06,0.00,0.9946,-0.1039,0.0022,-0.0084,$GPGGA,131708.092,,,,,0,00,,,M,,M,,*7F
13,0,-0.02,0.00,0.03,-0.13,0.13,-0.13,0.9946,-0.1039,0.0022,-0.0084,$GPGGA,131708.191,,,,,0,00,,,M,,M,,*7D
14,0,0.00,0.00,0.04,0.00,0.19,0.00,0.9946,-0.1039,0.0022,-0.0084,$GPGGA,131708.292,,,,,0,00,,,M,,M,,*7D
15,0,-0.02,0.00,0.03,0.00,0.00,-0.06,0.9946,-0.1039,0.0022,-0.0084,$GPGGA,131708.391,,,,,0,00,,,M,,M,,*7F
16,0,-0.01,0.00,0.02,-0.06,-0.13,0.00,0.9946,-0.1039,0.0022,-0.0084,$GPGGA,131708.492,,,,,0,00,,,M,,M,,*7B
17,0,-0.02,0.01,0.04,-0.31,0.06,-0.06,0.9946,-0.1039,0.0022,-0.0084,$GPGGA,131708.592,,,,,0,00,,,M,,M,,*7A
18,0,-0.01,0.01,0.03,0.00,0.13,0.13,0.9946,-0.1039,0.0022,-0.0084,$GPGGA,131708.691,,,,,0,00,,,M,,M,,*7A
19,0,-0.01,0.01,0.05,-0.06,0.00,0.13,0.9946,-0.1039,0.0022,-0.0084,$GPGGA,131708.792,,,,,0,00,,,M,,M,,*78
20,0,-0.01,0.01,0.01,0.06,-0.13,0.00,0.9946,-0.1039,0.0022,-0.0084,$GPGGA,131708.891,,,,,0,00,,,M,,M,,*74
21,0,-0.02,0.01,0.03,0.00,0.13,0.19,0.9946,-0.1039,0.0022,-0.0084,$GPGGA,131708.992,,,,,0,00,,,M,,M,,*76
22,0,-0.02,-0.02,0.03,0.06,0.00,-0.19,0.9946,-0.1039,0.0022,-0.0084,$GPGGA,131709.092,,,,,0,00,,,M,,M,,*7E
23,0,-0.02,0.01,0.04,0.06,0.00,0.06,0.9946,-0.1039,0.0022,-0.0084,$GPGGA,131709.191,,,,,0,00,,,M,,M,,*7C
24,0,0.00,0.01,0.01,-0.13,0.19,-0.19,0.9946,-0.1039,0.0022,-0.0084,$GPGGA,131709.292,,,,,0,00,,,M,,M,,*7C
25,0,-0.01,0.01,0.02,-0.25,-0.25,-0.19,0.9946,-0.1039,0.0022,-0.0084,$GPGGA,131709.391,,,,,0,00,,,M,,M,,*7E
26,0,0.00,0.00,0.03,0.00,0.06,0.00,0.9946,-0.1039,0.0022,-0.0084,$GPGGA,131709.492,,,,,0,00,,,M,,M,,*7A
27,0,-0.02,0.01,0.02,0.06,0.19,0.19,0.9946,-0.1039,0.0022,-0.0084,$GPGGA,131709.592,,,,,0,00,,,M,,M,,*7B
28,0,-0.01,0.01,0.03,0.19,0.00,0.06,0.9946,-0.1039,0.0022,-0.0084,$GPGGA,131709.691,,,,,0,00,,,M,,M,,*7B
29,0,0.00,0.02,0.03,0.00,0.19,0.00,0.9946,-0.1039,0.0022,-0.0084,$GPGGA,131709.792,,,,,0,00,,,M,,M,,*79
30,0,-0.01,0.02,0.00,0.06,-0.25,0.13,0.9946,-0.1039,0.0022,-0.0084,$GPGGA,131709.891,,,,,0,00,,,M,,M,,*75
31,0,0.00,0.00,0.02,0.06,0.19,0.13,0.9946,-0.1039,0.0022,-0.0084,$GPGGA,131709.992,,,,,0,00,,,M,,M,,*77
32,0,0.00,0.00,0.03,-0.13,-0.19,0.13,0.9946,-0.1039,0.0022,-0.0084,$GPGGA,131710.092,,,,,0,00,,,M,,M,,*76
33,0,-0.01,0.00,0.02,-0.19,0.00,-0.13,0.9946,-0.1039,0.0022,-0.0084,$GPGGA,131710.191,,,,,0,00,,,M,,M,,*74
34,0,-0.05,0.02,0.01,-0.06,0.25,0.19,0.9946,-0.1039,0.0022,-0.0084,$GPGGA,131710.292,,,,,0,00,,,M,,M,,*74
35,0,-0.03,0.01,0.01,-0.06,-0.06,0.00,0.9946,-0.1039,0.0022,-0.0084,$GPGGA,131710.391,,,,,0,00,,,M,,M,,*76
36,0,0.00,0.01,0.00,0.06,-0.19,0.06,0.9946,-0.1039,0.0022,-0.0084,$GPGGA,131710.492,,,,,0,00,,,M,,M,,*72
37,0,0.00,0.00,0.01,0.13,-0.06,-0.06,0.9946,-0.1039,0.0022,-0.0084,$GPGGA,131710.592,,,,,0,00,,,M,,M,,*73
38,0,-0.11,-0.03,0.08,0.25,0.25,0.13,0.9946,-0.1039,0.0022,-0.0084,$GPGGA,131710.691,,,,,0,00,,,M,,M,,*73
39,0,-0.03,0.00,0.03,0.13,-0.06,0.00,0.9946,-0.1039,0.0022,-0.0084,$GPGGA,131710.792,,,,,0,00,,,M,,M,,*71
40,0,0.00,0.00,0.02,0.06,0.06,0.13,0.9946,-0.1039,0.0022,-0.0084,$GPGGA,131710.891,,,,,0,00,,,M,,M,,*7D
41,0,-0.01,0.00,0.00,0.06,0.25,0.19,0.9946,-0.1039,0.0022,-0.0084,$GPGGA,131710.992,,,,,0,00,,,M,,M,,*7F
42,0,-0.03,0.01,0.00,0.00,0.00,-0.25,0.9946,-0.1039,0.0022,-0.0084,$GPGGA,131711.092,,,,,0,00,,,M,,M,,*77
43,0,-0.08,0.01,0.00,0.00,-0.25,-0.19,0.9946,-0.1039,0.0022,-0.0084,$GPGGA,131711.191,,,,,0,00,,,M,,M,,*75
44,0,0.03,0.00,0.02,0.06,0.31,-0.19,0.9946,-0.1039,0.0022,-0.0084,$GPGGA,131711.292,,,,,0,00,,,M,,M,,*75
45,0,-0.02,-0.01,0.07,-0.06,-0.25,0.00,0.9946,-0.1039,0.0022,-0.0084,$GPGGA,131711.391,,,,,0,00,,,M,,M,,*77
46,0,0.00,0.00,0.03,-0.13,0.13,-0.06,0.9946,-0.1039,0.0022,-0.0084,$GPGGA,131711.492,,,,,0,00,,,M,,M,,*73
47,0,0.00,0.00,0.00,-0.06,-0.13,-0.06,0.9946,-0.1039,0.0022,-0.0084,$GPGGA,131711.592,,,,,0,00,,,M,,M,,*72
48,0,-0.01,0.02,0.02,0.13,-0.19,-0.13,0.9946,-0.1039,0.0022,-0.0084,$GPGGA,131711.691,,,,,0,00,,,M,,M,,*72
49,0,0.00,0.00,0.00,0.13,0.00,0.13,0.9946,-0.1039,0.0022,-0.0084,$GPGGA,131711.792,,,,,0,00,,,M,,M,,*70
50,0,0.00,0.01,0.02,0.13,-0.13,-0.06,0.9946,-0.1039,0.0022,-0.0084,$GPGGA,131711.891,,,,,0,00,,,M,,M,,*7C
51,0,-0.01,0.00,0.03,0.00,-0.06,0.00,0.9946,-0.1039,0.0022,-0.0084,$GPGGA,131712.080,,,,,0,00,,,M,,M,,*77
52,0,0.00,0.00,0.03,-0.13,-0.13,0.13,0.9946,-0.1039,0.0022,-0.0084,$GPGGA,131712.119,,,,,0,00,,,M,,M,,*76
53,0,0.01,0.02,0.05,-0.06,0.19,0.06,0.9946,-0.1039,0.0022,-0.0084,$GPGGA,131712.219,,,,,0,00,,,M,,M,,*75
54,0,0.00,0.01,0.03,0.06,-0.13,0.06,0.9946,-0.1039,0.0022,-0.0084,$GPGGA,131712.320,,,,,0,00,,,M,,M,,*7E
55,0,-0.01,0.02,0.05,-0.13,0.06,0.00,0.9946,-0.1039,0.0022,-0.0084,$GPGGA,131712.419,,,,,0,00,,,M,,M,,*73
56,0,0.00,0.01,0.03,0.06,0.00,0.00,0.9946,-0.1039,0.0022,-0.0084,$GPGGA,131712.520,,,,,0,00,,,M,,M,,*78
57,0,-0.01,0.01,0.01,0.13,-0.13,-0.06,0.9946,-0.1039,0.0022,-0.0084,$GPGGA,131712.619,,,,,0,00,,,M,,M,,*71
58,0,-0.01,0.01,0.03,-0.06,-0.06,-0.06,0.9946,-0.1039,0.0022,-0.0084,$GPGGA,131712.719,,,,,0,00,,,M,,M,,*70
59,0,0.00,0.01,0.01,0.00,-0.19,-0.06,0.9946,-0.1039,0.0022,-0.0084,$GPGGA,131712.820,,,,,0,00,,,M,,M,,*75
60,0,-0.03,-0.04,0.11,0.00,-0.06,0.00,0.9946,-0.1039,0.0022,-0.0084,$GPGGA,131712.919,,,,,0,00,,,M,,M,,*7E
61,0,-0.03,0.01,0.22,-0.19,0.19,-0.19,0.9946,-0.1039,0.0021,-0.0084,$GPGGA,131713.020,,,,,0,00,,,M,,M,,*7C
62,0,-0.10,-0.08,0.16,-0.31,0.19,-0.06,0.9946,-0.1039,0.0021,-0.0084,$GPGGA,131713.119,,,,,0,00,,,M,,M,,*77
63,0,0.53,-0.08,-0.73,0.06,-0.19,0.25,0.9946,-0.1039,0.0022,-0.0084,$GPGGA,131713.219,,,,,0,00,,,M,,M,,*74
64,0,0.22,-0.18,-0.44,-0.56,0.06,0.06,0.9946,-0.1039,0.0021,-0.0084,$GPGGA,131713.320,,,,,0,00,,,M,,M,,*7F
65,0,0.04,0.12,0.07,-0.19,0.06,0.50,0.9946,-0.1039,0.0023,-0.0084,$GPGGA,131713.419,,,,,0,00,,,M,,M,,*72
66,0,-0.07,0.08,-0.18,0.19,-0.19,0.00,0.9946,-0.1039,0.0023,-0.0084,$GPGGA,131713.520,,,,,0,00,,,M,,M,,*79
67,0,-0.24,0.06,-0.04,-0.44,-0.69,0.19,0.9946,-0.1038,0.0023,-0.0085,$GPGGA,131713.619,,,,,0,00,,,M,,M,,*70
68,0,0.04,0.00,0.25,-0.25,1.50,-0.31,0.9946,-0.1039,0.0025,-0.0085,$GPGGA,131713.719,,,,,0,00,,,M,,M,,*71
69,0,0.02,0.00,-0.38,0.56,-0.44,0.13,0.9946,-0.1038,0.0023,-0.0085,$GPGGA,131713.820,,,,,0,00,,,M,,M,,*74
70,0,-0.04,-0.08,-0.43,0.13,-0.37,-0.31,0.9946,-0.1038,0.0024,-0.0085,$GPGGA,131713.919,,,,,0,00,,,M,,M,,*7F
71,0,-0.11,0.00,-0.03,0.00,0.13,0.25,0.9946,-0.1038,0.0024,-0.0085,$GPGGA,131714.020,,,,,0,00,,,M,,M,,*7B
72,0,0.07,0.01,-0.02,0.25,-0.19,0.19,0.9946,-0.1038,0.0024,-0.0085,$GPGGA,131714.119,,,,,0,00,,,M,,M,,*70
73,0,-0.05,0.03,0.00,0.13,0.25,0.00,0.9946,-0.1038,0.0024,-0.0085,$GPGGA,131714.219,,,,,0,00,,,M,,M,,*73
74,0,0.00,-0.03,0.07,-0.31,0.00,0.06,0.9946,-0.1038,0.0024,-0.0085,$GPGGA,131714.320,,,,,0,00,,,M,,M,,*78
75,0,-0.01,-0.05,0.12,0.00,0.19,-0.13,0.9946,-0.1038,0.0024,-0.0085,$GPGGA,131714.419,,,,,0,00,,,M,,M,,*75
76,0,-0.01,0.02,0.01,-0.19,0.00,0.00,0.9946,-0.1038,0.0024,-0.0085,$GPGGA,131714.520,,,,,0,00,,,M,,M,,*7E
77,0,-0.03,0.00,-0.01,0.06,-0.25,0.00,0.9946,-0.1038,0.0024,-0.0085,$GPGGA,131714.619,,,,,0,00,,,M,,M,,*77
78,0,-0.01,-0.01,0.12,-0.13,-0.19,-0.06,0.9946,-0.1038,0.0024,-0.0085,$GPGGA,131714.719,,,,,0,00,,,M,,M,,*76
79,0,0.00,0.00,0.08,-0.06,0.25,-0.31,0.9946,-0.1038,0.0025,-0.0085,$GPGGA,131714.820,,,,,0,00,,,M,,M,,*73
80,0,-0.02,0.03,0.00,-0.06,0.37,0.00,0.9946,-0.1038,0.0025,-0.0085,$GPGGA,131714.919,,,,,0,00,,,M,,M,,*78
81,0,0.01,0.00,-0.01,0.13,0.06,0.00,0.9946,-0.1038,0.0025,-0.0085,$GPGGA,131715.020,,,,,0,00,,,M,,M,,*7A
82,0,-0.02,0.00,0.03,0.00,0.31,0.00,0.9946,-0.1038,0.0025,-0.0085,$GPGGA,131715.119,,,,,0,00,,,M,,M,,*71
83,0,-0.01,0.00,0.06,0.06,0.13,0.06,0.9946,-0.1038,0.0025,-0.0085,$GPGGA,131715.219,,,,,0,00,,,M,,M,,*72
84,0,-0.01,0.00,0.02,0.13,0.00,-0.06,0.9946,-0.1038,0.0025,-0.0085,$GPGGA,131715.320,,,,,0,00,,,M,,M,,*79
85,0,0.00,0.02,0.04,0.06,0.00,0.06,0.9946,-0.1038,0.0025,-0.0085,$GPGGA,131715.419,,,,,0,00,,,M,,M,,*74
86,0,0.00,0.00,0.06,-0.19,-0.13,0.00,0.9946,-0.1038,0.0025,-0.0085,$GPGGA,131715.520,,,,,0,00,,,M,,M,,*7F
87,0,0.00,0.01,0.06,0.13,-0.06,0.00,0.9946,-0.1038,0.0025,-0.0085,$GPGGA,131715.619,,,,,0,00,,,M,,M,,*76
88,0,0.00,0.00,0.01,0.00,-0.06,-0.06,0.9946,-0.1038,0.0025,-0.0085,$GPGGA,131715.719,,,,,0,00,,,M,,M,,*77
89,0,0.00,0.02,0.04,0.19,-0.06,0.00,0.9946,-0.1038,0.0025,-0.0085,$GPGGA,131715.820,,,,,0,00,,,M,,M,,*72
90,0,0.00,0.00,0.04,0.13,0.13,0.00,0.9946,-0.1038,0.0025,-0.0085,$GPGGA,131715.919,,,,,0,00,,,M,,M,,*79
91,0,0.00,0.00,0.03,0.00,0.06,-0.06,0.9946,-0.1038,0.0025,-0.0085,$GPGGA,131716.020,,,,,0,00,,,M,,M,,*79
92,0,0.00,0.00,0.02,0.06,0.00,-0.06,0.9946,-0.1038,0.0025,-0.0085,$GPGGA,131716.119,,,,,0,00,,,M,,M,,*72
93,0,0.00,0.00,0.02,0.00,-0.06,-0.06,0.9946,-0.1038,0.0025,-0.0085,$GPGGA,131716.219,,,,,0,00,,,M,,M,,*71
94,0,0.00,-0.01,0.04,0.00,0.13,0.00,0.9946,-0.1038,0.0025,-0.0085,$GPGGA,131716.320,,,,,0,00,,,M,,M,,*7A
95,0,0.02,0.00,0.04,0.06,0.00,0.00,0.9946,-0.1038,0.0025,-0.0085,$GPGGA,131716.419,,,,,0,00,,,M,,M,,*77
96,0,-0.03,0.00,0.01,-0.13,0.19,-0.19,0.9946,-0.1038,0.0025,-0.0085,$GPGGA,131716.520,,,,,0,00,,,M,,M,,*7C
97,0,-0.01,-0.01,0.09,-0.13,0.13,-0.06,0.9946,-0.1038,0.0025,-0.0085,$GPGGA,131716.619,,,,,0,00,,,M,,M,,*75
98,0,-0.02,0.01,-0.05,0.13,-0.06,0.06,0.9946,-0.1038,0.0025,-0.0085,$GPGGA,131716.719,,,,,0,00,,,M,,M,,*74
99,0,-0.02,0.06,0.01,0.06,0.06,-0.06,0.9946,-0.1038,0.0025,-0.0085,$GPGGA,131716.820,,,,,0,00,,,M,,M,,*71
100,0,0.00,-0.02,0.04,0.00,-0.13,0.00,0.9946,-0.1038,0.0025,-0.0085,$GPGGA,131716.919,,,,,0,00,,,M,,M,,*7A
101,0,0.02,0.05,-0.02,0.19,0.06,0.00,0.9946,-0.1038,0.0025,-0.0085,$GPGGA,131717.020,,,,,0,00,,,M,,M,,*78
102,0,0.04,-0.04,0.05,0.06,0.13,0.00,0.9946,-0.1038,0.0025,-0.0085,$GPGGA,131717.119,,,,,0,00,,,M,,M,,*73
103,0,0.02,0.04,0.06,-0.13,-0.19,-0.06,0.9946,-0.1038,0.0025,-0.0085,$GPGGA,131717.219,,,,,0,00,,,M,,M,,*70
104,0,0.04,0.00,0.02,-0.06,0.00,0.00,0.9946,-0.1038,0.0025,-0.0085,$GPGGA,131717.320,,,,,0,00,,,M,,M,,*7B
105,0,0.02,0.03,0.02,0.06,-0.13,0.06,0.9946,-0.1038,0.0025,-0.0085,$GPGGA,131717.419,,,,,0,00,,,M,,M,,*76
106,0,0.00,0.00,0.01,0.00,0.00,0.19,0.9946,-0.1038,0.0025,-0.0085,$GPGGA,131717.520,,,,,0,00,,,M,,M,,*7D
107,0,0.00,0.01,0.02,0.13,0.13,-0.06,0.9946,-0.1038,0.0025,-0.0085,$GPGGA,131717.619,,,,,0,00,,,M,,M,,*74
108,0,0.00,0.00,0.02,-0.19,-0.06,0.06,0.9946,-0.1038,0.0025,-0.0085,$GPGGA,131717.719,,,,,0,00,,,M,,M,,*75
109,0,0.00,0.02,0.01,0.06,0.19,0.06,0.9946,-0.1038,0.0025,-0.0085,$GPGGA,131717.820,,,,,0,00,,,M,,M,,*70
110,0,0.00,0.01,0.02,-0.06,0.06,-0.13,0.9946,-0.1038,0.0025,-0.0085,$GPGGA,131717.919,,,,,0,00,,,M,,M,,*7B
111,0,0.00,0.00,0.01,0.00,0.06,0.13,0.9946,-0.1038,0.0025,-0.0085,$GPGGA,131718.020,,,,,0,00,,,M,,M,,*77
112,0,0.00,0.00,-0.02,-0.06,0.06,0.06,0.9946,-0.1038,0.0025,-0.0085,$GPGGA,131718.121,,,,,0,04,,,M,,M,,*73
113,0,0.00,-0.01,0.01,-0.06,0.13,-0.06,0.9946,-0.1038,0.0025,-0.0085,$GPGGA,131718.221,,,,,0,04,,,M,,M,,*70
114,0,0.00,0.01,0.01,-0.06,-0.19,0.06,0.9946,-0.1038,0.0025,-0.0085,$GPGGA,131718.321,,,,,0,04,,,M,,M,,*71
115,0,0.01,0.00,0.01,0.06,0.13,0.00,0.9946,-0.1038,0.0025,-0.0085,$GPGGA,131718.421,,,,,0,04,,,M,,M,,*76
116,0,0.00,0.01,0.00,0.13,0.06,0.00,0.9946,-0.1038,0.0025,-0.0085,$GPGGA,131718.521,,,,,0,04,,,M,,M,,*77
117,0,0.00,-0.01,0.02,-0.13,0.06,0.00,0.9946,-0.1038,0.0025,-0.0085,$GPGGA,131718.621,,,,,0,04,,,M,,M,,*74
118,0,0.01,-0.02,0.02,0.00,0.00,0.00,0.9946,-0.1038,0.0025,-0.0085,$GPGGA,131718.721,,,,,0,04,,,M,,M,,*75
119,0,0.00,0.00,0.02,0.13,-0.06,-0.13,0.9946,-0.1038,0.0025,-0.0085,$GPGGA,131718.821,,,,,0,04,,,M,,M,,*7A
120,0,0.01,0.00,0.03,-0.19,0.00,0.00,0.9946,-0.1038,0.0025,-0.0085,$GPGGA,131718.921,,,,,0,04,,,M,,M,,*7B
121,0,0.00,-0.01,0.03,0.00,-0.06,-0.06,0.9946,-0.1038,0.0025,-0.0085,$GPGGA,131719.021,,,,,0,04,,,M,,M,,*73
122,0,0.01,0.00,0.03,0.06,-0.06,0.00,0.9946,-0.1038,0.0025,-0.0085,$GPGGA,131719.121,,,,,0,04,,,M,,M,,*72
123,0,-0.04,0.01,0.03,0.06,0.19,-0.25,0.9946,-0.1038,0.0025,-0.0085,$GPGGA,131719.221,,,,,0,04,,,M,,M,,*71
124,0,-0.01,0.00,-0.03,0.06,0.44,0.13,0.9946,-0.1038,0.0025,-0.0085,$GPGGA,131719.321,,,,,0,04,,,M,,M,,*70
125,0,0.00,0.00,0.06,0.00,-0.62,0.06,0.9946,-0.1038,0.0024,-0.0085,$GPGGA,131719.421,,,,,0,04,,,M,,M,,*77
126,0,-0.07,0.02,0.02,0.13,0.44,-0.06,0.9946,-0.1038,0.0024,-0.0085,$GPGGA,131719.521,,,,,0,04,,,M,,M,,*76
127,0,-0.08,-0.07,-0.01,0.00,0.06,0.19,0.9946,-0.1038,0.0024,-0.0085,$GPGGA,131719.621,,,,,0,04,,,M,,M,,*75
128,0,-0.01,0.07,0.09,-0.06,-0.25,0.06,0.9946,-0.1038,0.0024,-0.0085,$GPGGA,131719.721,,,,,0,04,,,M,,M,,*74
129,0,-0.10,-0.07,0.00,0.00,-0.37,0.06,0.9946,-0.1038,0.0023,-0.0085,$GPGGA,131719.821,,,,,0,04,,,M,,M,,*7B
130,0,0.09,-0.01,-0.12,0.19,0.00,0.00,0.9946,-0.1038,0.0012,-0.0084,$GPGGA,131719.921,,,,,0,04,,,M,,M,,*7A
131,0,0.03,0.00,-0.03,-0.06,-0.88,0.00,0.9946,-0.1038,0.0019,-0.0084,$GPGGA,131719.921,,,,,0,04,,,M,,M,,*7A
132,0,-0.05,0.00,0.07,0.19,0.75,-0.06,0.9946,-0.1038,0.0025,-0.0085,$GPGGA,131720.100,,,,,0,04,,,M,,M,,*7B
133,0,-0.08,-0.02,0.06,0.00,0.31,0.44,0.9946,-0.1038,0.0020,-0.0084,$GPGGA,131720.200,,,,,0,04,,,M,,M,,*78
134,0,0.03,-0.01,0.02,0.00,0.00,-0.44,0.9946,-0.1038,0.0023,-0.0084,$GPGGA,131720.300,,,,,0,04,,,M,,M,,*79
135,0,-0.06,0.00,0.03,0.25,0.13,0.50,0.9946,-0.1038,0.0022,-0.0084,$GPGGA,131720.400,3850.0881,N,07730.3944,W,1,04,4.62,64.2,M,-33.4,M,,*67
136,0,0.02,-0.02,0.01,0.19,0.00,0.06,0.9946,-0.1038,0.0022,-0.0084,$GPGGA,131720.500,3850.0877,N,07730.3959,W,1,04,4.61,65.8,M,-33.4,M,,*6B
137,0,-0.03,0.04,0.02,0.00,-0.31,0.00,0.9946,-0.1038,0.0023,-0.0084,$GPGGA,131720.600,3850.0874,N,07730.3968,W,1,04,4.61,66.8,M,-33.4,M,,*6A
138,0,0.00,-0.01,0.04,0.19,0.31,0.00,0.9946,-0.1038,0.0023,-0.0084,$GPGGA,131720.700,3850.0872,N,07730.3975,W,1,04,4.61,67.6,M,-33.4,M,,*6E
139,0,0.00,0.04,0.02,-0.06,-0.13,-0.06,0.9946,-0.1038,0.0023,-0.0084,$GPGGA,131720.800,3850.0870,N,07730.3980,W,1,04,4.62,68.1,M,-33.4,M,,*62
140,0,-0.03,0.00,0.03,0.00,0.13,0.13,0.9946,-0.1038,0.0023,-0.0084,$GPGGA,131720.900,3850.0869,N,07730.3984,W,1,04,4.62,68.4,M,-33.4,M,,*6A
141,0,0.00,-0.01,0.04,0.00,0.25,0.00,0.9946,-0.1038,0.0023,-0.0084,$GPGGA,131721.000,3850.0868,N,07730.3986,W,1,04,4.62,68.6,M,-33.4,M,,*63
142,0,0.00,0.01,0.04,-0.06,-0.13,0.06,0.9946,-0.1038,0.0023,-0.0084,$GPGGA,131721.100,3850.0867,N,07730.3988,W,1,04,4.61,68.8,M,-33.4,M,,*6E
143,0,-0.02,-0.01,0.03,0.00,0.00,-0.06,0.9946,-0.1038,0.0023,-0.0084,$GPGGA,131721.200,3850.0866,N,07730.3992,W,1,04,4.61,69.1,M,-33.4,M,,*6F
144,0,-0.01,0.02,0.05,0.13,0.13,0.00,0.9946,-0.1038,0.0023,-0.0084,$GPGGA,131721.300,3850.0865,N,07730.3995,W,1,04,4.61,69.4,M,-33.4,M,,*6F
145,0,0.01,0.00,0.02,0.00,-0.13,0.13,0.9946,-0.1038,0.0023,-0.0084,$GPGGA,131721.400,3850.0864,N,07730.3999,W,1,04,4.61,69.7,M,-33.4,M,,*66
146,0,-0.02,0.01,0.04,0.13,0.13,-0.06,0.9946,-0.1038,0.0023,-0.0084,$GPGGA,131721.500,3850.0863,N,07730.4001,W,1,04,4.61,70.0,M,-33.4,M,,*60
147,0,-0.03,0.00,0.01,-0.13,0.06,0.00,0.9946,-0.1038,0.0023,-0.0084,$GPGGA,131721.600,3850.0862,N,07730.4002,W,1,04,4.61,70.2,M,-33.4,M,,*63
148,0,-0.04,0.09,-0.05,-0.25,0.00,0.31,0.9946,-0.1038,0.0023,-0.0085,$GPGGA,131721.700,3850.0862,N,07730.4004,W,1,04,4.61,70.4,M,-33.4,M,,*62
149,0,-0.09,0.01,0.10,0.00,0.31,-0.62,0.9946,-0.1038,0.0023,-0.0084,$GPGGA,131721.800,3850.0861,N,07730.4007,W,1,04,4.61,70.6,M,-33.4,M,,*6F
150,0,-0.09,0.13,0.05,0.06,-0.13,0.06,0.9946,-0.1038,0.0025,-0.0085,$GPGGA,131721.900,3850.0861,N,07730.4008,W,1,04,4.61,70.9,M,-33.4,M,,*6E
151,0,0.04,-0.15,-0.03,0.13,0.37,0.31,0.9946,-0.1038,0.0023,-0.0085,$GPGGA,131722.000,3850.0860,N,07730.4009,W,1,04,4.61,71.0,M,-33.4,M,,*6C
152,0,-0.27,-0.05,0.13,0.25,-0.81,0.37,0.9946,-0.1038,0.0024,-0.0077,$GPGGA,131722.100,3850.0860,N,07730.4009,W,1,04,4.61,71.1,M,-33.4,M,,*6C
153,0,0.07,0.01,0.02,0.00,1.19,-0.69,0.9946,-0.1038,0.0026,-0.0083,$GPGGA,131722.200,3850.0860,N,07730.4010,W,1,04,4.61,71.2,M,-33.4,M,,*64
154,0,-0.33,-0.22,0.00,0.13,-0.62,1.31,0.9946,-0.1035,0.0023,-0.0074,$GPGGA,131722.300,3850.0860,N,07730.4010,W,1,04,4.61,71.3,M,-33.4,M,,*64
155,0,0.03,0.26,0.04,0.13,0.69,-0.75,0.9946,-0.1035,0.0027,-0.0082,$GPGGA,131722.400,3850.0860,N,07730.4010,W,1,04,4.61,71.4,M,-33.4,M,,*64
156,0,-0.15,-0.23,-0.03,0.37,-0.69,0.88,0.9946,-0.1031,0.0022,-0.0079,$GPGGA,131722.500,3850.0860,N,07730.4010,W,1,04,4.61,71.4,M,-33.4,M,,*65
157,0,0.19,0.02,-0.01,-0.19,-0.06,-0.75,0.9946,-0.1031,0.0023,-0.0083,$GPGGA,131722.600,3850.0860,N,07730.4010,W,1,04,4.61,71.5,M,-33.4,M,,*67
158,0,-0.18,-0.20,-0.09,-0.13,-0.88,-0.31,0.9946,-0.1032,0.0022,-0.0073,$GPGGA,131722.700,3850.0860,N,07730.4010,W,1,04,4.61,71.5,M,-33.4,M,,*66
159,0,0.04,0.05,-0.06,0.25,1.19,0.06,0.9946,-0.1032,0.0027,-0.0081,$GPGGA,131722.800,3850.0860,N,07730.4010,W,1,04,4.61,71.5,M,-33.4,M,,*69
160,0,-0.02,0.00,0.13,-0.13,0.00,-2.00,0.9946,-0.1032,0.0020,-0.0089,$GPGGA,131722.900,3850.0860,N,07730.4008,W,1,04,4.61,71.4,M,-33.4,M,,*60
161,0,-0.28,0.10,-0.08,0.25,-1.06,3.31,0.9946,-0.1029,0.0021,-0.0079,$GPGGA,131723.000,3850.0861,N,07730.4008,W,1,04,4.61,71.4,M,-33.4,M,,*69
162,0,0.32,-0.12,0.05,-0.62,2.75,-4.81,0.9946,-0.1030,0.0016,-0.0096,$GPGGA,131723.100,3850.0861,N,07730.4007,W,1,04,4.61,71.4,M,-33.4,M,,*67
163,0,-0.19,0.13,0.27,0.88,-4.69,3.87,0.9947,-0.1028,0.0018,-0.0082,$GPGGA,131723.200,3850.0861,N,07730.4006,W,1,04,4.61,71.3,M,-33.4,M,,*62
164,0,0.11,-0.27,-0.07,0.00,4.19,-1.69,0.9946,-0.1029,0.0020,-0.0081,$GPGGA,131723.300,3850.0861,N,07730.4006,W,1,04,4.61,71.2,M,-33.4,M,,*62
165,0,0.00,0.19,0.13,0.44,-3.44,1.37,0.9946,-0.1031,0.0012,-0.0078,$GPGGA,131723.400,3850.0861,N,07730.4006,W,1,04,4.61,71.2,M,-33.4,M,,*65
166,0,0.08,-0.16,-0.05,-0.19,1.69,-1.12,0.9946,-0.1031,0.0025,-0.0081,$GPGGA,131723.500,3850.0861,N,07730.4005,W,1,04,4.61,71.1,M,-33.4,M,,*64
167,0,-0.01,0.14,0.10,0.13,0.25,1.12,0.9946,-0.1031,0.0012,-0.0076,$GPGGA,131723.600,3850.0861,N,07730.4003,W,1,04,4.61,70.9,M,-33.4,M,,*68
168,0,0.08,-0.11,-0.04,0.06,-1.31,-0.31,0.9946,-0.1031,0.0019,-0.0079,$GPGGA,131723.700,3850.0862,N,07730.4002,W,1,04,4.61,70.8,M,-33.4,M,,*6A
169,0,-0.11,0.01,0.04,-0.13,1.12,0.13,0.9946,-0.1031,0.0018,-0.0074,$GPGGA,131723.800,3850.0862,N,07730.4001,W,1,04,4.61,70.7,M,-33.4,M,,*69
170,0,0.07,-0.04,0.02,0.06,-0.25,0.31,0.9946,-0.1031,0.0018,-0.0077,$GPGGA,131723.900,3850.0862,N,07730.4000,W,1,04,4.61,70.6,M,-33.4,M,,*68
171,0,-0.05,0.01,0.03,-0.06,-0.37,-0.44,0.9946,-0.1031,0.0019,-0.0074,$GPGGA,131724.000,3850.0863,N,07730.3997,W,1,04,4.61,70.4,M,-33.4,M,,*65
172,0,0.01,0.00,0.01,0.06,0.50,0.44,0.9946,-0.1031,0.0018,-0.0074,$GPGGA,131724.100,3850.0863,N,07730.3996,W,1,04,4.61,70.3,M,-33.4,M,,*62
173,0,0.02,0.01,0.01,0.06,-0.25,-0.06,0.9946,-0.1031,0.0018,-0.0074,$GPGGA,131724.200,3850.0863,N,07730.3994,W,1,04,4.61,70.1,M,-33.4,M,,*61
174,0,-0.01,0.00,0.00,0.06,-0.13,0.25,0.9946,-0.1031,0.0019,-0.0074,$GPGGA,131724.300,3850.0864,N,07730.3993,W,1,04,4.61,70.0,M,-33.4,M,,*61
175,0,0.01,0.00,0.00,0.00,0.31,0.06,0.9946,-0.1031,0.0018,-0.0074,$GPGGA,131724.400,3850.0864,N,07730.3991,W,1,04,4.61,69.9,M,-33.4,M,,*65
176,0,0.01,0.00,0.03,0.06,-0.44,0.00,0.9946,-0.1031,0.0018,-0.0074,$GPGGA,131724.500,3850.0864,N,07730.3990,W,1,04,4.61,69.8,M,-33.4,M,,*64
177,0,0.00,0.00,-0.01,-0.19,0.25,0.06,0.9946,-0.1031,0.0019,-0.0074,$GPGGA,131724.600,3850.0865,N,07730.3989,W,1,04,4.61,69.7,M,-33.4,M,,*61
178,0,0.02,0.04,0.01,0.00,0.00,0.13,0.9946,-0.1031,0.0019,-0.0074,$GPGGA,131724.700,3850.0865,N,07730.3987,W,1,04,4.61,69.6,M,-33.4,M,,*6F
179,0,-0.01,-0.01,0.00,-0.06,-0.44,0.00,0.9946,-0.1031,0.0019,-0.0074,$GPGGA,131724.800,3850.0866,N,07730.3985,W,1,04,4.61,69.5,M,-33.4,M,,*62
180,0,0.02,0.07,0.04,0.06,0.37,-0.25,0.9946,-0.1031,0.0018,-0.0074,$GPGGA,131724.900,3850.0866,N,07730.3984,W,1,04,4.61,69.3,M,-33.4,M,,*64
181,0,-0.07,-0.11,0.00,0.06,-0.62,0.50,0.9946,-0.1031,0.0018,-0.0071,$GPGGA,131725.000,3850.0866,N,07730.3983,W,1,04,4.61,69.2,M,-33.4,M,,*6A
182,0,0.02,0.02,0.00,-0.06,0.44,-0.19,0.9946,-0.1031,0.0019,-0.0071,$GPGGA,131725.100,3850.0866,N,07730.3981,W,1,04,4.61,69.1,M,-33.4,M,,*6A
183,0,0.00,-0.04,-0.01,-0.19,-0.06,0.19,0.9946,-0.1031,0.0018,-0.0071,$GPGGA,131725.200,3850.0867,N,07730.3980,W,1,04,4.61,69.0,M,-33.4,M,,*68
184,0,-0.02,-0.02,0.03,-0.06,-0.13,0.00,0.9946,-0.1031,0.0018,-0.0071,$GPGGA,131725.300,3850.0867,N,07730.3978,W,1,04,4.61,68.9,M,-33.4,M,,*66
185,0,0.01,0.07,0.07,-0.13,0.44,0.37,0.9946,-0.1031,0.0018,-0.0071,$GPGGA,131725.400,3850.0867,N,07730.3977,W,1,04,4.61,68.8,M,-33.4,M,,*6F
186,0,-0.03,-0.13,0.00,-0.13,-0.56,-0.19,0.9946,-0.1031,0.0018,-0.0071,$GPGGA,131725.500,3850.0868,N,07730.3976,W,1,04,4.61,68.7,M,-33.4,M,,*6F
187,0,-0.04,0.05,0.03,0.00,0.37,0.19,0.9946,-0.1031,0.0020,-0.0071,$GPGGA,131725.600,3850.0868,N,07730.3975,W,1,04,4.61,68.6,M,-33.4,M,,*6E
188,0,0.00,-0.03,0.01,0.00,0.06,-0.31,0.9946,-0.1031,0.0017,-0.0071,$GPGGA,131725.700,3850.0868,N,07730.3974,W,1,04,4.61,68.4,M,-33.4,M,,*6C
189,0,0.00,0.03,0.06,0.00,-0.37,0.19,0.9946,-0.1031,0.0019,-0.0071,$GPGGA,131725.800,3850.0868,N,07730.3972,W,1,04,4.61,68.3,M,-33.4,M,,*62
190,0,-0.01,-0.02,0.00,0.06,0.81,0.00,0.9946,-0.1031,0.0019,-0.0071,$GPGGA,131725.900,3850.0869,N,07730.3971,W,1,04,4.61,68.2,M,-33.4,M,,*60
191,0,0.00,0.02,0.02,0.00,-0.44,0.19,0.9946,-0.1031,0.0017,-0.0071,$GPGGA,131726.000,3850.0869,N,07730.3971,W,1,04,4.61,68.2,M,-33.4,M,,*6A
192,0,0.00,0.00,0.02,0.00,0.13,-0.19,0.9946,-0.1031,0.0017,-0.0071,$GPGGA,131726.100,3850.0869,N,07730.3970,W,1,04,4.61,68.1,M,-33.4,M,,*69
193,0,0.00,-0.06,0.00,-0.13,0.19,0.13,0.9946,-0.1031,0.0017,-0.0071,$GPGGA,131726.200,3850.0869,N,07730.3969,W,1,04,4.61,68.0,M,-33.4,M,,*63
194,0,0.00,-0.03,0.01,-0.13,-0.37,0.13,0.9946,-0.1031,0.0017,-0.0071,$GPGGA,131726.300,3850.0869,N,07730.3969,W,1,04,4.61,67.9,M,-33.4,M,,*64
195,0,0.00,0.05,0.04,0.06,0.31,0.00,0.9946,-0.1031,0.0017,-0.0071,$GPGGA,131726.400,3850.0869,N,07730.3968,W,1,04,4.61,67.7,M,-33.4,M,,*6C
196,0,-0.01,-0.07,0.01,-0.06,-0.56,0.31,0.9946,-0.1031,0.0017,-0.0071,$GPGGA,131726.500,3850.0869,N,07730.3967,W,1,04,4.61,67.6,M,-33.4,M,,*63
197,0,0.00,-0.06,0.02,0.06,0.06,-0.25,0.9946,-0.1031,0.0017,-0.0071,$GPGGA,131726.600,3850.0869,N,07730.3966,W,1,04,4.60,67.5,M,-33.4,M,,*63
198,0,0.00,0.03,0.05,-0.19,0.00,0.37,0.9946,-0.1031,0.0017,-0.0071,$GPGGA,131726.700,3850.0869,N,07730.3966,W,1,04,4.61,67.4,M,-33.4,M,,*62
199,0,0.00,-0.02,0.03,0.00,-0.13,0.00,0.9946,-0.1031,0.0017,-0.0071,$GPGGA,131726.800,3850.0869,N,07730.3965,W,1,04,4.61,67.2,M,-33.4,M,,*68
200,0,-0.02,-0.02,0.03,0.06,-0.06,-0.06,0.9946,-0.1031,0.0017,-0.0071,$GPGGA,131726.900,3850.0869,N,07730.3964,W,1,04,4.61,67.1,M,-33.4,M,,*6B
201,0,0.02,0.11,0.05,0.13,0.13,-0.06,0.9946,-0.1031,0.0017,-0.0071,$GPGGA,131727.000,3850.0869,N,07730.3964,W,1,04,4.61,67.0,M,-33.4,M,,*62
202,0,0.00,-0.09,0.02,0.06,-0.19,-0.06,0.9946,-0.1031,0.0017,-0.0071,$GPGGA,131727.100,3850.0869,N,07730.3963,W,1,04,4.61,66.9,M,-33.4,M,,*6C
203,0,0.00,0.03,0.13,-0.06,0.25,-0.06,0.9946,-0.1031,0.0017,-0.0071,$GPGGA,131727.200,3850.0869,N,07730.3962,W,1,04,4.61,66.8,M,-33.4,M,,*6F
204,0,-0.01,0.03,0.19,-0.44,0.00,0.25,0.9946,-0.1031,0.0015,-0.0071,$GPGGA,131727.300,3850.0869,N,07730.3962,W,1,04,4.61,66.7,M,-33.4,M,,*61
205,0,-0.06,-0.25,0.08,-0.13,-0.19,-0.56,0.9946,-0.1035,0.0016,-0.0071,$GPGGA,131727.400,3850.0870,N,07730.3961,W,1,04,4.61,66.6,M,-33.4,M,,*6C
206,0,-0.05,0.16,0.10,0.00,0.44,0.25,0.9946,-0.1035,0.0016,-0.0071,$GPGGA,131727.500,3850.0870,N,07730.3960,W,1,04,4.61,66.5,M,-33.4,M,,*6F
207,0,0.02,0.23,0.13,0.00,0.06,0.06,0.9946,-0.1035,0.0016,-0.0071,$GPGGA,131727.600,3850.0870,N,07730.3959,W,1,04,4.61,66.3,M,-33.4,M,,*60
208,0,-0.05,-0.20,0.05,0.19,-0.19,-0.31,0.9946,-0.1034,0.0016,-0.0070,$GPGGA,131727.700,3850.0870,N,07730.3958,W,1,04,4.61,66.2,M,-33.4,M,,*61
209,0,-0.02,0.01,0.06,0.06,0.44,-0.06,0.9946,-0.1035,0.0017,-0.0070,$GPGGA,131727.800,3850.0870,N,07730.3957,W,1,04,4.61,66.0,M,-33.4,M,,*63
210,0,0.01,0.18,0.06,-0.13,0.00,0.06,0.9946,-0.1032,0.0017,-0.0070,$GPGGA,131727.900,3850.0870,N,07730.3955,W,1,04,4.61,65.9,M,-33.4,M,,*6A
211,0,0.01,-0.17,-0.05,0.00,-0.25,-0.19,0.9946,-0.1033,0.0017,-0.0070,$GPGGA,131728.000,3850.0870,N,07730.3954,W,1,04,4.61,65.7,M,-33.4,M,,*63
212,0,-0.04,0.17,-0.10,-0.13,0.13,-0.25,0.9946,-0.1031,0.0017,-0.0070,$GPGGA,131728.100,3850.0871,N,07730.3952,W,1,04,4.61,65.4,M,-33.4,M,,*66
213,0,0.05,-0.08,-0.08,-0.13,-0.06,-0.06,0.9946,-0.1031,0.0017,-0.0070,$GPGGA,131728.200,3850.0871,N,07730.3950,W,1,04,4.61,65.2,M,-33.4,M,,*61
214,0,0.01,0.12,0.14,0.00,-0.13,0.06,0.9946,-0.1031,0.0017,-0.0070,$GPGGA,131728.300,3850.0871,N,07730.3948,W,1,04,4.61,65.0,M,-33.4,M,,*6B
215,0,0.03,-0.12,0.02,0.00,0.13,-0.06,0.9946,-0.1031,0.0017,-0.0070,$GPGGA,131728.400,3850.0872,N,07730.3947,W,1,04,4.61,64.9,M,-33.4,M,,*68
216,0,0.03,0.11,0.04,0.00,-0.13,0.00,0.9946,-0.1031,0.0017,-0.0070,$GPGGA,131728.500,3850.0872,N,07730.3946,W,1,04,4.61,64.7,M,-33.4,M,,*66
217,0,0.02,0.00,0.00,0.00,-0.25,0.00,0.9946,-0.1031,0.0017,-0.0070,$GPGGA,131728.600,3850.0872,N,07730.3944,W,1,04,4.61,64.5,M,-33.4,M,,*65
218,0,0.02,0.03,0.06,0.19,-0.19,0.00,0.9946,-0.1031,0.0017,-0.0070,$GPGGA,131728.700,3850.0872,N,07730.3942,W,1,04,4.61,64.4,M,-33.4,M,,*63
219,0,-0.01,-0.09,0.05,0.13,-0.06,-0.19,0.9946,-0.1031,0.0017,-0.0070,$GPGGA,131728.800,3850.0873,N,07730.3941,W,1,04,4.61,64.2,M,-33.4,M,,*68
220,0,-0.02,0.05,0.04,0.06,-0.06,0.00,0.9946,-0.1031,0.0017,-0.0070,$GPGGA,131728.900,3850.0873,N,07730.3939,W,1,04,4.61,64.1,M,-33.4,M,,*65
221,0,-0.01,-0.08,0.00,0.06,0.06,-0.06,0.9946,-0.1031,0.0017,-0.0070,$GPGGA,131729.000,3850.0873,N,07730.3937,W,1,04,4.60,63.9,M,-33.4,M,,*6D
222,0,-0.01,0.06,0.04,0.00,0.00,0.31,0.9946,-0.1032,0.0017,-0.0070,$GPGGA,131729.100,3850.0873,N,07730.3935,W,1,04,4.61,63.7,M,-33.4,M,,*61
223,0,0.01,0.00,0.03,0.00,0.19,0.06,0.9946,-0.1032,0.0017,-0.0070,$GPGGA,131729.200,3850.0874,N,07730.3933,W,1,04,4.61,63.5,M,-33.4,M,,*61
224,0,0.00,0.03,0.06,-0.06,-0.25,-0.06,0.9946,-0.1032,0.0017,-0.0070,$GPGGA,131729.300,3850.0874,N,07730.3931,W,1,04,4.61,63.3,M,-33.4,M,,*64
225,0,-0.01,-0.01,0.04,0.13,0.00,0.00,0.9946,-0.1032,0.0017,-0.0070,$GPGGA,131729.400,3850.0874,N,07730.3929,W,1,04,4.61,63.0,M,-33.4,M,,*69
226,0,0.00,0.03,0.04,-0.06,0.13,-0.06,0.9946,-0.1032,0.0017,-0.0070,$GPGGA,131729.500,3850.0875,N,07730.3927,W,1,04,4.61,62.9,M,-33.4,M,,*6F
227,0,0.00,-0.06,-0.04,-0.13,-0.13,-0.19,0.9946,-0.1032,0.0017,-0.0070,$GPGGA,131729.600,3850.0875,N,07730.3925,W,1,04,4.60,62.6,M,-33.4,M,,*60
228,0,-0.01,0.05,0.05,0.06,0.31,0.00,0.9946,-0.1032,0.0017,-0.0070,$GPGGA,131729.700,3850.0875,N,07730.3923,W,1,04,4.61,62.4,M,-33.4,M,,*64
229,0,-0.01,-0.10,0.00,0.00,-0.06,0.00,0.9946,-0.1032,0.0017,-0.0070,$GPGGA,131729.800,3850.0876,N,07730.3922,W,1,04,4.61,62.2,M,-33.4,M,,*6F
230,0,0.00,0.03,0.04,0.06,0.19,-0.06,0.9946,-0.1032,0.0017,-0.0070,$GPGGA,131729.900,3850.0876,N,07730.3920,W,1,04,4.61,62.0,M,-33.4,M,,*6E
231,0,0.00,0.00,-0.04,-0.06,-0.06,0.00,0.9946,-0.1032,0.0017,-0.0070,$GPGGA,131730.000,3850.0876,N,07730.3918,W,1,04,4.60,61.8,M,-33.4,M,,*6E
232,0,-0.01,0.02,0.01,0.13,0.00,0.13,0.9946,-0.1032,0.0017,-0.0070,$GPGGA,131730.100,3850.0877,N,07730.3914,W,1,06,1.42,61.4,M,-33.4,M,,*69
233,0,0.00,-0.01,0.01,0.00,0.13,-0.13,0.9946,-0.1032,0.0017,-0.0070,$GPGGA,131730.200,3850.0878,N,07730.3909,W,1,06,1.42,60.9,M,-33.4,M,,*65
234,0,-0.01,-0.03,0.01,0.00,0.00,-0.06,0.9946,-0.1032,0.0017,-0.0070,$GPGGA,131730.300,3850.0879,N,07730.3905,W,1,06,1.42,60.5,M,-33.4,M,,*65
235,0,0.00,0.08,0.07,0.13,0.13,-0.13,0.9946,-0.1032,0.0017,-0.0070,$GPGGA,131730.400,3850.0880,N,07730.3901,W,1,06,1.46,60.1,M,-33.4,M,,*60
236,0,0.03,-0.01,0.01,0.00,-0.13,-0.19,0.9946,-0.1032,0.0017,-0.0070,$GPGGA,131730.500,3850.0881,N,07730.3898,W,1,06,1.42,59.7,M,-33.4,M,,*69
237,0,-0.03,-0.06,-0.01,-0.13,-0.31,0.25,0.9946,-0.1032,0.0017,-0.0070,$GPGGA,131730.600,3850.0881,N,07730.3894,W,1,06,1.42,59.3,M,-33.4,M,,*62
238,0,0.04,0.08,0.07,-0.13,0.13,0.06,0.9946,-0.1032,0.0017,-0.0070,$GPGGA,131730.700,3850.0882,N,07730.3892,W,1,06,1.42,59.1,M,-33.4,M,,*64
239,0,0.00,-0.07,0.03,0.00,-0.56,0.13,0.9946,-0.1032,0.0017,-0.0070,$GPGGA,131730.800,3850.0883,N,07730.3888,W,1,06,1.42,58.7,M,-33.4,M,,*66
240,0,-0.02,0.00,0.03,0.06,0.00,0.13,0.9946,-0.1032,0.0017,-0.0070,$GPGGA,131730.900,3850.0883,N,07730.3884,W,1,06,1.42,58.3,M,-33.4,M,,*6F
241,0,0.00,-0.04,0.00,0.00,0.00,-0.13,0.9946,-0.1032,0.0017,-0.0070,$GPGGA,131731.000,3850.0884,N,07730.3881,W,1,06,1.42,57.9,M,-33.4,M,,*60
242,0,0.03,0.01,-0.03,0.13,-0.31,0.00,0.9946,-0.1032,0.0017,-0.0070,$GPGGA,131731.100,3850.0885,N,07730.3878,W,1,06,1.42,57.6,M,-33.4,M,,*69
243,0,0.00,0.00,0.01,-0.13,0.37,0.00,0.9946,-0.1032,0.0017,-0.0070,$GPGGA,131731.200,3850.0886,N,07730.3875,W,1,06,1.42,57.3,M,-33.4,M,,*61
244,0,0.01,-0.02,0.01,-0.13,-0.06,0.06,0.9946,-0.1032,0.0017,-0.0070,$GPGGA,131731.300,3850.0886,N,07730.3872,W,1,06,1.42,57.1,M,-33.4,M,,*65
245,0,-0.03,0.02,0.02,0.06,0.13,-0.19,0.9946,-0.1032,0.0017,-0.0070,$GPGGA,131731.400,3850.0887,N,07730.3869,W,1,06,1.42,56.8,M,-33.4,M,,*61
246,0,-0.01,-0.03,0.00,0.06,0.00,0.13,0.9946,-0.1032,0.0017,-0.0070,$GPGGA,131731.500,3850.0888,N,07730.3866,W,1,06,1.42,56.5,M,-33.4,M,,*6D
247,0,0.01,0.00,0.00,0.19,-0.25,0.13,0.9946,-0.1032,0.0014,-0.0070,$GPGGA,131731.600,3850.0888,N,07730.3863,W,1,06,1.42,56.3,M,-33.4,M,,*6D
248,0,-0.01,0.02,0.03,0.06,0.06,-0.13,0.9946,-0.1032,0.0014,-0.0070,$GPGGA,131731.700,3850.0889,N,07730.3862,W,1,06,1.42,56.2,M,-33.4,M,,*6D
249,0,-0.03,-0.02,0.03,0.25,-0.19,0.13,0.9946,-0.1032,0.0014,-0.0070,$GPGGA,131731.800,3850.0889,N,07730.3860,W,1,06,1.46,56.0,M,-33.4,M,,*66
250,0,-0.05,-0.02,0.00,0.37,0.00,-0.06,0.9946,-0.1032,0.0014,-0.0070,$GPGGA,131731.900,3850.0890,N,07730.3858,W,1,06,1.46,55.8,M,-33.4,M,,*6F
251,0,-0.01,-0.02,0.01,0.00,-0.13,0.13,0.9946,-0.1032,0.0014,-0.0070,$GPGGA,131732.000,3850.0890,N,07730.3856,W,1,06,1.42,55.6,M,-33.4,M,,*61
252,0,-0.01,0.03,0.03,-0.13,-0.13,0.00,0.9946,-0.1032,0.0014,-0.0070,$GPGGA,131732.100,3850.0891,N,07730.3854,W,1,06,1.42,55.4,M,-33.4,M,,*61
253,0,0.00,-0.02,0.03,0.13,-0.13,0.06,0.9946,-0.1032,0.0014,-0.0070,$GPGGA,131732.200,3850.0891,N,07730.3851,W,1,06,1.42,55.2,M,-33.4,M,,*61
254,0,0.00,0.00,0.02,-0.06,-0.06,0.06,0.9946,-0.1032,0.0014,-0.0070,$GPGGA,131732.300,3850.0892,N,07730.3849,W,1,06,1.42,55.0,M,-33.4,M,,*68
255,0,-0.02,0.02,0.02,-0.06,-0.06,0.13,0.9946,-0.1032,0.0014,-0.0070,$GPGGA,131732.400,3850.0892,N,07730.3846,W,1,06,1.42,54.7,M,-33.4,M,,*66
256,0,0.00,-0.03,0.03,-0.06,-0.06,-0.13,0.9946,-0.1032,0.0014,-0.0070,$GPGGA,131732.500,3850.0893,N,07730.3844,W,1,06,1.42,54.4,M,-33.4,M,,*67
257,0,0.00,0.03,0.04,0.00,-0.06,0.06,0.9946,-0.1032,0.0014,-0.0070,$GPGGA,131732.600,3850.0893,N,07730.3842,W,1,06,1.42,54.2,M,-33.4,M,,*64
258,0,0.01,0.00,0.01,0.00,0.19,0.00,0.9946,-0.1032,0.0014,-0.0070,$GPGGA,131732.700,3850.0894,N,07730.3840,W,1,06,1.42,54.1,M,-33.4,M,,*63
259,0,0.02,-0.01,0.04,0.00,-0.19,-0.13,0.9946,-0.1032,0.0014,-0.0070,$GPGGA,131732.800,3850.0894,N,07730.3838,W,1,06,1.42,53.8,M,-33.4,M,,*6D
260,0,0.01,0.02,0.05,-0.19,0.13,-0.06,0.9946,-0.1032,0.0014,-0.0070,$GPGGA,131732.900,3850.0909,N,07730.3787,W,1,06,1.42,50.0,M,-33.4,M,,*69
261,0,0.01,-0.09,-0.01,0.00,0.00,0.06,0.9946,-0.1032,0.0014,-0.0070,$GPGGA,131733.000,3850.0920,N,07730.3748,W,1,06,1.42,47.0,M,-33.4,M,,*6F
262,0,0.00,0.07,0.05,-0.25,-0.37,0.06,0.9946,-0.1032,0.0014,-0.0070,$GPGGA,131733.100,3850.0926,N,07730.3728,W,1,06,1.42,45.5,M,-33.4,M,,*69
263,0,0.00,0.00,0.02,0.13,0.37,0.00,0.9946,-0.1032,0.0014,-0.0070,$GPGGA,131733.200,3850.0931,N,07730.3710,W,1,06,1.42,44.1,M,-33.4,M,,*62
264,0,0.00,0.00,0.02,0.06,-0.13,0.00,0.9946,-0.1032,0.0014,-0.0070,$GPGGA,131733.300,3850.0935,N,07730.3696,W,1,06,1.42,43.1,M,-33.4,M,,*6F
265,0,0.02,0.00,0.05,-0.06,-0.13,-0.06,0.9946,-0.1032,0.0014,-0.0070,$GPGGA,131733.400,3850.0938,N,07730.3686,W,1,06,1.42,42.3,M,-33.4,M,,*67
266,0,0.00,-0.01,0.02,0.06,0.19,-0.13,0.9946,-0.1032,0.0014,-0.0070,$GPGGA,131733.500,3850.0940,N,07730.3678,W,1,06,1.42,41.7,M,-33.4,M,,*6F
267,0,0.02,0.01,0.04,0.06,0.19,0.06,0.9946,-0.1032,0.0014,-0.0070,$GPGGA,131733.600,3850.0942,N,07730.3672,W,1,06,1.42,41.2,M,-33.4,M,,*61
268,0,-0.04,0.00,0.04,0.00,0.00,-0.13,0.9946,-0.1032,0.0014,-0.0070,$GPGGA,131733.700,3850.0943,N,07730.3667,W,1,06,1.42,40.8,M,-33.4,M,,*6E
269,0,0.02,0.01,0.01,0.13,-0.37,0.25,0.9946,-0.1032,0.0014,-0.0070,$GPGGA,131733.800,3850.0945,N,07730.3660,W,1,06,1.42,40.3,M,-33.4,M,,*6B
270,0,0.01,0.01,0.01,0.00,0.25,-0.25,0.9946,-0.1032,0.0014,-0.0070,$GPGGA,131733.900,3850.0946,N,07730.3656,W,1,06,1.42,40.0,M,-33.4,M,,*6F
271,0,-0.03,0.03,0.11,-0.06,-0.19,0.25,0.9946,-0.1032,0.0014,-0.0070,$GPGGA,131734.000,3850.0947,N,07730.3651,W,1,05,1.49,39.6,M,-33.4,M,,*67
272,0,-0.09,0.05,0.12,-0.19,0.62,-0.25,0.9946,-0.1032,0.0014,-0.0070,$GPGGA,131734.100,3850.0948,N,07730.3647,W,1,06,1.42,39.3,M,-33.4,M,,*63
273,0,-0.08,-0.16,0.07,-0.25,1.00,-0.62,0.9946,-0.1032,0.0016,-0.0071,$GPGGA,131734.200,3850.0949,N,07730.3644,W,1,06,1.42,39.1,M,-33.4,M,,*60
274,0,-0.03,0.12,0.08,0.00,-0.31,0.19,0.9946,-0.1032,0.0017,-0.0071,$GPGGA,131734.300,3850.0949,N,07730.3642,W,1,06,1.42,38.9,M,-33.4,M,,*6E
275,0,0.01,-0.02,-0.08,0.00,0.19,-0.06,0.9946,-0.1032,0.0020,-0.0071,$GPGGA,131734.400,3850.0950,N,07730.3639,W,1,06,1.42,38.7,M,-33.4,M,,*63
276,0,-0.03,-0.06,0.02,0.00,0.56,-0.19,0.9946,-0.1032,0.0019,-0.0071,$GPGGA,131734.500,3850.0950,N,07730.3637,W,1,06,1.42,38.6,M,-33.4,M,,*6D
277,0,0.07,0.08,0.04,-0.25,-0.50,0.06,0.9946,-0.1031,0.0021,-0.0072,$GPGGA,131734.600,3850.0950,N,07730.3635,W,1,06,1.42,38.4,M,-33.4,M,,*6E
278,0,-0.04,0.03,-0.02,-0.13,0.25,0.06,0.9946,-0.1031,0.0020,-0.0071,$GPGGA,131734.700,3850.0951,N,07730.3634,W,1,06,1.42,38.4,M,-33.4,M,,*6F
279,0,-0.05,-0.10,-0.02,0.00,-0.62,0.37,0.9946,-0.1032,0.0017,-0.0071,$GPGGA,131734.800,3850.0951,N,07730.3632,W,1,06,1.42,38.3,M,-33.4,M,,*61
280,0,-0.10,-0.11,0.13,0.00,0.62,-0.37,0.9946,-0.1032,0.0018,-0.0071,$GPGGA,131734.900,3850.0951,N,07730.3631,W,1,06,1.42,38.2,M,-33.4,M,,*62
281,0,-0.09,-0.04,0.15,-0.25,-0.19,0.00,0.9946,-0.1032,0.0018,-0.0071,$GPGGA,131735.000,3850.0952,N,07730.3630,W,1,06,1.42,38.1,M,-33.4,M,,*6B
282,0,0.11,0.11,-0.03,-0.13,-0.13,-0.13,0.9946,-0.1031,0.0021,-0.0072,$GPGGA,131735.100,3850.0952,N,07730.3629,W,1,06,1.42,38.1,M,-33.4,M,,*62
283,0,-0.01,0.06,0.00,0.06,0.19,0.13,0.9946,-0.1032,0.0019,-0.0071,$GPGGA,131735.200,3850.0952,N,07730.3628,W,1,06,1.42,38.0,M,-33.4,M,,*61
284,0,0.00,-0.11,0.04,0.31,-0.50,-0.06,0.9946,-0.1032,0.0018,-0.0071,$GPGGA,131735.300,3850.0952,N,07730.3627,W,1,06,1.42,38.0,M,-33.4,M,,*6F
285,0,0.02,0.00,0.02,0.06,-0.13,-0.25,0.9946,-0.1032,0.0018,-0.0071,$GPGGA,131735.400,3850.0952,N,07730.3626,W,1,06,1.42,38.0,M,-33.4,M,,*69
286,0,0.08,0.07,-0.02,-0.13,0.94,-0.81,0.9946,-0.1031,0.0023,-0.0076,$GPGGA,131735.500,3850.0952,N,07730.3625,W,1,06,1.42,37.9,M,-33.4,M,,*6D
287,0,0.19,0.06,0.03,0.06,-0.50,0.37,0.9946,-0.1031,0.0026,-0.0081,$GPGGA,131735.600,3850.0952,N,07730.3625,W,1,06,1.42,37.9,M,-33.4,M,,*6E
288,0,0.11,0.06,0.19,-0.06,0.56,-0.25,0.9946,-0.1031,0.0027,-0.0081,$GPGGA,131735.700,3850.0952,N,07730.3624,W,1,06,1.42,37.9,M,-33.4,M,,*6E
289,0,0.01,-0.01,-0.02,0.00,0.06,0.50,0.9946,-0.1031,0.0027,-0.0081,$GPGGA,131735.800,3850.0952,N,07730.3623,W,1,06,1.42,37.9,M,-33.4,M,,*66
290,0,0.03,0.02,-0.08,0.00,0.37,-0.31,0.9946,-0.1031,0.0027,-0.0081,$GPGGA,131735.900,3850.0952,N,07730.3623,W,1,06,1.42,37.9,M,-33.4,M,,*67
291,0,0.03,0.00,-0.03,0.00,-0.06,0.19,0.9946,-0.1031,0.0027,-0.0081,$GPGGA,131736.000,3850.0952,N,07730.3622,W,1,06,1.42,37.8,M,-33.4,M,,*6D
292,0,0.04,0.00,0.02,-0.06,0.06,-0.31,0.9946,-0.1031,0.0027,-0.0081,$GPGGA,131736.100,3850.0952,N,07730.3621,W,1,06,1.42,37.8,M,-33.4,M,,*6F
293,0,0.00,-0.02,0.05,-0.06,0.00,-0.06,0.9946,-0.1031,0.0027,-0.0081,$GPGGA,131736.200,3850.0952,N,07730.3621,W,1,06,1.42,37.8,M,-33.4,M,,*6C
294,0,0.04,0.00,0.03,-0.06,0.31,-0.13,0.9946,-0.1031,0.0027,-0.0081,$GPGGA,131736.300,3850.0952,N,07730.3621,W,1,06,1.42,37.8,M,-33.4,M,,*6D
295,0,0.01,0.00,0.01,0.00,-0.06,-0.19,0.9946,-0.1031,0.0027,-0.0081,$GPGGA,131736.400,3850.0952,N,07730.3620,W,1,06,1.42,37.8,M,-33.4,M,,*6B
296,0,0.04,0.01,0.01,-0.06,-0.13,0.13,0.9946,-0.1031,0.0027,-0.0081,$GPGGA,131736.500,3850.0952,N,07730.3620,W,1,06,1.42,37.8,M,-33.4,M,,*6A
297,0,0.03,0.00,0.03,0.00,0.00,0.06,0.9946,-0.1031,0.0027,-0.0081,$GPGGA,131736.600,3850.0952,N,07730.3620,W,1,06,1.42,37.8,M,-33.4,M,,*69
298,0,0.01,0.00,0.03,-0.06,-0.19,0.13,0.9946,-0.1031,0.0027,-0.0081,$GPGGA,131736.700,3850.0952,N,07730.3620,W,1,06,1.42,37.9,M,-33.4,M,,*69
299,0,0.00,-0.02,0.03,0.06,-0.19,0.00,0.9946,-0.1031,0.0027,-0.0081,$GPGGA,131736.800,3850.0952,N,07730.3620,W,1,06,1.42,37.9,M,-33.4,M,,*66
300,0,0.06,0.04,0.00,-0.13,-0.13,-0.69,0.9946,-0.1031,0.0027,-0.0084,$GPGGA,131736.900,3850.0952,N,07730.3619,W,1,06,1.42,37.9,M,-33.4,M,,*6D
301,0,-0.08,0.00,0.00,0.00,-0.50,0.75,0.9946,-0.1031,0.0027,-0.0081,$GPGGA,131737.000,3850.0952,N,07730.3619,W,1,06,1.42,38.0,M,-33.4,M,,*63
302,0,0.06,-0.07,0.00,-0.06,0.94,-0.50,0.9946,-0.1031,0.0027,-0.0083,$GPGGA,131737.100,3850.0952,N,07730.3619,W,1,06,1.42,38.0,M,-33.4,M,,*62
303,0,0.00,0.00,0.03,-0.06,-0.88,0.31,0.9946,-0.1031,0.0026,-0.0082,$GPGGA,131737.200,3850.0952,N,07730.3619,W,1,06,1.46,38.0,M,-33.4,M,,*65
304,0,0.01,-0.04,-0.02,-0.06,0.31,-0.44,0.9946,-0.1031,0.0027,-0.0083,$GPGGA,131737.300,3850.0952,N,07730.3619,W,1,06,1.46,38.0,M,-33.4,M,,*64
305,0,0.00,0.00,0.01,0.19,-0.25,0.31,0.9946,-0.1031,0.0026,-0.0082,$GPGGA,131737.400,3850.0952,N,07730.3619,W,1,06,1.46,38.1,M,-33.4,M,,*62
306,0,0.04,0.01,0.04,0.06,-0.19,-0.31,0.9946,-0.1031,0.0026,-0.0082,$GPGGA,131737.500,3850.0952,N,07730.3619,W,1,06,1.42,38.1,M,-33.4,M,,*67
307,0,0.02,0.07,-0.01,0.06,0.06,0.25,0.9946,-0.1031,0.0026,-0.0082,$GPGGA,131737.600,3850.0952,N,07730.3619,W,1,06,1.42,38.1,M,-33.4,M,,*64
308,0,0.03,-0.06,0.01,0.13,0.00,0.19,0.9946,-0.1031,0.0026,-0.0082,$GPGGA,131737.700,3850.0952,N,07730.3619,W,1,06,1.42,38.1,M,-33.4,M,,*65
309,0,0.00,0.05,-0.04,0.00,-0.25,-0.19,0.9946,-0.1031,0.0026,-0.0082,$GPGGA,131737.800,3850.0952,N,07730.3619,W,1,06,1.42,38.1,M,-33.4,M,,*6A
310,0,-0.03,0.00,-0.04,-0.13,-0.06,0.31,0.9946,-0.1031,0.0026,-0.0082,$GPGGA,131737.900,3850.0952,N,07730.3619,W,1,06,1.42,38.2,M,-33.4,M,,*68
311,0,0.00,-0.02,0.03,-0.19,0.44,0.00,0.9946,-0.1031,0.0023,-0.0082,$GPGGA,131738.000,3850.0952,N,07730.3619,W,1,06,1.42,38.2,M,-33.4,M,,*6E
312,0,0.00,0.01,0.01,-0.06,-0.75,0.06,0.9946,-0.1031,0.0022,-0.0082,$GPGGA,131738.100,3850.0952,N,07730.3619,W,1,06,1.42,38.2,M,-33.4,M,,*6F
313,0,0.00,0.00,0.01,-0.06,0.19,0.00,0.9946,-0.1032,0.0021,-0.0082,$GPGGA,131738.200,3850.0952,N,07730.3619,W,1,06,1.42,38.2,M,-33.4,M,,*6C
314,0,0.01,-0.04,0.03,0.06,-0.31,-0.06,0.9946,-0.1032,0.0021,-0.0082,$GPGGA,131738.300,3850.0952,N,07730.3619,W,1,06,1.46,38.3,M,-33.4,M,,*68
315,0,0.00,0.05,0.05,-0.06,-0.19,-0.06,0.9946,-0.1032,0.0021,-0.0082,$GPGGA,131738.400,3850.0952,N,07730.3619,W,1,06,1.46,38.3,M,-33.4,M,,*6F
316,0,-0.03,0.00,0.06,-0.06,0.37,0.37,0.9946,-0.1032,0.0021,-0.0082,$GPGGA,131738.500,3850.0952,N,07730.3619,W,1,06,1.46,38.3,M,-33.4,M,,*6E
317,0,0.02,-0.11,-0.01,0.13,-0.06,-0.50,0.9946,-0.1032,0.0021,-0.0082,$GPGGA,131738.600,3850.0952,N,07730.3619,W,1,06,1.46,38.3,M,-33.4,M,,*6D
318,0,-0.03,0.08,0.08,0.13,-0.06,0.31,0.9946,-0.1032,0.0021,-0.0082,$GPGGA,131738.700,3850.0951,N,07730.3619,W,1,06,1.46,38.3,M,-33.4,M,,*6F
319,0,0.00,-0.07,0.00,0.00,0.62,0.00,0.9946,-0.1032,0.0020,-0.0082,$GPGGA,131738.800,3850.0951,N,07730.3619,W,1,06,1.46,38.4,M,-33.4,M,,*67
320,0,0.00,0.09,0.04,-0.19,-0.37,0.00,0.9946,-0.1032,0.0020,-0.0082,$GPGGA,131738.900,3850.0951,N,07730.3619,W,1,06,1.46,38.5,M,-33.4,M,,*67
321,0,-0.01,-0.04,0.00,0.00,0.19,0.37,0.9946,-0.1032,0.0020,-0.0082,$GPGGA,131739.000,3850.0951,N,07730.3619,W,1,06,1.42,38.6,M,-33.4,M,,*68
322,0,0.00,0.04,0.03,0.06,0.06,0.13,0.9946,-0.1032,0.0020,-0.0082,$GPGGA,131739.100,3850.0951,N,07730.3619,W,1,06,1.46,38.7,M,-33.4,M,,*6C
323,0,0.00,-0.02,0.07,0.13,-0.50,0.13,0.9946,-0.1032,0.0020,-0.0082,$GPGGA,131739.200,3850.0951,N,07730.3619,W,1,06,1.46,38.8,M,-33.4,M,,*60
324,0,0.04,-0.06,0.08,0.00,0.37,0.06,0.9946,-0.1032,0.0019,-0.0082,$GPGGA,131739.300,3850.0950,N,07730.3619,W,1,06,1.46,38.9,M,-33.4,M,,*61
325,0,0.04,0.04,0.04,0.06,-0.44,-0.13,0.9946,-0.1032,0.0018,-0.0082,$GPGGA,131739.400,3850.0950,N,07730.3619,W,1,06,1.42,39.0,M,-33.4,M,,*6A
326,0,0.02,-0.04,-0.02,0.06,0.06,0.13,0.9946,-0.1032,0.0018,-0.0082,$GPGGA,131739.500,3850.0950,N,07730.3619,W,1,06,1.42,39.0,M,-33.4,M,,*6B
327,0,0.01,0.03,0.02,0.00,0.00,0.13,0.9946,-0.1032,0.0016,-0.0082,$GPGGA,131739.600,3850.0950,N,07730.3619,W,1,06,1.42,39.1,M,-33.4,M,,*69
328,0,0.00,-0.07,-0.02,-0.06,-0.56,-0.19,0.9946,-0.1032,0.0016,-0.0082,$GPGGA,131739.700,3850.0950,N,07730.3619,W,1,06,1.42,39.2,M,-33.4,M,,*6B
329,0,0.00,0.00,0.03,0.00,0.25,0.06,0.9946,-0.1032,0.0016,-0.0082,$GPGGA,131739.800,3850.0950,N,07730.3619,W,1,06,1.42,39.3,M,-33.4,M,,*65
330,0,0.03,-0.01,0.04,0.00,0.13,0.25,0.9946,-0.1032,0.0016,-0.0082,$GPGGA,131739.900,3850.0950,N,07730.3619,W,1,06,1.42,39.4,M,-33.4,M,,*63
331,0,0.01,0.00,0.04,0.06,-0.31,-0.13,0.9946,-0.1032,0.0016,-0.0082,$GPGGA,131740.000,3850.0950,N,07730.3619,W,1,06,1.42,39.5,M,-33.4,M,,*65
332,0,-0.04,-0.06,-0.07,-0.13,0.06,0.13,0.9946,-0.1032,0.0016,-0.0082,$GPGGA,131740.100,3850.0950,N,07730.3619,W,1,06,1.42,39.6,M,-33.4,M,,*67
333,0,0.01,0.08,0.01,-0.19,-0.06,-0.13,0.9946,-0.1032,0.0016,-0.0082,$GPGGA,131740.200,3850.0949,N,07730.3619,W,1,06,1.42,39.6,M,-33.4,M,,*6C
334,0,-0.01,-0.04,0.08,0.13,-0.25,0.19,0.9946,-0.1032,0.0016,-0.0082,$GPGGA,131740.300,3850.0949,N,07730.3619,W,1,06,1.42,39.7,M,-33.4,M,,*6C
335,0,0.01,0.00,0.03,-0.13,-0.13,-0.25,0.9946,-0.1032,0.0016,-0.0082,$GPGGA,131740.400,3850.0949,N,07730.3619,W,1,06,1.42,39.7,M,-33.4,M,,*6B
336,0,-0.01,0.08,0.12,0.06,0.00,0.00,0.9946,-0.1032,0.0016,-0.0082,$GPGGA,131740.500,3850.0949,N,07730.3619,W,1,06,1.42,39.7,M,-33.4,M,,*6A
337,0,0.01,-0.05,0.06,-0.06,0.25,0.06,0.9946,-0.1032,0.0016,-0.0082,$GPGGA,131740.600,3850.0948,N,07730.3619,W,1,06,1.42,39.8,M,-33.4,M,,*67
338,0,0.04,-0.01,0.00,0.06,-0.44,-0.13,0.9946,-0.1032,0.0016,-0.0082,$GPGGA,131740.700,3850.0948,N,07730.3619,W,1,06,1.42,39.8,M,-33.4,M,,*66
339,0,0.02,0.04,-0.03,0.00,-0.50,0.00,0.9946,-0.1032,0.0018,-0.0082,$GPGGA,131740.800,3850.0948,N,07730.3619,W,1,06,1.42,39.8,M,-33.4,M,,*69
340,0,0.03,0.00,0.03,0.00,0.50,0.25,0.9946,-0.1032,0.0016,-0.0082,$GPGGA,131740.900,3850.0948,N,07730.3619,W,1,06,1.42,39.9,M,-33.4,M,,*69
341,0,0.04,-0.17,0.04,0.13,0.06,0.13,0.9946,-0.1032,0.0017,-0.0082,$GPGGA,131741.000,3850.0948,N,07730.3619,W,1,06,1.42,39.9,M,-33.4,M,,*61
342,0,0.06,0.10,-0.15,-0.13,-0.69,-0.44,0.9946,-0.1032,0.0014,-0.0081,$GPGGA,131741.100,3850.0948,N,07730.3619,W,1,06,1.42,39.9,M,-33.4,M,,*60
343,0,-0.11,-0.03,0.00,-0.25,0.44,0.19,0.9946,-0.1032,0.0018,-0.0082,$GPGGA,131741.200,3850.0948,N,07730.3619,W,1,06,1.42,40.0,M,-33.4,M,,*64
344,0,0.02,0.00,0.03,-0.25,0.88,0.06,0.9946,-0.1032,0.0015,-0.0081,$GPGGA,131741.300,3850.0947,N,07730.3619,W,1,06,1.42,40.0,M,-33.4,M,,*6A
345,0,0.08,0.02,-0.03,0.19,-1.25,-0.06,0.9946,-0.1032,0.0016,-0.0082,$GPGGA,131741.400,3850.0947,N,07730.3619,W,1,06,1.42,40.0,M,-33.4,M,,*6D
346,0,0.00,0.00,0.02,0.00,0.62,-0.13,0.9946,-0.1032,0.0018,-0.0082,$GPGGA,131741.500,3850.0947,N,07730.3619,W,1,06,1.42,40.1,M,-33.4,M,,*6D
347,0,0.00,0.04,0.11,-0.06,0.69,0.25,0.9946,-0.1032,0.0018,-0.0082,$GPGGA,131741.600,3850.0947,N,07730.3619,W,1,06,1.42,40.1,M,-33.4,M,,*6E
348,0,0.01,0.05,0.05,-0.06,-0.62,-0.13,0.9946,-0.1032,0.0016,-0.0082,$GPGGA,131741.700,3850.0947,N,07730.3619,W,1,06,1.42,40.1,M,-33.4,M,,*6F
349,0,-0.18,-0.32,-0.09,0.06,0.75,0.06,0.9946,-0.1037,0.0018,-0.0082,$GPGGA,131741.800,3850.0947,N,07730.3619,W,1,06,1.42,40.1,M,-33.4,M,,*60
350,0,-0.13,0.48,0.25,0.13,-0.81,-0.06,0.9946,-0.1040,0.0018,-0.0082,$GPGGA,131741.900,3850.0947,N,07730.3619,W,1,06,1.42,40.2,M,-33.4,M,,*62
351,0,-0.12,-0.30,-0.02,0.06,1.69,0.31,0.9946,-0.1040,0.0015,-0.0081,$GPGGA,131742.000,3850.0946,N,07730.3619,W,1,06,1.42,40.2,M,-33.4,M,,*69
352,0,0.00,0.12,0.00,0.31,-2.62,-0.19,0.9945,-0.1042,0.0015,-0.0081,$GPGGA,131742.100,3850.0946,N,07730.3619,W,1,06,1.42,40.2,M,-33.4,M,,*68
353,0,-0.06,-0.17,0.04,0.06,1.87,0.00,0.9945,-0.1043,0.0019,-0.0082,$GPGGA,131742.200,3850.0946,N,07730.3619,W,1,06,1.42,40.3,M,-33.4,M,,*6A
354,0,-0.07,0.00,0.08,-0.19,0.50,0.00,0.9945,-0.1044,0.0018,-0.0082,$GPGGA,131742.300,3850.0946,N,07730.3619,W,1,06,1.42,40.4,M,-33.4,M,,*6C
355,0,-0.08,0.13,0.12,-0.06,-0.94,-0.19,0.9945,-0.1042,0.0023,-0.0082,$GPGGA,131742.400,3850.0946,N,07730.3620,W,1,06,1.42,40.4,M,-33.4,M,,*61
356,0,-0.10,-0.02,-0.04,0.13,0.44,0.00,0.9945,-0.1041,0.0021,-0.0082,$GPGGA,131742.500,3850.0946,N,07730.3620,W,1,06,1.42,40.6,M,-33.4,M,,*62
357,0,-0.07,-0.02,-0.01,0.13,-0.31,0.06,0.9945,-0.1041,0.0019,-0.0082,$GPGGA,131742.600,3850.0946,N,07730.3620,W,1,06,1.42,40.8,M,-33.4,M,,*6F
358,0,-0.03,0.11,0.10,-0.13,0.13,-0.06,0.9946,-0.1040,0.0019,-0.0082,$GPGGA,131742.700,3850.0946,N,07730.3620,W,1,06,1.42,40.8,M,-33.4,M,,*6E
359,0,-0.06,-0.22,0.00,0.06,0.06,0.25,0.9946,-0.1039,0.0019,-0.0082,$GPGGA,131742.800,3850.0946,N,07730.3621,W,1,06,1.42,40.9,M,-33.4,M,,*61
360,0,0.09,0.02,-0.17,0.13,-0.62,0.00,0.9946,-0.1039,0.0019,-0.0082,$GPGGA,131742.900,3850.0946,N,07730.3621,W,1,06,1.42,41.0,M,-33.4,M,,*68
361,0,0.10,0.02,-0.13,0.13,0.50,0.13,0.9946,-0.1039,0.0020,-0.0082,$GPGGA,131743.000,3850.0946,N,07730.3621,W,1,06,1.42,41.2,M,-33.4,M,,*62
362,0,0.00,0.08,0.02,0.00,0.13,0.00,0.9946,-0.1038,0.0021,-0.0082,$GPGGA,131743.100,3850.0946,N,07730.3621,W,1,06,1.42,41.3,M,-33.4,M,,*62
363,0,0.00,-0.31,0.13,0.00,0.25,-0.31,0.9946,-0.1040,0.0021,-0.0082,$GPGGA,131743.200,3850.0946,N,07730.3621,W,1,06,1.42,41.5,M,-33.4,M,,*67
364,0,-0.13,0.19,0.37,0.13,-0.25,0.44,0.9945,-0.1042,0.0021,-0.0082,$GPGGA,131743.300,3850.0946,N,07730.3622,W,1,06,1.42,41.6,M,-33.4,M,,*66
365,0,0.01,-0.16,-0.11,-0.13,0.25,0.19,0.9945,-0.1042,0.0017,-0.0081,$GPGGA,131743.400,3850.0946,N,07730.3622,W,1,06,1.42,41.8,M,-33.4,M,,*6F
366,0,0.02,0.08,-0.12,-0.06,-0.81,-0.25,0.9945,-0.1043,0.0015,-0.0081,$GPGGA,131743.500,3850.0946,N,07730.3622,W,1,06,1.46,42.0,M,-33.4,M,,*61
367,0,-0.11,0.01,0.14,-0.56,0.69,-0.44,0.9945,-0.1042,0.0016,-0.0079,$GPGGA,131743.600,3850.0946,N,07730.3622,W,1,06,1.42,42.1,M,-33.4,M,,*67
368,0,0.03,0.03,0.17,0.00,-0.44,0.25,0.9945,-0.1041,0.0021,-0.0082,$GPGGA,131743.700,3850.0946,N,07730.3622,W,1,06,1.42,42.2,M,-33.4,M,,*65
369,0,-0.01,-0.07,-0.05,-0.06,-0.31,-0.31,0.9945,-0.1042,0.0020,-0.0078,$GPGGA,131743.800,3850.0946,N,07730.3622,W,1,06,1.42,42.3,M,-33.4,M,,*6B
370,0,0.00,0.43,-0.04,-0.13,0.37,-0.25,0.9944,-0.1047,0.0020,-0.0079,$GPGGA,131743.900,3850.0946,N,07730.3622,W,1,06,1.42,42.5,M,-33.4,M,,*6C
371,0,0.01,0.02,0.15,-0.31,-0.81,-0.37,0.9945,-0.1047,0.0015,-0.0076,$GPGGA,131744.000,3850.0946,N,07730.3622,W,1,06,1.42,42.6,M,-33.4,M,,*61
372,0,0.02,-0.06,0.40,-0.13,-0.31,-0.31,0.9945,-0.1047,0.0021,-0.0077,$GPGGA,131744.100,3850.0946,N,07730.3622,W,1,06,1.42,42.8,M,-33.4,M,,*6E
373,0,-0.12,0.00,0.13,-0.06,0.81,0.19,0.9945,-0.1047,0.0017,-0.0076,$GPGGA,131744.200,3850.0946,N,07730.3623,W,1,06,1.42,42.9,M,-33.4,M,,*6D
374,0,0.04,0.17,-0.07,-0.06,-0.56,0.25,0.9945,-0.1046,0.0015,-0.0076,$GPGGA,131744.300,3850.0945,N,07730.3623,W,1,06,1.42,43.1,M,-33.4,M,,*66
375,0,-0.20,-0.13,0.16,-0.06,-0.19,-0.50,0.9945,-0.1045,0.0016,-0.0076,$GPGGA,131744.400,3850.0945,N,07730.3624,W,1,06,1.46,43.1,M,-33.4,M,,*62
376,0,-0.01,0.00,0.20,0.13,0.81,0.13,0.9945,-0.1047,0.0016,-0.0076,$GPGGA,131744.500,3850.0945,N,07730.3624,W,1,06,1.42,43.2,M,-33.4,M,,*64
377,0,0.06,0.10,-0.04,-0.13,-0.62,0.00,0.9945,-0.1045,0.0015,-0.0076,$GPGGA,131744.600,3850.0945,N,07730.3624,W,1,06,1.42,43.3,M,-33.4,M,,*66
378,0,-0.14,0.03,-0.04,0.44,-0.88,0.94,0.9946,-0.1034,0.0020,-0.0075,$GPGGA,131744.700,3850.0945,N,07730.3624,W,1,06,1.42,43.4,M,-33.4,M,,*60
379,0,-0.27,-0.21,0.11,0.19,2.81,-0.13,0.9946,-0.1033,0.0012,-0.0071,$GPGGA,131744.800,3850.0945,N,07730.3624,W,1,06,1.42,43.5,M,-33.4,M,,*6E
380,0,0.00,0.02,0.05,-0.06,-2.06,-0.31,0.9946,-0.1031,0.0016,-0.0074,$GPGGA,131744.900,3850.0945,N,07730.3624,W,1,06,1.42,43.5,M,-33.4,M,,*6F
381,0,-0.07,0.08,-0.04,0.13,1.25,-0.69,0.9946,-0.1033,0.0028,-0.0076,$GPGGA,131745.000,3850.0945,N,07730.3624,W,1,06,1.42,43.6,M,-33.4,M,,*64
382,0,0.05,0.14,0.04,0.00,0.50,0.37,0.9947,-0.1028,0.0018,-0.0077,$GPGGA,131745.100,3850.0945,N,07730.3624,W,1,06,1.42,43.7,M,-33.4,M,,*64
383,0,0.09,0.08,-0.14,0.19,-1.69,-0.31,0.9947,-0.1028,0.0023,-0.0078,$GPGGA,131745.200,3850.0945,N,07730.3624,W,1,06,1.42,43.7,M,-33.4,M,,*67
384,0,0.04,0.09,-0.13,-0.06,0.81,0.81,0.9947,-0.1029,0.0023,-0.0076,$GPGGA,131745.300,3850.0945,N,07730.3623,W,1,06,1.42,43.8,M,-33.4,M,,*6E
385,0,0.00,-0.33,0.28,0.19,0.13,0.31,0.9947,-0.1029,0.0015,-0.0076,$GPGGA,131745.400,3850.0945,N,07730.3623,W,1,06,1.42,43.8,M,-33.4,M,,*69
386,0,-0.12,0.02,0.21,0.19,-1.19,0.13,0.9946,-0.1032,0.0018,-0.0076,$GPGGA,131745.500,3850.0945,N,07730.3623,W,1,06,1.42,43.9,M,-33.4,M,,*69
387,0,0.03,0.00,-0.18,0.19,0.81,0.19,0.9946,-0.1032,0.0015,-0.0076,$GPGGA,131745.600,3850.0945,N,07730.3623,W,1,06,1.42,43.9,M,-33.4,M,,*6A
388,0,0.04,0.18,-0.02,-0.19,-1.06,0.13,0.9946,-0.1031,0.0012,-0.0075,$GPGGA,131745.700,3850.0945,N,07730.3623,W,1,06,1.42,44.0,M,-33.4,M,,*65
389,0,0.18,-0.19,-0.01,-0.31,-0.37,0.25,0.9947,-0.1028,0.0011,-0.0075,$GPGGA,131745.800,3850.0945,N,07730.3623,W,1,06,1.42,44.1,M,-33.4,M,,*6B
390,0,0.05,-0.04,0.15,0.13,0.94,-0.31,0.9946,-0.1031,0.0012,-0.0075,$GPGGA,131745.900,3850.0945,N,07730.3623,W,1,06,1.42,44.1,M,-33.4,M,,*6A
391,0,0.07,-0.25,0.03,-0.37,0.37,-0.19,0.9946,-0.1031,0.0013,-0.0075,$GPGGA,131746.000,3850.0945,N,07730.3623,W,1,06,1.42,44.1,M,-33.4,M,,*60
392,0,0.00,0.60,0.15,-0.37,-0.88,0.31,0.9946,-0.1035,0.0021,-0.0076,$GPGGA,131746.100,3850.0945,N,07730.3623,W,1,06,1.42,44.2,M,-33.4,M,,*62
393,0,-0.03,0.04,0.09,0.25,0.56,0.94,0.9947,-0.1028,0.0012,-0.0069,$GPGGA,131746.200,3850.0945,N,07730.3623,W,1,06,1.42,44.2,M,-33.4,M,,*61
394,0,0.07,-0.68,-0.26,0.00,0.81,-1.12,0.9946,-0.1030,0.0019,-0.0075,$GPGGA,131746.300,3850.0946,N,07730.3623,W,1,06,1.42,44.2,M,-33.4,M,,*63
395,0,0.05,0.30,0.20,-0.37,-0.37,0.50,0.9946,-0.1032,0.0021,-0.0079,$GPGGA,131746.400,3850.0946,N,07730.3623,W,1,06,1.42,44.3,M,-33.4,M,,*65
396,0,0.03,0.13,0.13,-0.37,1.06,-0.44,0.9948,-0.1022,0.0027,-0.0079,$GPGGA,131746.500,3850.0946,N,07730.3623,W,1,06,1.42,44.3,M,-33.4,M,,*64
397,0,-0.04,-0.25,0.04,-0.19,-0.50,0.37,0.9947,-0.1025,0.0025,-0.0079,$GPGGA,131746.600,3850.0946,N,07730.3623,W,1,06,1.42,44.3,M,-33.4,M,,*67
398,0,-0.04,0.26,0.16,0.37,-0.62,0.06,0.9947,-0.1027,0.0025,-0.0078,$GPGGA,131746.700,3850.0946,N,07730.3623,W,1,06,1.42,44.3,M,-33.4,M,,*66
399,0,-0.02,-0.09,0.08,-0.06,-0.06,0.50,0.9948,-0.1022,0.0015,-0.0073,$GPGGA,131746.800,3850.0946,N,07730.3623,W,1,06,1.42,44.4,M,-33.4,M,,*6E
400,0,-0.03,-0.04,0.00,0.19,-0.50,-0.13,0.9946,-0.1030,0.0021,-0.0073,$GPGGA,131746.900,3850.0946,N,07730.3623,W,1,06,1.42,44.4,M,-33.4,M,,*6F
401,0,-0.03,-0.40,0.04,-0.56,1.50,-0.50,0.9946,-0.1030,0.0018,-0.0073,$GPGGA,131747.000,3850.0946,N,07730.3623,W,1,06,1.42,44.4,M,-33.4,M,,*67
402,0,0.29,0.79,0.53,-0.56,-2.87,0.81,0.9946,-0.1030,0.0023,-0.0077,$GPGGA,131747.100,3850.0946,N,07730.3623,W,1,06,1.42,44.4,M,-33.4,M,,*66
403,0,-0.08,-0.24,0.07,-1.00,3.62,-0.56,0.9946,-0.1031,0.0019,-0.0071,$GPGGA,131747.200,3850.0946,N,07730.3623,W,1,06,1.42,44.5,M,-33.4,M,,*64
404,0,0.17,0.07,-0.16,0.44,-4.75,1.75,0.9946,-0.1031,0.0012,-0.0071,$GPGGA,131747.300,3850.0946,N,07730.3623,W,1,06,1.42,44.5,M,-33.4,M,,*65
405,0,-0.23,-0.11,-0.23,-0.37,4.12,-2.00,0.9946,-0.1031,0.0023,-0.0070,$GPGGA,131747.400,3850.0946,N,07730.3623,W,1,06,1.42,44.5,M,-33.4,M,,*62
406,0,0.12,-0.08,0.01,-0.06,0.00,0.88,0.9946,-0.1031,0.0010,-0.0069,$GPGGA,131747.500,3850.0946,N,07730.3623,W,1,06,1.42,44.6,M,-33.4,M,,*60
407,0,0.00,0.02,0.02,-0.13,0.37,-2.69,0.9946,-0.1031,0.0029,-0.0078,$GPGGA,131747.600,3850.0946,N,07730.3623,W,1,06,1.42,44.6,M,-33.4,M,,*63
408,0,-0.01,0.26,0.23,-0.19,1.50,0.88,0.9947,-0.1027,0.0023,-0.0081,$GPGGA,131747.700,3850.0946,N,07730.3623,W,1,06,1.42,44.6,M,-33.4,M,,*62
409,0,0.04,-0.06,0.03,-0.19,-1.50,-0.69,0.9948,-0.1021,0.0026,-0.0084,$GPGGA,131747.800,3850.0946,N,07730.3623,W,1,06,1.42,44.6,M,-33.4,M,,*6D
410,0,-0.08,-0.04,-0.01,0.13,0.37,0.25,0.9947,-0.1024,0.0028,-0.0084,$GPGGA,131747.900,3850.0946,N,07730.3623,W,1,06,1.42,44.7,M,-33.4,M,,*6D
411,0,0.05,0.05,0.02,0.06,0.50,-0.13,0.9947,-0.1023,0.0024,-0.0084,$GPGGA,131748.000,3850.0946,N,07730.3623,W,1,06,1.42,44.7,M,-33.4,M,,*6B
412,0,-0.02,-0.04,0.01,0.19,-0.75,0.00,0.9947,-0.1023,0.0025,-0.0084,$GPGGA,131748.100,3850.0946,N,07730.3622,W,1,06,1.42,44.7,M,-33.4,M,,*6B
413,0,0.00,0.00,0.02,0.13,0.75,0.13,0.9947,-0.1023,0.0027,-0.0084,$GPGGA,131748.200,3850.0946,N,07730.3622,W,1,06,1.42,44.7,M,-33.4,M,,*68
414,0,0.03,-0.04,0.00,0.00,-0.13,0.00,0.9947,-0.1024,0.0024,-0.0084,$GPGGA,131748.300,3850.0947,N,07730.3623,W,1,06,1.42,44.8,M,-33.4,M,,*66
415,0,0.01,-0.03,0.04,0.00,-0.25,-0.25,0.9947,-0.1024,0.0025,-0.0084,$GPGGA,131748.400,3850.0947,N,07730.3623,W,1,06,1.42,44.8,M,-33.4,M,,*61
416,0,0.03,-0.10,0.15,-0.19,0.94,-1.37,0.9947,-0.1024,0.0026,-0.0092,$GPGGA,131748.500,3850.0947,N,07730.3623,W,1,06,1.42,44.8,M,-33.4,M,,*60
417,0,-0.01,0.12,0.00,0.06,-0.94,1.00,0.9947,-0.1023,0.0023,-0.0092,$GPGGA,131748.600,3850.0947,N,07730.3622,W,1,06,1.42,44.9,M,-33.4,M,,*63
418,0,-0.02,0.08,-0.01,-0.50,-0.06,-0.88,0.9948,-0.1019,0.0025,-0.0089,$GPGGA,131748.700,3850.0947,N,07730.3622,W,1,06,1.42,44.9,M,-33.4,M,,*62
419,0,0.09,0.11,-0.01,0.06,-0.13,0.62,0.9948,-0.1021,0.0023,-0.0090,$GPGGA,131748.800,3850.0947,N,07730.3622,W,1,05,1.49,44.9,M,-33.4,M,,*65
420,0,-0.04,-0.04,0.01,-0.25,-0.19,-0.31,0.9948,-0.1020,0.0024,-0.0086,$GPGGA,131748.900,3850.0947,N,07730.3622,W,1,06,1.42,44.9,M,-33.4,M,,*6C
421,0,0.31,0.29,0.29,1.19,1.25,-1.69,0.9948,-0.1019,0.0029,-0.0104,$GPGGA,131749.000,3850.0947,N,07730.3622,W,1,05,1.49,44.9,M,-33.4,M,,*6C
422,0,-0.21,0.34,0.29,0.56,-1.56,1.94,0.9948,-0.1013,0.0025,-0.0085,$GPGGA,131749.100,3850.0947,N,07730.3622,W,1,05,1.49,45.0,M,-33.4,M,,*65
423,0,0.05,-0.29,-0.09,0.06,1.50,-1.62,0.9949,-0.1007,0.0034,-0.0095,$GPGGA,131749.200,3850.0947,N,07730.3622,W,1,05,1.49,45.0,M,-33.4,M,,*66
424,0,-0.01,-0.02,0.06,0.00,-0.62,0.62,0.9949,-0.1008,0.0029,-0.0095,$GPGGA,131749.300,3850.0948,N,07730.3622,W,1,05,1.49,45.0,M,-33.4,M,,*68
425,0,0.06,-0.27,-0.05,-0.44,0.13,-1.19,0.9948,-0.1010,0.0032,-0.0102,$GPGGA,131749.400,3850.0948,N,07730.3622,W,1,05,1.49,45.0,M,-33.4,M,,*6F
426,0,-0.04,0.35,0.13,0.69,-0.19,2.69,0.9948,-0.1014,0.0024,-0.0095,$GPGGA,131749.500,3850.0948,N,07730.3622,W,1,05,1.49,45.0,M,-33.4,M,,*6E
427,0,-0.37,-0.13,0.04,0.37,0.44,-2.19,0.9948,-0.1013,0.0027,-0.0089,$GPGGA,131749.600,3850.0948,N,07730.3622,W,1,05,1.49,45.0,M,-33.4,M,,*6D
428,0,0.01,0.06,-0.11,0.56,-0.88,1.56,0.9948,-0.1014,0.0030,-0.0094,$GPGGA,131749.700,3850.0948,N,07730.3622,W,1,05,1.49,45.0,M,-33.4,M,,*6C
429,0,-0.06,0.00,0.08,0.37,1.44,-0.81,0.9948,-0.1014,0.0027,-0.0093,$GPGGA,131749.800,3850.0948,N,07730.3622,W,1,05,1.49,45.1,M,-33.4,M,,*62
430,0,0.03,0.12,0.03,0.06,-1.06,-0.13,0.9948,-0.1011,0.0027,-0.0095,$GPGGA,131749.900,3850.0948,N,07730.3622,W,1,05,1.49,45.1,M,-33.4,M,,*63
431,0,0.17,-0.50,-0.13,-0.19,0.88,-0.50,0.9948,-0.1014,0.0029,-0.0097,$GPGGA,131750.000,3850.0948,N,07730.3622,W,1,05,1.49,45.1,M,-33.4,M,,*62
432,0,-0.03,0.13,0.02,-0.13,-0.13,0.37,0.9946,-0.1030,0.0025,-0.0094,$GPGGA,131750.100,3850.0948,N,07730.3622,W,1,05,1.49,45.1,M,-33.4,M,,*63
433,0,0.13,0.00,-0.06,-0.06,0.19,-1.69,0.9946,-0.1028,0.0031,-0.0102,$GPGGA,131750.200,3850.0948,N,07730.3621,W,1,05,1.49,45.1,M,-33.4,M,,*63
434,0,0.06,0.13,0.07,0.06,-0.31,0.44,0.9947,-0.1025,0.0027,-0.0109,$GPGGA,131750.300,3850.0949,N,07730.3621,W,1,05,1.49,45.1,M,-33.4,M,,*63
435,0,-0.10,0.10,-0.08,-0.44,-0.69,-0.69,0.9948,-0.1019,0.0032,-0.0104,$GPGGA,131750.400,3850.0949,N,07730.3621,W,1,05,1.49,45.1,M,-33.4,M,,*64
436,0,-0.04,0.04,-0.07,-0.13,0.75,0.56,0.9948,-0.1019,0.0035,-0.0111,$GPGGA,131750.500,3850.0949,N,07730.3621,W,1,05,1.49,45.1,M,-33.4,M,,*65
437,0,-0.10,0.18,0.09,0.19,-0.44,2.12,0.9948,-0.1017,0.0029,-0.0104,$GPGGA,131750.600,3850.0949,N,07730.3621,W,1,05,1.49,45.1,M,-33.4,M,,*66
438,0,0.21,-0.19,0.00,0.25,0.56,-3.00,0.9947,-0.1020,0.0029,-0.0113,$GPGGA,131750.700,3850.0949,N,07730.3621,W,1,05,1.49,45.1,M,-33.4,M,,*67
439,0,-0.16,0.12,0.07,0.81,-1.12,2.75,0.9948,-0.1019,0.0027,-0.0103,$GPGGA,131750.800,3850.0949,N,07730.3621,W,1,05,1.49,45.1,M,-33.4,M,,*68
440,0,0.08,-0.11,-0.07,-0.75,1.06,-2.19,0.9948,-0.1019,0.0030,-0.0104,$GPGGA,131750.900,3850.0949,N,07730.3621,W,1,05,1.49,45.1,M,-33.4,M,,*69
441,0,0.00,-0.20,-0.06,-0.06,-0.44,0.81,0.9947,-0.1022,0.0031,-0.0109,$GPGGA,131751.000,3850.0949,N,07730.3621,W,1,05,1.49,45.1,M,-33.4,M,,*61
442,0,0.13,-0.01,-0.01,-0.19,0.00,-0.19,0.9946,-0.1027,0.0031,-0.0111,$GPGGA,131751.100,3850.0949,N,07730.3621,W,1,05,1.49,45.1,M,-33.4,M,,*60
443,0,-0.13,-0.13,-0.11,-0.37,-0.81,-0.50,0.9946,-0.1027,0.0029,-0.0108,$GPGGA,131751.200,3850.0949,N,07730.3622,W,1,05,1.49,45.1,M,-33.4,M,,*60
444,0,0.13,0.07,-0.09,0.25,0.81,0.37,0.9946,-0.1030,0.0034,-0.0114,$GPGGA,131751.300,3850.0949,N,07730.3622,W,1,05,1.53,45.1,M,-33.4,M,,*6A
445,0,-0.07,0.03,-0.10,0.13,-1.31,2.56,0.9947,-0.1027,0.0026,-0.0098,$GPGGA,131751.400,3850.0949,N,07730.3622,W,1,05,1.53,45.1,M,-33.4,M,,*6D
446,0,-0.02,0.13,-0.02,-0.06,0.31,-1.37,0.9946,-0.1028,0.0029,-0.0091,$GPGGA,131751.500,3850.0949,N,07730.3622,W,1,05,1.49,45.1,M,-33.4,M,,*67
447,0,0.04,0.00,0.02,0.19,-0.19,0.81,0.9947,-0.1027,0.0027,-0.0095,$GPGGA,131751.600,3850.0949,N,07730.3622,W,1,05,1.49,45.1,M,-33.4,M,,*64
448,0,0.05,0.00,0.01,-0.06,0.25,-0.69,0.9946,-0.1028,0.0028,-0.0095,$GPGGA,131751.700,3850.0949,N,07730.3622,W,1,05,1.49,45.1,M,-33.4,M,,*65
449,0,0.00,-0.03,0.03,0.13,-0.37,0.56,0.9946,-0.1028,0.0028,-0.0095,$GPGGA,131751.800,3850.0949,N,07730.3622,W,1,05,1.49,45.1,M,-33.4,M,,*6A
450,0,0.09,0.05,0.00,0.25,0.94,-1.50,0.9946,-0.1027,0.0031,-0.0099,$GPGGA,131751.900,3850.0949,N,07730.3622,W,1,05,1.49,45.1,M,-33.4,M,,*6B
451,0,-0.11,0.04,0.04,0.06,-0.56,0.50,0.9947,-0.1022,0.0030,-0.0104,$GPGGA,131752.000,3850.0949,N,07730.3622,W,1,05,1.49,45.1,M,-33.4,M,,*61
452,0,0.01,-0.25,-0.11,0.19,0.69,-0.75,0.9947,-0.1022,0.0031,-0.0107,$GPGGA,131752.100,3850.0949,N,07730.3622,W,1,05,1.49,45.1,M,-33.4,M,,*60
453,0,0.02,-0.11,-0.06,0.31,-0.69,0.19,0.9946,-0.1030,0.0029,-0.0107,$GPGGA,131752.200,3850.0949,N,07730.3622,W,1,05,1.49,45.1,M,-33.4,M,,*63
