0,0,0.07,-0.02,-0.06,0.56,5.25,-1.94,-0.7108,-0.0945,0.0783,-0.6926,$GPGGA,205611.400,4041.0369,N,07423.2927,W,1,07,1.23,142.8,M,-34.1,M,,*59
1,0,-0.13,0.27,0.53,3.81,-6.50,0.00,-0.7112,-0.0946,0.0768,-0.6923,$GPGGA,205611.500,4041.0373,N,07423.2922,W,1,07,1.23,142.8,M,-34.1,M,,*56
2,0,-0.87,0.26,0.24,2.50,-7.50,-0.37,-0.7101,-0.1036,0.0790,-0.6919,$GPGGA,205611.600,4041.0377,N,07423.2915,W,1,07,1.23,142.8,M,-34.1,M,,*55
3,0,-0.82,-0.06,-0.15,0.06,-1.87,0.31,-0.7101,-0.1042,0.0794,-0.6918,$GPGGA,205611.700,4041.0381,N,07423.2908,W,1,07,1.23,142.8,M,-34.1,M,,*51
4,0,-0.73,0.13,0.11,-2.19,1.62,0.06,-0.7109,-0.1000,0.0753,-0.6921,$GPGGA,205611.800,4041.0385,N,07423.2902,W,1,07,1.23,142.8,M,-34.1,M,,*50
5,0,-0.80,0.03,0.41,-0.31,-0.19,0.13,-0.7109,-0.0995,0.0757,-0.6920,$GPGGA,205611.900,4041.0389,N,07423.2895,W,1,07,1.23,142.8,M,-34.1,M,,*52
6,0,-0.55,-0.06,0.51,0.50,-0.81,0.19,-0.7111,-0.0986,0.0756,-0.6920,$GPGGA,205612.000,4041.0393,N,07423.2889,W,1,07,1.23,142.8,M,-34.1,M,,*5E
7,0,-0.78,-0.24,0.07,0.62,-0.06,0.19,-0.7115,-0.0963,0.0729,-0.6923,$GPGGA,205612.100,4041.0397,N,07423.2882,W,1,07,1.23,142.8,M,-34.1,M,,*50
8,0,-0.90,0.45,-0.67,0.25,0.88,0.13,-0.7114,-0.0971,0.0723,-0.6923,$GPGGA,205612.200,4041.0402,N,07423.2875,W,1,07,1.23,142.8,M,-34.1,M,,*50
9,0,-0.42,0.35,0.24,0.00,-0.62,0.13,-0.7115,-0.0966,0.0718,-0.6923,$GPGGA,205612.300,4041.0406,N,07423.2869,W,1,07,1.13,142.8,M,-34.1,M,,*5B
10,0,-0.29,0.37,0.21,1.81,-1.50,0.25,-0.7115,-0.0963,0.0715,-0.6923,$GPGGA,205612.400,4041.0410,N,07423.2861,W,1,07,1.13,142.7,M,-34.1,M,,*5C
11,0,-0.23,0.03,0.44,0.56,0.44,0.25,-0.7116,-0.0961,0.0711,-0.6923,$GPGGA,205612.500,4041.0414,N,07423.2854,W,1,07,1.23,142.7,M,-34.1,M,,*5C
12,0,-0.05,0.07,0.63,-0.88,-1.19,0.31,-0.7116,-0.0963,0.0715,-0.6923,$GPGGA,205612.600,4041.0419,N,07423.2846,W,1,07,1.23,142.7,M,-34.1,M,,*51
13,0,-0.21,0.23,-0.04,-0.44,-0.81,1.00,-0.7115,-0.0964,0.0714,-0.6923,$GPGGA,205612.700,4041.0424,N,07423.2838,W,1,07,1.23,142.7,M,-34.1,M,,*57
14,0,-0.41,0.47,0.20,-0.94,0.88,0.88,-0.7111,-0.0960,0.0714,-0.6928,$GPGGA,205612.800,4041.0428,N,07423.2830,W,1,07,1.23,142.6,M,-34.1,M,,*5D
15,0,-0.70,0.47,0.39,-1.31,2.81,1.06,-0.7107,-0.0937,0.0714,-0.6935,$GPGGA,205612.900,4041.0433,N,07423.2822,W,1,07,1.23,142.6,M,-34.1,M,,*55
16,0,-0.91,0.12,-0.23,-1.12,1.94,1.06,-0.7104,-0.0913,0.0687,-0.6944,$GPGGA,205613.000,4041.0438,N,07423.2814,W,1,07,1.23,142.6,M,-34.1,M,,*53
17,0,-1.28,-0.39,-0.39,-1.94,1.75,0.94,-0.7101,-0.0897,0.0660,-0.6952,$GPGGA,205613.100,4041.0443,N,07423.2805,W,1,07,1.23,142.6,M,-34.1,M,,*5E
18,0,-1.43,0.12,0.00,-1.00,0.69,1.19,-0.7097,-0.0876,0.0641,-0.6961,$GPGGA,205613.200,4041.0448,N,07423.2797,W,1,07,1.23,142.6,M,-34.1,M,,*52
19,0,-1.68,0.18,0.24,0.44,0.56,1.31,-0.7096,-0.0833,0.0585,-0.6972,$GPGGA,205613.300,4041.0453,N,07423.2789,W,1,07,1.13,142.6,M,-34.1,M,,*55
20,0,-1.12,-0.09,-0.21,0.19,-0.31,1.06,-0.7106,-0.0709,0.0412,-0.6987,$GPGGA,205613.400,4041.0458,N,07423.2781,W,1,07,1.13,142.6,M,-34.1,M,,*51
21,0,-0.54,-0.08,0.18,1.50,0.06,1.00,-0.7106,-0.0673,0.0360,-0.6995,$GPGGA,205613.500,4041.0463,N,07423.2772,W,1,07,1.23,142.5,M,-34.1,M,,*54
22,0,-0.72,-0.09,-0.37,-1.12,1.19,0.31,-0.7109,-0.0617,0.0305,-0.6999,$GPGGA,205613.600,4041.0468,N,07423.2764,W,1,07,1.23,142.5,M,-34.1,M,,*5B
23,0,-0.72,-0.38,-0.43,-0.75,0.00,-0.06,-0.7111,-0.0593,0.0289,-0.7000,$GPGGA,205613.700,4041.0473,N,07423.2755,W,1,07,1.23,142.5,M,-34.1,M,,*52
24,0,-0.47,-0.13,0.24,1.06,-1.87,-0.13,-0.7113,-0.0552,0.0262,-0.7002,$GPGGA,205613.800,4041.0478,N,07423.2747,W,1,07,1.23,142.5,M,-34.1,M,,*55
25,0,-0.56,-0.01,-0.33,0.00,-1.19,0.00,-0.7114,-0.0550,0.0255,-0.7002,$GPGGA,205613.900,4041.0483,N,07423.2738,W,1,07,1.23,142.5,M,-34.1,M,,*58
26,0,-0.52,-0.10,0.36,1.12,1.00,-0.19,-0.7115,-0.0530,0.0233,-0.7003,$GPGGA,205614.000,4041.0488,N,07423.2730,W,1,07,1.23,142.5,M,-34.1,M,,*55
27,0,-0.64,0.18,-0.57,-0.56,2.31,0.00,-0.7115,-0.0511,0.0209,-0.7004,$GPGGA,205614.100,4041.0493,N,07423.2722,W,1,07,1.23,142.5,M,-34.1,M,,*5D
28,0,-0.82,0.07,-0.13,0.44,0.31,-0.19,-0.7117,-0.0493,0.0197,-0.7005,$GPGGA,205614.200,4041.0499,N,07423.2713,W,1,07,1.23,142.5,M,-34.1,M,,*56
29,0,-0.29,0.20,0.11,0.25,-0.19,-0.56,-0.7118,-0.0464,0.0182,-0.7006,$GPGGA,205614.300,4041.0504,N,07423.2705,W,1,07,1.13,142.5,M,-34.1,M,,*56
30,0,-0.25,0.03,0.69,0.13,0.37,-1.00,-0.7123,-0.0461,0.0181,-0.7001,$GPGGA,205614.400,4041.0509,N,07423.2697,W,1,07,1.13,142.5,M,-34.1,M,,*56
31,0,-0.24,-0.52,-0.86,0.50,-0.94,-0.69,-0.7128,-0.0466,0.0179,-0.6995,$GPGGA,205614.500,4041.0514,N,07423.2688,W,1,07,1.13,142.5,M,-34.1,M,,*55
32,0,-0.39,0.60,0.06,0.81,1.06,0.25,-0.7129,-0.0472,0.0177,-0.6995,$GPGGA,205614.600,4041.0519,N,07423.2680,W,1,07,1.23,142.5,M,-34.1,M,,*50
33,0,-0.17,-0.19,-0.32,0.75,1.50,0.69,-0.7128,-0.0476,0.0168,-0.6995,$GPGGA,205614.700,4041.0525,N,07423.2671,W,1,07,1.23,142.5,M,-34.1,M,,*50
34,0,-0.38,-0.14,-0.32,-0.31,-0.13,0.69,-0.7123,-0.0473,0.0157,-0.7001,$GPGGA,205614.800,4041.0530,N,07423.2663,W,1,07,1.23,142.4,M,-34.1,M,,*59
35,0,-0.71,-0.39,-0.20,-0.37,0.19,0.37,-0.7122,-0.0463,0.0140,-0.7004,$GPGGA,205614.900,4041.0535,N,07423.2655,W,1,07,1.23,142.4,M,-34.1,M,,*58
36,0,-0.92,-0.19,0.09,-4.19,-0.50,0.37,-0.7123,-0.0430,0.0102,-0.7004,$GPGGA,205615.000,4041.0540,N,07423.2646,W,1,07,1.23,142.4,M,-34.1,M,,*50
37,0,-0.85,0.30,-0.45,-1.12,-0.06,0.62,-0.7125,-0.0400,0.0062,-0.7005,$GPGGA,205615.100,4041.0544,N,07423.2637,W,1,07,1.23,142.4,M,-34.1,M,,*53
38,0,-0.76,0.27,0.05,-0.50,1.12,1.44,-0.7119,-0.0403,0.0040,-0.7011,$GPGGA,205615.200,4041.0548,N,07423.2627,W,1,07,1.23,142.3,M,-34.1,M,,*5A
39,0,-0.68,0.83,0.12,-0.13,0.50,2.06,-0.7109,-0.0397,0.0028,-0.7021,$GPGGA,205615.300,4041.0553,N,07423.2618,W,1,07,1.13,142.3,M,-34.1,M,,*5E
40,0,-0.71,0.65,0.29,-1.19,0.69,2.00,-0.7098,-0.0389,-0.0001,-0.7034,$GPGGA,205615.400,4041.0557,N,07423.2610,W,1,07,1.13,142.3,M,-34.1,M,,*55
41,0,-0.92,0.27,0.35,-1.50,1.19,1.56,-0.7087,-0.0379,0.0005,-0.7045,$GPGGA,205615.500,4041.0562,N,07423.2601,W,1,07,1.23,142.2,M,-34.1,M,,*50
42,0,-0.83,0.55,0.29,-2.00,-0.75,0.19,-0.7083,-0.0365,0.0017,-0.7050,$GPGGA,205615.600,4041.0566,N,07423.2592,W,1,07,1.23,142.2,M,-34.1,M,,*5E
43,0,-0.41,0.11,-0.41,-2.94,-0.31,-0.88,-0.7085,-0.0353,0.0033,-0.7048,$GPGGA,205615.700,4041.0571,N,07423.2584,W,1,07,1.23,142.2,M,-34.1,M,,*5E
44,0,-0.74,-0.03,0.08,0.31,-0.19,-0.44,-0.7089,-0.0347,0.0040,-0.7044,$GPGGA,205615.800,4041.0576,N,07423.2575,W,1,07,1.23,142.2,M,-34.1,M,,*58
45,0,-0.46,-1.06,-0.30,-0.62,0.13,-0.37,-0.7089,-0.0344,0.0038,-0.7044,$GPGGA,205615.900,4041.0580,N,07423.2567,W,1,07,1.23,142.2,M,-34.1,M,,*53
46,0,-0.59,-0.90,0.21,0.25,0.62,-1.06,-0.7093,-0.0347,0.0037,-0.7040,$GPGGA,205616.000,4041.0585,N,07423.2559,W,1,07,1.23,142.2,M,-34.1,M,,*51
47,0,0.00,-0.15,0.28,0.75,-1.56,-1.94,-0.7103,-0.0353,0.0040,-0.7031,$GPGGA,205616.100,4041.0589,N,07423.2551,W,1,07,1.23,142.2,M,-34.1,M,,*54
48,0,-0.51,-0.55,-0.23,0.13,-0.94,-2.12,-0.7115,-0.0356,0.0043,-0.7018,$GPGGA,205616.200,4041.0594,N,07423.2543,W,1,07,1.23,142.2,M,-34.1,M,,*58
49,0,0.08,-0.96,0.22,0.75,-0.62,-1.69,-0.7126,-0.0361,0.0043,-0.7006,$GPGGA,205616.300,4041.0598,N,07423.2535,W,1,07,1.13,142.2,M,-34.1,M,,*57
50,0,-0.43,0.26,0.22,0.31,1.81,-1.44,-0.7135,-0.0339,0.0056,-0.6998,$GPGGA,205616.400,4041.0603,N,07423.2527,W,1,07,1.13,142.2,M,-34.1,M,,*52
51,0,-0.01,-0.94,-0.58,1.94,0.31,-0.94,-0.7142,-0.0348,0.0046,-0.6991,$GPGGA,205616.500,4041.0607,N,07423.2519,W,1,07,1.23,142.2,M,-34.1,M,,*59
52,0,0.03,-0.05,-0.27,0.31,-1.25,-0.50,-0.7144,-0.0351,0.0043,-0.6988,$GPGGA,205616.600,4041.0612,N,07423.2511,W,1,07,1.23,142.2,M,-34.1,M,,*56
53,0,-0.15,-0.07,0.36,0.00,-0.81,-0.75,-0.7146,-0.0352,0.0045,-0.6987,$GPGGA,205616.700,4041.0616,N,07423.2503,W,1,07,1.23,142.2,M,-34.1,M,,*50
54,0,-0.02,0.17,0.44,-1.06,-0.88,-0.62,-0.7150,-0.0351,0.0051,-0.6982,$GPGGA,205616.800,4041.0620,N,07423.2495,W,1,07,1.23,142.2,M,-34.1,M,,*54
55,0,-0.37,0.06,0.00,1.44,-1.62,-0.50,-0.7154,-0.0352,0.0057,-0.6978,$GPGGA,205616.900,4041.0624,N,07423.2487,W,1,07,1.23,142.2,M,-34.1,M,,*52
56,0,0.39,-0.18,0.22,-1.19,0.88,-0.69,-0.7158,-0.0355,0.0058,-0.6974,$GPGGA,205617.000,4041.0628,N,07423.2479,W,1,07,1.23,142.2,M,-34.1,M,,*57
57,0,-0.18,-0.45,0.88,1.31,-0.13,-0.94,-0.7163,-0.0353,0.0061,-0.6969,$GPGGA,205617.100,4041.0632,N,07423.2470,W,1,07,1.23,142.2,M,-34.1,M,,*54
58,0,0.25,-0.71,-0.36,-1.19,-0.13,-1.12,-0.7168,-0.0353,0.0066,-0.6964,$GPGGA,205617.200,4041.0636,N,07423.2462,W,1,07,1.23,142.2,M,-34.1,M,,*50
59,0,0.29,-1.04,-0.60,-0.44,0.25,-1.81,-0.7177,-0.0349,0.0071,-0.6955,$GPGGA,205617.300,4041.0640,N,07423.2454,W,1,07,1.13,142.1,M,-34.1,M,,*55
60,0,0.26,-0.24,0.15,-1.62,0.19,-2.62,-0.7191,-0.0341,0.0073,-0.6941,$GPGGA,205617.400,4041.0644,N,07423.2446,W,1,07,1.13,142.1,M,-34.1,M,,*55
61,0,-0.13,-0.81,-0.08,-0.69,0.31,-3.25,-0.7209,-0.0329,0.0073,-0.6922,$GPGGA,205617.500,4041.0648,N,07423.2437,W,1,07,1.23,142.1,M,-34.1,M,,*5D
62,0,0.14,-0.71,-0.19,-0.13,-0.19,-3.37,-0.7230,-0.0328,0.0074,-0.6901,$GPGGA,205617.600,4041.0652,N,07423.2428,W,1,07,1.23,142.1,M,-34.1,M,,*5B
63,0,-0.13,0.17,0.55,1.31,-0.94,-3.31,-0.7248,-0.0319,0.0094,-0.6882,$GPGGA,205617.700,4041.0656,N,07423.2420,W,1,07,1.23,142.1,M,-34.1,M,,*56
64,0,0.12,-0.35,1.07,-1.19,1.69,-3.87,-0.7268,-0.0321,0.0095,-0.6860,$GPGGA,205617.800,4041.0660,N,07423.2412,W,1,07,1.23,142.1,M,-34.1,M,,*5D
65,0,-0.07,-1.33,-0.91,2.37,-1.62,-4.37,-0.7292,-0.0325,0.0089,-0.6835,$GPGGA,205617.900,4041.0665,N,07423.2404,W,1,07,1.23,142.1,M,-34.1,M,,*5E
66,0,0.38,-0.95,-0.36,-2.06,2.31,-4.75,-0.7319,-0.0318,0.0081,-0.6806,$GPGGA,205618.000,4041.0669,N,07423.2396,W,1,07,1.23,142.1,M,-34.1,M,,*58
67,0,-0.16,-0.99,0.29,2.37,2.00,-4.44,-0.7346,-0.0317,0.0066,-0.6778,$GPGGA,205618.100,4041.0673,N,07423.2387,W,1,07,1.23,142.1,M,-34.1,M,,*52
68,0,-0.24,-0.75,0.54,2.56,-0.75,-3.19,-0.7366,-0.0311,0.0071,-0.6756,$GPGGA,205618.200,4041.0677,N,07423.2378,W,1,07,1.23,142.0,M,-34.1,M,,*54
69,0,-0.31,0.36,0.17,1.31,-4.06,-2.37,-0.7380,-0.0340,0.0075,-0.6739,$GPGGA,205618.300,4041.0681,N,07423.2370,W,1,07,1.13,142.0,M,-34.1,M,,*57
70,0,0.08,0.00,0.28,0.81,-1.50,-2.37,-0.7392,-0.0367,0.0086,-0.6724,$GPGGA,205618.400,4041.0685,N,07423.2361,W,1,07,1.13,142.0,M,-34.1,M,,*54
71,0,0.21,-0.52,-0.33,-2.56,1.81,-2.81,-0.7407,-0.0364,0.0093,-0.6708,$GPGGA,205618.500,4041.0690,N,07423.2353,W,1,07,1.23,142.0,M,-34.1,M,,*53
72,0,-0.02,-0.63,-0.25,-1.31,-0.13,-2.44,-0.7423,-0.0352,0.0094,-0.6691,$GPGGA,205618.600,4041.0694,N,07423.2344,W,1,07,1.23,141.9,M,-34.1,M,,*58
73,0,-0.12,-0.84,-0.45,0.44,-0.37,-1.75,-0.7436,-0.0347,0.0104,-0.6677,$GPGGA,205618.700,4041.0698,N,07423.2336,W,1,07,1.23,141.9,M,-34.1,M,,*50
74,0,-0.03,0.21,0.32,5.06,-3.75,-0.94,-0.7443,-0.0365,0.0110,-0.6667,$GPGGA,205618.800,4041.0703,N,07423.2327,W,1,07,1.23,141.9,M,-34.1,M,,*5C
75,0,-0.11,0.08,0.22,2.25,-2.56,-0.50,-0.7446,-0.0388,0.0107,-0.6663,$GPGGA,205618.900,4041.0707,N,07423.2319,W,1,07,1.23,141.9,M,-34.1,M,,*54
76,0,0.01,0.39,0.47,-1.12,-5.94,-0.25,-0.7445,-0.0416,0.0132,-0.6662,$GPGGA,205619.000,4041.0712,N,07423.2311,W,1,07,1.23,141.9,M,-34.1,M,,*50
77,0,-0.01,0.59,0.17,-5.87,18.06,-0.50,-0.7446,-0.0406,0.0143,-0.6661,$GPGGA,205619.100,4041.0716,N,07423.2302,W,1,07,1.23,141.8,M,-34.1,M,,*56
78,0,0.20,0.30,-0.36,-3.75,-2.00,0.06,-0.7444,-0.0401,0.0154,-0.6663,$GPGGA,205619.200,4041.0721,N,07423.2294,W,1,07,1.23,141.8,M,-34.1,M,,*5F
79,0,0.76,-0.04,0.08,0.31,1.12,0.56,-0.7442,-0.0449,0.0167,-0.6663,$GPGGA,205619.300,4041.0725,N,07423.2286,W,1,07,1.23,141.8,M,-34.1,M,,*59
80,0,0.55,0.30,-0.28,-0.50,1.50,1.31,-0.7438,-0.0420,0.0153,-0.6669,$GPGGA,205619.400,4041.0730,N,07423.2277,W,1,07,1.13,141.8,M,-34.1,M,,*57
81,0,0.02,0.27,-0.09,0.62,-0.69,1.56,-0.7430,-0.0414,0.0153,-0.6678,$GPGGA,205619.500,4041.0734,N,07423.2269,W,1,07,1.23,141.7,M,-34.1,M,,*51
82,0,0.21,0.51,0.42,2.94,1.19,2.19,-0.7419,-0.0432,0.0142,-0.6690,$GPGGA,205619.600,4041.0739,N,07423.2260,W,1,07,1.23,141.7,M,-34.1,M,,*56
83,0,0.25,-0.07,0.52,0.56,5.31,1.62,-0.7407,-0.0437,0.0115,-0.6703,$GPGGA,205619.700,4041.0743,N,07423.2251,W,1,07,1.23,141.7,M,-34.1,M,,*58
84,0,0.50,0.50,1.26,-2.00,-1.12,1.87,-0.7394,-0.0450,0.0115,-0.6716,$GPGGA,205619.800,4041.0747,N,07423.2242,W,1,07,1.23,141.7,M,-34.1,M,,*51
85,0,0.21,0.76,0.22,0.00,-1.31,1.81,-0.7383,-0.0474,0.0117,-0.6727,$GPGGA,205619.900,4041.0752,N,07423.2234,W,1,07,1.23,141.7,M,-34.1,M,,*55
86,0,0.08,0.49,0.09,-0.62,-1.12,1.87,-0.7372,-0.0479,0.0126,-0.6738,$GPGGA,205620.000,4041.0756,N,07423.2225,W,1,07,1.23,141.7,M,-34.1,M,,*52
87,0,0.18,0.84,-0.04,0.75,-0.50,1.87,-0.7361,-0.0490,0.0132,-0.6749,$GPGGA,205620.100,4041.0760,N,07423.2215,W,1,07,1.23,141.7,M,-34.1,M,,*55
88,0,0.41,0.42,0.15,-0.69,0.62,1.62,-0.7350,-0.0498,0.0131,-0.6761,$GPGGA,205620.200,4041.0765,N,07423.2206,W,1,07,1.23,141.7,M,-34.1,M,,*51
89,0,0.16,0.18,0.70,-0.19,0.00,1.50,-0.7341,-0.0508,0.0126,-0.6771,$GPGGA,205620.300,4041.0770,N,07423.2197,W,1,07,1.13,141.7,M,-34.1,M,,*5C
90,0,0.11,0.46,0.40,-0.19,-0.75,1.44,-0.7332,-0.0522,0.0121,-0.6779,$GPGGA,205620.400,4041.0774,N,07423.2188,W,1,07,1.13,141.7,M,-34.1,M,,*51
91,0,-0.04,0.03,0.03,0.13,-0.37,1.19,-0.7325,-0.0527,0.0125,-0.6785,$GPGGA,205620.500,4041.0779,N,07423.2179,W,1,07,1.13,141.6,M,-34.1,M,,*52
92,0,-0.10,-0.09,-0.15,-1.62,0.37,1.12,-0.7319,-0.0527,0.0134,-0.6793,$GPGGA,205620.600,4041.0784,N,07423.2170,W,1,07,1.13,141.6,M,-34.1,M,,*5A
93,0,0.12,0.45,0.45,0.06,0.69,1.12,-0.7313,-0.0521,0.0138,-0.6799,$GPGGA,205620.700,4041.0789,N,07423.2161,W,1,07,1.13,141.6,M,-34.1,M,,*56
94,0,0.05,0.14,0.11,-0.56,1.12,0.37,-0.7310,-0.0511,0.0138,-0.6803,$GPGGA,205620.800,4041.0794,N,07423.2151,W,1,07,1.23,141.6,M,-34.1,M,,*55
95,0,0.22,-0.04,0.15,-1.75,0.50,0.25,-0.7311,-0.0504,0.0140,-0.6803,$GPGGA,205620.900,4041.0799,N,07423.2142,W,1,07,1.23,141.6,M,-34.1,M,,*5B
96,0,0.27,-0.36,0.48,-0.31,-1.12,0.37,-0.7310,-0.0505,0.0142,-0.6804,$GPGGA,205621.000,4041.0804,N,07423.2133,W,1,07,1.23,141.6,M,-34.1,M,,*5E
97,0,-0.14,1.05,-0.19,3.06,-0.06,0.62,-0.7307,-0.0514,0.0142,-0.6806,$GPGGA,205621.100,4041.0809,N,07423.2124,W,1,07,1.23,141.6,M,-34.1,M,,*54
98,0,0.44,-0.08,-0.03,1.12,-1.81,0.75,-0.7305,-0.0526,0.0137,-0.6807,$GPGGA,205621.200,4041.0814,N,07423.2115,W,1,07,1.23,141.6,M,-34.1,M,,*59
99,0,0.35,0.29,0.36,0.81,-0.44,0.75,-0.7303,-0.0538,0.0132,-0.6809,$GPGGA,205621.300,4041.0819,N,07423.2105,W,1,07,1.13,141.6,M,-34.1,M,,*57
100,0,0.49,0.44,0.29,0.44,-0.62,0.69,-0.7299,-0.0538,0.0129,-0.6814,$GPGGA,205621.400,4041.0824,N,07423.2096,W,1,07,1.13,141.6,M,-34.1,M,,*55
101,0,-0.03,0.13,-1.08,-1.62,0.13,0.37,-0.7297,-0.0528,0.0131,-0.6816,$GPGGA,205621.500,4041.0829,N,07423.2087,W,1,07,1.13,141.6,M,-34.1,M,,*59
102,0,0.34,0.11,-0.10,-0.94,0.00,0.50,-0.7297,-0.0521,0.0136,-0.6816,$GPGGA,205621.600,4041.0834,N,07423.2078,W,1,07,1.13,141.6,M,-34.1,M,,*56
103,0,0.31,-0.33,0.00,0.19,-1.25,0.56,-0.7297,-0.0524,0.0139,-0.6817,$GPGGA,205621.700,4041.0839,N,07423.2068,W,1,07,1.13,141.5,M,-34.1,M,,*58
104,0,0.10,0.21,-1.10,-0.50,0.31,0.44,-0.7296,-0.0524,0.0139,-0.6818,$GPGGA,205621.800,4041.0844,N,07423.2059,W,1,07,1.23,141.5,M,-34.1,M,,*5C
105,0,0.21,0.33,0.11,-0.75,0.81,0.50,-0.7296,-0.0517,0.0142,-0.6818,$GPGGA,205621.900,4041.0849,N,07423.2050,W,1,07,1.23,141.5,M,-34.1,M,,*59
106,0,0.09,0.28,0.29,0.19,-0.06,0.25,-0.7296,-0.0517,0.0145,-0.6818,$GPGGA,205622.000,4041.0854,N,07423.2040,W,1,07,1.23,141.5,M,-34.1,M,,*5E
107,0,0.20,0.01,-0.39,-0.88,-0.25,0.31,-0.7296,-0.0521,0.0146,-0.6818,$GPGGA,205622.100,4041.0858,N,07423.2030,W,1,07,1.23,141.5,M,-34.1,M,,*54
108,0,0.45,0.13,0.38,1.37,0.31,0.56,-0.7294,-0.0526,0.0143,-0.6819,$GPGGA,205622.200,4041.0863,N,07423.2020,W,1,07,1.23,141.5,M,-34.1,M,,*5E
109,0,0.33,-0.02,0.38,0.81,0.00,0.31,-0.7292,-0.0535,0.0135,-0.6821,$GPGGA,205622.300,4041.0868,N,07423.2011,W,1,07,1.13,141.5,M,-34.1,M,,*55
110,0,0.17,-0.59,-0.10,-0.44,-0.50,0.31,-0.7291,-0.0544,0.0126,-0.6821,$GPGGA,205622.400,4041.0873,N,07423.2001,W,1,07,1.13,141.5,M,-34.1,M,,*59
111,0,0.34,0.10,0.17,0.19,-1.44,0.25,-0.7291,-0.0551,0.0126,-0.6821,$GPGGA,205622.500,4041.0878,N,07423.1991,W,1,07,1.13,141.5,M,-34.1,M,,*50
112,0,0.14,0.11,0.60,-1.75,0.13,-0.06,-0.7291,-0.0546,0.0132,-0.6821,$GPGGA,205622.600,4041.0883,N,07423.1982,W,1,07,1.13,141.5,M,-34.1,M,,*55
113,0,0.40,0.03,0.03,-1.81,-0.25,-0.44,-0.7292,-0.0532,0.0140,-0.6821,$GPGGA,205622.700,4041.0888,N,07423.1972,W,1,07,1.13,141.4,M,-34.2,M,,*52
114,0,0.12,-0.08,0.41,-0.88,-0.50,-0.25,-0.7293,-0.0525,0.0153,-0.6820,$GPGGA,205622.800,4041.0893,N,07423.1961,W,1,07,1.13,141.4,M,-34.2,M,,*55
115,0,0.36,-0.18,0.53,0.25,-0.88,-0.06,-0.7293,-0.0526,0.0160,-0.6819,$GPGGA,205622.900,4041.0897,N,07423.1952,W,1,07,1.23,141.4,M,-34.2,M,,*53
116,0,-0.10,-0.07,-0.23,1.44,-0.75,0.06,-0.7292,-0.0534,0.0158,-0.6819,$GPGGA,205623.000,4041.0903,N,07423.1942,W,1,07,1.23,141.4,M,-34.2,M,,*56
117,0,0.14,-0.18,0.14,1.31,0.37,0.00,-0.7292,-0.0539,0.0152,-0.6820,$GPGGA,205623.100,4041.0908,N,07423.1932,W,1,07,1.13,141.4,M,-34.2,M,,*58
118,0,0.23,0.14,-0.44,0.06,-1.12,-0.13,-0.7292,-0.0538,0.0147,-0.6820,$GPGGA,205623.200,4041.0913,N,07423.1923,W,1,07,1.23,141.4,M,-34.2,M,,*52
119,0,0.06,0.28,-0.32,0.37,0.69,-0.13,-0.7292,-0.0538,0.0148,-0.6821,$GPGGA,205623.300,4041.0918,N,07423.1913,W,1,07,1.13,141.4,M,-34.2,M,,*58
120,0,0.11,-0.63,-0.05,-0.25,0.37,-0.50,-0.7292,-0.0535,0.0146,-0.6821,$GPGGA,205623.400,4041.0923,N,07423.1904,W,1,07,1.13,141.4,M,-34.2,M,,*51
121,0,0.04,-0.04,0.30,0.19,1.00,-0.31,-0.7292,-0.0533,0.0142,-0.6821,$GPGGA,205623.500,4041.0929,N,07423.1894,W,1,07,1.13,141.4,M,-34.2,M,,*52
122,0,0.10,-0.36,-0.28,-1.31,0.81,-0.31,-0.7292,-0.0527,0.0140,-0.6821,$GPGGA,205623.600,4041.0934,N,07423.1884,W,1,07,1.13,141.4,M,-34.2,M,,*5C
123,0,0.08,0.02,-0.75,-0.56,0.31,-0.50,-0.7292,-0.0521,0.0137,-0.6822,$GPGGA,205623.700,4041.0940,N,07423.1874,W,1,07,1.13,141.4,M,-34.2,M,,*51
124,0,0.38,0.20,0.14,-1.06,-0.94,-0.06,-0.7292,-0.0521,0.0137,-0.6822,$GPGGA,205623.800,4041.0945,N,07423.1864,W,1,07,1.13,141.4,M,-34.2,M,,*5A
125,0,0.01,0.02,0.31,-1.56,0.44,0.00,-0.7292,-0.0514,0.0145,-0.6822,$GPGGA,205623.900,4041.0950,N,07423.1853,W,1,07,1.13,141.4,M,-34.2,M,,*5B
126,0,0.12,0.34,0.07,-0.69,0.56,0.19,-0.7292,-0.0511,0.0149,-0.6821,$GPGGA,205624.000,4041.0955,N,07423.1843,W,1,07,1.13,141.4,M,-34.2,M,,*51
127,0,-0.14,-0.46,0.30,0.31,1.12,-0.37,-0.7293,-0.0507,0.0148,-0.6822,$GPGGA,205624.100,4041.0960,N,07423.1832,W,1,07,1.23,141.4,M,-34.2,M,,*53
128,0,0.08,0.24,0.66,0.06,-1.44,0.06,-0.7292,-0.0513,0.0148,-0.6821,$GPGGA,205624.200,4041.0966,N,07423.1822,W,1,07,1.23,141.4,M,-34.2,M,,*57
129,0,-0.42,0.22,0.27,0.62,-0.19,0.44,-0.7292,-0.0521,0.0154,-0.6821,$GPGGA,205624.300,4041.0971,N,07423.1812,W,1,07,1.13,141.4,M,-34.2,M,,*50
130,0,-0.06,0.11,0.02,-0.19,-0.13,0.19,-0.7292,-0.0521,0.0155,-0.6821,$GPGGA,205624.400,4041.0977,N,07423.1802,W,1,07,1.13,141.4,M,-34.2,M,,*50
131,0,0.04,0.03,-0.84,0.44,1.50,0.31,-0.7292,-0.0516,0.0148,-0.6821,$GPGGA,205624.500,4041.0982,N,07423.1791,W,1,07,1.13,141.4,M,-34.2,M,,*5E
132,0,0.07,0.12,-0.58,-0.19,1.37,0.19,-0.7292,-0.0507,0.0139,-0.6822,$GPGGA,205624.600,4041.0988,N,07423.1781,W,1,07,1.13,141.4,M,-34.2,M,,*56
133,0,0.30,0.00,-0.03,0.25,0.75,0.44,-0.7292,-0.0501,0.0128,-0.6823,$GPGGA,205624.700,4041.0993,N,07423.1770,W,1,07,1.13,141.4,M,-34.2,M,,*53
134,0,0.24,-0.09,-0.23,-0.75,-0.19,0.25,-0.7292,-0.0498,0.0125,-0.6823,$GPGGA,205624.800,4041.0999,N,07423.1760,W,1,07,1.13,141.4,M,-34.2,M,,*57
135,0,-0.41,0.10,-0.82,-1.12,0.25,0.19,-0.7293,-0.0496,0.0129,-0.6823,$GPGGA,205624.900,4041.1004,N,07423.1749,W,1,07,1.13,141.4,M,-34.2,M,,*51
136,0,0.12,-0.01,0.09,-2.56,0.44,0.13,-0.7294,-0.0485,0.0140,-0.6823,$GPGGA,205625.000,4041.1010,N,07423.1739,W,1,07,1.23,141.4,M,-34.2,M,,*58
137,0,0.16,0.20,0.25,-2.81,-0.69,0.19,-0.7294,-0.0473,0.0149,-0.6823,$GPGGA,205625.100,4041.1016,N,07423.1728,W,1,07,1.23,141.4,M,-34.2,M,,*5F
138,0,0.17,0.45,-0.18,-1.69,-1.00,0.13,-0.7296,-0.0459,0.0154,-0.6823,$GPGGA,205625.200,4041.1022,N,07423.1718,W,1,07,1.13,141.4,M,-34.2,M,,*5B
139,0,0.57,0.03,-0.23,-1.62,1.37,0.19,-0.7296,-0.0450,0.0164,-0.6822,$GPGGA,205625.300,4041.1028,N,07423.1707,W,1,07,1.13,141.4,M,-34.2,M,,*5E
140,0,-0.05,0.82,0.22,-0.62,1.44,0.13,-0.7296,-0.0443,0.0171,-0.6822,$GPGGA,205625.400,4041.1034,N,07423.1697,W,1,07,1.13,141.4,M,-34.2,M,,*5C
141,0,0.11,0.39,0.10,-0.75,-0.81,0.19,-0.7297,-0.0432,0.0172,-0.6822,$GPGGA,205625.500,4041.1040,N,07423.1686,W,1,07,1.13,141.4,M,-34.2,M,,*5E
142,0,-0.14,-0.90,-0.63,-0.19,-1.31,0.25,-0.7297,-0.0429,0.0173,-0.6822,$GPGGA,205625.600,4041.1045,N,07423.1675,W,1,07,1.23,141.4,M,-34.2,M,,*57
143,0,0.05,0.03,0.79,0.00,-0.50,0.31,-0.7297,-0.0432,0.0182,-0.6822,$GPGGA,205625.700,4041.1051,N,07423.1664,W,1,07,1.23,141.4,M,-34.2,M,,*53
144,0,-0.35,0.52,-0.44,-0.62,1.12,0.37,-0.7297,-0.0433,0.0183,-0.6821,$GPGGA,205625.800,4041.1057,N,07423.1653,W,1,07,1.23,141.4,M,-34.2,M,,*5E
145,0,0.03,0.24,-0.49,-0.88,1.00,0.25,-0.7297,-0.0421,0.0181,-0.6822,$GPGGA,205625.900,4041.1062,N,07423.1642,W,1,07,1.23,141.3,M,-34.2,M,,*5E
146,0,0.60,0.09,-0.82,-1.50,1.06,0.06,-0.7298,-0.0408,0.0178,-0.6822,$GPGGA,205626.000,4041.1068,N,07423.1631,W,1,07,1.23,141.3,M,-34.2,M,,*5A
147,0,0.45,-0.42,-0.44,0.50,3.12,0.06,-0.7299,-0.0397,0.0174,-0.6823,$GPGGA,205626.100,4041.1074,N,07423.1620,W,1,07,1.23,141.3,M,-34.2,M,,*56
148,0,0.25,-0.38,-0.29,-0.25,1.31,0.37,-0.7299,-0.0390,0.0173,-0.6823,$GPGGA,205626.200,4041.1080,N,07423.1608,W,1,07,1.23,141.3,M,-34.2,M,,*54
149,0,0.22,0.14,0.26,-2.12,-1.44,0.19,-0.7299,-0.0387,0.0181,-0.6823,$GPGGA,205626.300,4041.1086,N,07423.1597,W,1,07,1.23,141.3,M,-34.2,M,,*56
150,0,-0.11,0.57,0.13,-0.94,1.19,0.13,-0.7299,-0.0381,0.0189,-0.6822,$GPGGA,205626.400,4041.1092,N,07423.1586,W,1,07,1.23,141.3,M,-34.2,M,,*54
151,0,0.27,0.14,-0.18,-0.88,-1.25,0.31,-0.7300,-0.0375,0.0197,-0.6822,$GPGGA,205626.500,4041.1097,N,07423.1574,W,1,07,1.13,141.2,M,-34.2,M,,*5F
152,0,0.78,-0.02,0.15,-0.75,-0.31,0.50,-0.7299,-0.0370,0.0198,-0.6822,$GPGGA,205626.600,4041.1103,N,07423.1563,W,1,07,1.23,141.2,M,-34.2,M,,*55
153,0,0.26,-0.01,0.18,0.62,2.31,0.69,-0.7296,-0.0366,0.0193,-0.6827,$GPGGA,205626.700,4041.1109,N,07423.1551,W,1,07,1.23,141.2,M,-34.2,M,,*5F
154,0,-0.11,-0.12,-0.28,-0.44,-3.00,0.62,-0.7291,-0.0369,0.0195,-0.6832,$GPGGA,205626.800,4041.1115,N,07423.1539,W,1,07,1.23,141.2,M,-34.2,M,,*53
155,0,-0.32,0.52,-0.87,-1.37,2.12,1.00,-0.7286,-0.0358,0.0198,-0.6837,$GPGGA,205626.900,4041.1121,N,07423.1528,W,1,07,1.23,141.1,M,-34.2,M,,*56
156,0,-0.15,0.57,0.05,-1.87,0.88,0.62,-0.7283,-0.0342,0.0193,-0.6842,$GPGGA,205627.000,4041.1127,N,07423.1516,W,1,07,1.23,141.1,M,-34.2,M,,*55
157,0,0.39,0.01,0.05,-0.19,-0.81,0.81,-0.7280,-0.0334,0.0192,-0.6845,$GPGGA,205627.100,4041.1133,N,07423.1505,W,1,07,1.23,141.1,M,-34.2,M,,*53
158,0,-0.07,0.54,-0.04,0.62,0.00,1.19,-0.7274,-0.0333,0.0193,-0.6851,$GPGGA,205627.200,4041.1139,N,07423.1493,W,1,07,1.23,141.1,M,-34.2,M,,*54
159,0,0.47,0.21,0.26,-0.37,-1.94,1.19,-0.7267,-0.0337,0.0203,-0.6858,$GPGGA,205627.300,4041.1145,N,07423.1481,W,1,07,1.13,141.0,M,-34.2,M,,*5F
160,0,0.33,-0.23,0.98,1.44,1.12,1.12,-0.7261,-0.0339,0.0203,-0.6865,$GPGGA,205627.400,4041.1151,N,07423.1470,W,1,07,1.13,141.0,M,-34.2,M,,*53
161,0,0.14,0.81,-0.58,-0.19,0.94,1.44,-0.7253,-0.0334,0.0195,-0.6873,$GPGGA,205627.500,4041.1157,N,07423.1458,W,1,07,1.13,140.9,M,-34.2,M,,*56
162,0,0.33,0.59,0.30,0.69,3.62,1.37,-0.7244,-0.0328,0.0182,-0.6883,$GPGGA,205627.600,4041.1163,N,07423.1446,W,1,07,1.23,140.9,M,-34.2,M,,*5E
163,0,-0.22,0.41,-0.58,0.06,-1.50,1.62,-0.7235,-0.0325,0.0175,-0.6893,$GPGGA,205627.700,4041.1169,N,07423.1434,W,1,07,1.23,140.9,M,-34.2,M,,*50
164,0,0.29,-0.06,0.71,0.31,1.44,1.44,-0.7227,-0.0325,0.0172,-0.6902,$GPGGA,205627.800,4041.1176,N,07423.1422,W,1,07,1.23,140.8,M,-34.2,M,,*57
165,0,0.04,0.84,0.04,-1.12,-1.81,1.31,-0.7220,-0.0325,0.0175,-0.6909,$GPGGA,205627.900,4041.1182,N,07423.1411,W,1,07,1.23,140.8,M,-34.2,M,,*5D
166,0,0.04,0.53,-0.08,-0.06,1.12,1.37,-0.7213,-0.0320,0.0176,-0.6917,$GPGGA,205628.000,4041.1189,N,07423.1399,W,1,07,1.23,140.8,M,-34.2,M,,*57
167,0,0.56,0.28,0.19,1.19,-0.44,1.19,-0.7205,-0.0317,0.0176,-0.6925,$GPGGA,205628.100,4041.1195,N,07423.1387,W,1,07,1.23,140.7,M,-34.2,M,,*5B
168,0,0.08,-0.03,-0.44,-0.75,1.56,1.19,-0.7198,-0.0308,0.0173,-0.6932,$GPGGA,205628.200,4041.1202,N,07423.1376,W,1,07,1.23,140.7,M,-34.2,M,,*5B
169,0,0.19,0.86,-0.22,-4.25,-0.94,0.81,-0.7192,-0.0293,0.0181,-0.6939,$GPGGA,205628.300,4041.1208,N,07423.1364,W,1,07,1.13,140.6,M,-34.2,M,,*51
170,0,0.41,0.84,-0.34,-0.25,-0.69,0.81,-0.7188,-0.0284,0.0186,-0.6943,$GPGGA,205628.400,4041.1215,N,07423.1352,W,1,07,1.23,140.6,M,-34.2,M,,*5C
171,0,0.34,0.11,-0.24,-0.50,2.44,1.06,-0.7184,-0.0280,0.0185,-0.6948,$GPGGA,205628.500,4041.1221,N,07423.1340,W,1,07,1.23,140.6,M,-34.2,M,,*59
172,0,-0.05,0.09,-0.65,2.50,0.94,1.12,-0.7178,-0.0278,0.0170,-0.6955,$GPGGA,205628.600,4041.1228,N,07423.1329,W,1,07,1.23,140.5,M,-34.2,M,,*5F
173,0,0.33,-0.70,0.74,5.31,-0.19,1.19,-0.7170,-0.0297,0.0154,-0.6962,$GPGGA,205628.700,4041.1235,N,07423.1317,W,1,07,1.23,140.5,M,-34.2,M,,*5F
174,0,0.23,0.61,0.75,1.12,1.31,1.31,-0.7163,-0.0321,0.0139,-0.6969,$GPGGA,205628.800,4041.1241,N,07423.1305,W,1,07,1.23,140.4,M,-34.2,M,,*51
175,0,0.15,0.58,-0.93,-1.69,3.94,0.69,-0.7157,-0.0309,0.0117,-0.6976,$GPGGA,205628.900,4041.1248,N,07423.1293,W,1,07,1.23,140.4,M,-34.2,M,,*57
176,0,-0.28,0.83,-0.85,-2.00,-1.75,0.06,-0.7157,-0.0295,0.0118,-0.6977,$GPGGA,205629.000,4041.1255,N,07423.1281,W,1,07,1.23,140.4,M,-34.2,M,,*50
177,0,0.19,-0.04,0.72,-1.19,-0.88,0.06,-0.7158,-0.0286,0.0137,-0.6976,$GPGGA,205629.100,4041.1262,N,07423.1270,W,1,07,1.23,140.3,M,-34.2,M,,*5C
178,0,-0.08,0.41,-1.65,2.06,6.12,0.19,-0.7158,-0.0275,0.0115,-0.6977,$GPGGA,205629.200,4041.1269,N,07423.1258,W,1,07,1.23,140.3,M,-34.2,M,,*5E
179,0,-0.20,-0.98,1.14,4.87,-0.19,1.00,-0.7156,-0.0275,0.0088,-0.6979,$GPGGA,205629.300,4041.1275,N,07423.1246,W,1,07,1.13,140.2,M,-34.2,M,,*5F
180,0,0.22,0.68,0.56,1.87,-5.44,0.81,-0.7149,-0.0336,0.0091,-0.6984,$GPGGA,205629.400,4041.1282,N,07423.1234,W,1,07,1.13,140.2,M,-34.2,M,,*55
181,0,0.12,0.46,-0.33,0.37,0.50,0.37,-0.7145,-0.0362,0.0096,-0.6987,$GPGGA,205629.500,4041.1289,N,07423.1222,W,1,07,1.23,140.1,M,-34.2,M,,*58
182,0,-0.43,-0.07,-1.53,0.88,3.12,0.44,-0.7145,-0.0347,0.0081,-0.6987,$GPGGA,205629.600,4041.1297,N,07423.1210,W,1,07,1.13,140.1,M,-34.2,M,,*56
183,0,0.05,0.89,-1.41,-0.69,3.50,0.44,-0.7145,-0.0331,0.0068,-0.6988,$GPGGA,205629.700,4041.1304,N,07423.1198,W,1,07,1.13,140.1,M,-34.2,M,,*5F
184,0,-0.50,0.67,-1.03,-1.37,-0.88,0.69,-0.7144,-0.0322,0.0068,-0.6990,$GPGGA,205629.800,4041.1311,N,07423.1186,W,1,07,1.13,140.0,M,-34.2,M,,*5A
185,0,-0.03,0.56,-0.13,0.13,0.19,0.81,-0.7139,-0.0320,0.0071,-0.6995,$GPGGA,205629.900,4041.1318,N,07423.1174,W,1,07,1.23,140.0,M,-34.2,M,,*5C
186,0,-0.55,-0.14,-0.25,-0.06,3.25,1.44,-0.7131,-0.0311,0.0056,-0.7003,$GPGGA,205630.000,4041.1325,N,07423.1162,W,1,07,1.23,139.9,M,-34.2,M,,*53
187,0,-0.38,0.97,-0.16,-1.31,0.25,1.62,-0.7123,-0.0302,0.0013,-0.7012,$GPGGA,205630.100,4041.1332,N,07423.1150,W,1,07,1.13,139.9,M,-34.2,M,,*56
188,0,-0.65,0.79,0.22,1.00,-3.87,1.69,-0.7114,-0.0318,0.0021,-0.7021,$GPGGA,205630.200,4041.1339,N,07423.1137,W,1,07,1.23,139.8,M,-34.2,M,,*5D
189,0,-0.82,1.12,0.35,-1.69,-0.62,1.50,-0.7104,-0.0329,0.0035,-0.7029,$GPGGA,205630.300,4041.1346,N,07423.1125,W,1,07,1.13,139.8,M,-34.2,M,,*54
190,0,-0.43,0.33,-0.10,-0.94,2.19,1.00,-0.7098,-0.0321,0.0037,-0.7037,$GPGGA,205630.400,4041.1354,N,07423.1113,W,1,07,1.13,139.8,M,-34.2,M,,*55
191,0,-0.59,0.00,0.31,-0.75,-0.75,1.25,-0.7090,-0.0316,0.0045,-0.7044,$GPGGA,205630.500,4041.1361,N,07423.1101,W,1,07,1.13,139.7,M,-34.2,M,,*5E
192,0,-0.89,0.14,-0.44,-0.31,1.69,1.50,-0.7083,-0.0309,0.0040,-0.7053,$GPGGA,205630.600,4041.1368,N,07423.1089,W,1,07,1.13,139.7,M,-34.2,M,,*55
193,0,-0.92,0.15,-0.13,1.94,0.06,1.56,-0.7073,-0.0305,0.0020,-0.7062,$GPGGA,205630.700,4041.1375,N,07423.1077,W,1,07,1.13,139.6,M,-34.2,M,,*58
194,0,-0.39,0.00,0.65,-0.25,-1.81,1.56,-0.7064,-0.0312,0.0010,-0.7072,$GPGGA,205630.800,4041.1383,N,07423.1064,W,1,07,1.13,139.6,M,-34.2,M,,*5C
195,0,-0.83,1.08,0.49,0.13,-0.13,1.50,-0.7053,-0.0325,0.0007,-0.7081,$GPGGA,205630.900,4041.1390,N,07423.1052,W,1,07,1.23,139.5,M,-34.2,M,,*5A
196,0,-0.92,0.60,-0.04,0.75,-0.13,1.25,-0.7045,-0.0332,-0.0001,-0.7090,$GPGGA,205631.000,4041.1397,N,07423.1040,W,1,07,1.13,139.5,M,-34.2,M,,*55
197,0,-0.18,-0.90,0.85,3.25,0.56,1.56,-0.7035,-0.0345,-0.0008,-0.7098,$GPGGA,205631.100,4041.1404,N,07423.1027,W,1,07,1.23,139.4,M,-34.2,M,,*5A
198,0,-0.07,-0.36,0.32,0.50,0.19,1.69,-0.7025,-0.0351,-0.0005,-0.7108,$GPGGA,205631.200,4041.1411,N,07423.1015,W,1,07,1.23,139.4,M,-34.2,M,,*5C
199,0,-0.20,1.22,-0.07,-1.62,-0.13,1.06,-0.7017,-0.0349,-0.0003,-0.7116,$GPGGA,205631.300,4041.1419,N,07423.1003,W,1,07,1.13,139.4,M,-34.2,M,,*51
200,0,-0.52,0.74,-0.60,-0.62,3.44,0.81,-0.7012,-0.0338,0.0000,-0.7122,$GPGGA,205631.400,4041.1426,N,07423.0991,W,1,07,1.13,139.3,M,-34.2,M,,*5E
201,0,0.38,0.05,0.83,-1.94,1.44,0.44,-0.7011,-0.0330,-0.0010,-0.7123,$GPGGA,205631.500,4041.1433,N,07423.0979,W,1,07,1.13,139.3,M,-34.2,M,,*5D
202,0,0.11,0.15,-0.09,-1.62,-0.50,0.62,-0.7009,-0.0324,0.0005,-0.7125,$GPGGA,205631.600,4041.1441,N,07423.0967,W,1,07,1.13,139.2,M,-34.2,M,,*55
203,0,0.15,-0.01,-0.09,-0.56,1.31,0.75,-0.7006,-0.0314,0.0007,-0.7128,$GPGGA,205631.700,4041.1448,N,07423.0955,W,1,07,1.13,139.2,M,-34.2,M,,*5C
204,0,-0.45,-0.28,-0.21,1.19,0.94,0.94,-0.7002,-0.0306,0.0001,-0.7133,$GPGGA,205631.800,4041.1456,N,07423.0943,W,1,07,1.13,139.2,M,-34.2,M,,*5B
205,0,0.03,0.32,-0.12,-0.62,0.81,0.75,-0.6997,-0.0298,-0.0006,-0.7138,$GPGGA,205631.900,4041.1463,N,07423.0931,W,1,07,1.23,139.1,M,-34.2,M,,*59
206,0,0.01,0.20,-0.60,-1.25,0.19,0.75,-0.6992,-0.0291,-0.0005,-0.7144,$GPGGA,205632.000,4041.1471,N,07423.0919,W,1,07,1.23,139.1,M,-34.2,M,,*5A
207,0,0.02,0.58,-0.41,-0.06,-1.62,0.56,-0.6989,-0.0290,0.0002,-0.7147,$GPGGA,205632.100,4041.1478,N,07423.0907,W,1,07,1.23,139.0,M,-34.2,M,,*5C
208,0,-0.43,-0.24,1.30,1.44,-0.50,0.94,-0.6982,-0.0309,0.0007,-0.7152,$GPGGA,205632.200,4041.1485,N,07423.0895,W,1,07,1.23,139.0,M,-34.2,M,,*57
209,0,0.23,0.12,0.66,-0.25,-2.12,1.12,-0.6974,-0.0322,0.0007,-0.7159,$GPGGA,205632.300,4041.1493,N,07423.0883,W,1,07,1.13,139.0,M,-34.2,M,,*55
210,0,0.27,0.19,-0.18,-0.37,0.19,0.75,-0.6967,-0.0321,0.0013,-0.7166,$GPGGA,205632.400,4041.1500,N,07423.0871,W,1,07,1.13,138.9,M,-34.2,M,,*5C
211,0,-0.20,1.10,-0.21,0.81,-1.00,0.94,-0.6961,-0.0322,0.0016,-0.7172,$GPGGA,205632.500,4041.1507,N,07423.0860,W,1,07,1.13,138.9,M,-34.2,M,,*5A
212,0,-0.21,-0.12,0.46,0.31,-2.81,1.31,-0.6954,-0.0338,0.0026,-0.7178,$GPGGA,205632.600,4041.1515,N,07423.0848,W,1,07,1.13,138.8,M,-34.2,M,,*51
213,0,0.07,-0.16,0.15,0.25,0.25,1.44,-0.6945,-0.0345,0.0027,-0.7186,$GPGGA,205632.700,4041.1522,N,07423.0836,W,1,07,1.23,138.8,M,-34.2,M,,*5E
214,0,-0.33,0.40,-0.16,1.56,1.94,1.12,-0.6937,-0.0343,0.0017,-0.7194,$GPGGA,205632.800,4041.1529,N,07423.0824,W,1,07,1.23,138.8,M,-34.2,M,,*59
215,0,-0.39,0.20,0.12,-2.06,-0.56,1.06,-0.6931,-0.0342,0.0023,-0.7201,$GPGGA,205632.900,4041.1537,N,07423.0812,W,1,07,1.13,138.7,M,-34.2,M,,*5E
216,0,-0.56,0.92,-0.14,-2.62,-2.94,0.44,-0.6928,-0.0336,0.0043,-0.7203,$GPGGA,205633.000,4041.1544,N,07423.0800,W,1,07,1.23,138.7,M,-34.2,M,,*52
217,0,-0.78,0.13,0.64,-3.37,-1.25,-0.06,-0.6929,-0.0328,0.0079,-0.7203,$GPGGA,205633.100,4041.1552,N,07423.0788,W,1,07,1.23,138.6,M,-34.2,M,,*5A
218,0,-0.50,-0.38,-0.75,1.12,0.62,0.75,-0.6927,-0.0333,0.0081,-0.7203,$GPGGA,205633.200,4041.1560,N,07423.0776,W,1,07,1.23,138.6,M,-34.2,M,,*59
219,0,0.16,-0.32,-0.68,2.31,2.00,0.88,-0.6923,-0.0332,0.0059,-0.7208,$GPGGA,205633.300,4041.1568,N,07423.0764,W,1,07,1.13,138.5,M,-34.2,M,,*53
220,0,-0.23,0.40,-0.35,1.31,-1.31,0.81,-0.6916,-0.0339,0.0039,-0.7214,$GPGGA,205633.400,4041.1576,N,07423.0752,W,1,07,1.13,138.5,M,-34.2,M,,*5E
221,0,0.29,0.42,-0.07,1.06,-0.13,0.69,-0.6911,-0.0355,0.0029,-0.7219,$GPGGA,205633.500,4041.1584,N,07423.0740,W,1,07,1.13,138.4,M,-34.2,M,,*50
222,0,-0.40,0.82,0.18,2.37,-1.44,0.81,-0.6907,-0.0374,0.0026,-0.7222,$GPGGA,205633.600,4041.1592,N,07423.0729,W,1,07,1.13,138.4,M,-34.2,M,,*5B
223,0,-0.92,0.70,0.61,1.94,-1.44,0.94,-0.6902,-0.0395,0.0025,-0.7225,$GPGGA,205633.700,4041.1600,N,07423.0717,W,1,07,1.13,138.3,M,-34.2,M,,*58
224,0,-0.38,-0.29,0.04,1.19,-0.44,1.06,-0.6896,-0.0413,0.0023,-0.7230,$GPGGA,205633.800,4041.1608,N,07423.0706,W,1,07,1.23,138.3,M,-34.2,M,,*5C
225,0,-0.52,-0.31,0.07,1.06,1.62,0.75,-0.6890,-0.0419,0.0015,-0.7235,$GPGGA,205633.900,4041.1617,N,07423.0694,W,1,07,1.23,138.2,M,-34.2,M,,*58
226,0,0.37,0.37,0.82,1.94,-0.75,0.75,-0.6885,-0.0422,0.0002,-0.7241,$GPGGA,205634.000,4041.1625,N,07423.0682,W,1,07,1.23,138.2,M,-34.2,M,,*50
227,0,-0.06,0.45,-0.25,0.81,-0.69,1.06,-0.6878,-0.0438,-0.0006,-0.7245,$GPGGA,205634.100,4041.1633,N,07423.0671,W,1,07,1.23,138.1,M,-34.2,M,,*59
228,0,-0.21,0.53,0.54,-0.13,-1.12,1.19,-0.6871,-0.0449,-0.0003,-0.7252,$GPGGA,205634.200,4041.1641,N,07423.0659,W,1,07,1.23,138.1,M,-34.2,M,,*55
229,0,-0.03,0.25,0.06,-0.25,0.19,0.88,-0.6865,-0.0452,0.0003,-0.7257,$GPGGA,205634.300,4041.1648,N,07423.0647,W,1,07,1.13,138.1,M,-34.2,M,,*51
230,0,-0.65,0.76,0.27,-0.50,-1.56,1.37,-0.6859,-0.0456,0.0016,-0.7263,$GPGGA,205634.400,4041.1656,N,07423.0636,W,1,07,1.13,138.0,M,-34.2,M,,*5E
231,0,-0.46,-0.02,0.88,-1.00,-1.94,1.37,-0.6851,-0.0465,0.0035,-0.7269,$GPGGA,205634.500,4041.1664,N,07423.0624,W,1,07,1.13,138.0,M,-34.2,M,,*5D
232,0,0.01,0.41,0.93,0.06,-1.87,1.25,-0.6843,-0.0476,0.0045,-0.7276,$GPGGA,205634.600,4041.1672,N,07423.0613,W,1,07,1.13,137.9,M,-34.2,M,,*5B
233,0,-0.48,-0.04,0.58,-0.69,-1.94,1.19,-0.6835,-0.0488,0.0052,-0.7283,$GPGGA,205634.700,4041.1680,N,07423.0601,W,1,07,1.13,137.9,M,-34.2,M,,*54
234,0,-0.02,0.72,-0.09,0.31,-0.13,0.94,-0.6827,-0.0496,0.0054,-0.7290,$GPGGA,205634.800,4041.1688,N,07423.0589,W,1,07,1.13,137.9,M,-34.2,M,,*50
235,0,-0.39,0.34,0.03,0.37,-0.06,0.94,-0.6820,-0.0501,0.0056,-0.7296,$GPGGA,205634.900,4041.1696,N,07423.0578,W,1,07,1.13,137.8,M,-34.2,M,,*51
236,0,-1.00,1.14,-0.33,1.19,0.19,1.00,-0.6814,-0.0510,0.0062,-0.7301,$GPGGA,205635.000,4041.1704,N,07423.0566,W,1,07,1.13,137.8,M,-34.2,M,,*5C
237,0,-0.67,0.81,0.52,-0.19,-1.12,0.56,-0.6812,-0.0513,0.0063,-0.7302,$GPGGA,205635.100,4041.1712,N,07423.0555,W,1,07,1.13,137.7,M,-34.2,M,,*55
238,0,-0.96,0.17,0.58,1.12,-0.25,0.31,-0.6813,-0.0519,0.0065,-0.7302,$GPGGA,205635.200,4041.1720,N,07423.0543,W,1,07,1.13,137.7,M,-34.2,M,,*50
239,0,-0.29,-0.70,0.10,0.56,-0.37,0.13,-0.6812,-0.0530,0.0065,-0.7301,$GPGGA,205635.300,4041.1728,N,07423.0531,W,1,07,1.13,137.7,M,-34.2,M,,*5C
240,0,-0.63,0.00,-0.44,1.00,-0.50,0.31,-0.6812,-0.0538,0.0052,-0.7302,$GPGGA,205635.400,4041.1736,N,07423.0520,W,1,07,1.13,137.6,M,-34.2,M,,*55
241,0,-0.17,0.21,-0.40,0.44,1.25,-0.06,-0.6812,-0.0536,0.0037,-0.7302,$GPGGA,205635.500,4041.1743,N,07423.0508,W,1,07,1.13,137.6,M,-34.2,M,,*5C
242,0,-0.40,-0.11,-0.22,0.75,-1.12,-0.50,-0.6812,-0.0536,0.0027,-0.7302,$GPGGA,205635.600,4041.1751,N,07423.0496,W,1,07,1.13,137.6,M,-34.2,M,,*5A
243,0,-0.49,0.48,-0.15,-0.94,0.56,-0.37,-0.6812,-0.0536,0.0027,-0.7302,$GPGGA,205635.700,4041.1760,N,07423.0485,W,1,07,1.13,137.5,M,-34.2,M,,*58
244,0,-0.85,0.54,0.03,-1.25,0.00,-0.31,-0.6812,-0.0528,0.0024,-0.7302,$GPGGA,205635.800,4041.1768,N,07423.0473,W,1,07,1.13,137.5,M,-34.2,M,,*56
245,0,-0.68,-0.22,-0.77,-0.25,1.56,0.06,-0.6812,-0.0522,0.0032,-0.7302,$GPGGA,205635.900,4041.1776,N,07423.0461,W,1,07,1.13,137.4,M,-34.2,M,,*5A
246,0,-0.34,-0.53,0.10,0.88,1.12,0.31,-0.6813,-0.0516,0.0027,-0.7302,$GPGGA,205636.000,4041.1785,N,07423.0449,W,1,07,1.13,137.4,M,-34.2,M,,*56
247,0,-0.38,0.16,-0.54,-0.25,0.88,0.50,-0.6813,-0.0500,0.0015,-0.7303,$GPGGA,205636.100,4041.1793,N,07423.0437,W,1,07,1.13,137.4,M,-34.2,M,,*59
248,0,-0.22,0.31,-0.13,-0.75,2.12,0.37,-0.6813,-0.0483,0.0007,-0.7305,$GPGGA,205636.200,4041.1802,N,07423.0426,W,1,07,1.13,137.4,M,-34.2,M,,*5D
249,0,-0.20,-0.06,-0.93,-1.31,1.12,0.13,-0.6813,-0.0461,0.0002,-0.7306,$GPGGA,205636.300,4041.1809,N,07423.0414,W,1,07,1.13,137.3,M,-34.2,M,,*51
250,0,-0.46,0.26,-0.50,-1.37,-0.44,0.13,-0.6813,-0.0455,0.0016,-0.7305,$GPGGA,205636.400,4041.1817,N,07423.0402,W,1,07,1.13,137.3,M,-34.2,M,,*5E
251,0,-0.83,-0.04,0.60,-1.44,2.06,0.25,-0.6814,-0.0451,0.0030,-0.7305,$GPGGA,205636.500,4041.1825,N,07423.0390,W,1,07,1.13,137.3,M,-34.2,M,,*52
252,0,-0.56,0.55,0.00,-1.25,-0.62,0.56,-0.6815,-0.0447,0.0035,-0.7305,$GPGGA,205636.600,4041.1833,N,07423.0379,W,1,07,1.13,137.2,M,-34.2,M,,*50
253,0,0.07,-0.30,0.50,-0.56,0.37,0.56,-0.6815,-0.0447,0.0049,-0.7305,$GPGGA,205636.700,4041.1841,N,07423.0367,W,1,07,1.13,137.2,M,-34.2,M,,*5B
254,0,-0.19,0.44,-0.56,0.19,-0.81,0.62,-0.6814,-0.0443,0.0049,-0.7306,$GPGGA,205636.800,4041.1850,N,07423.0356,W,1,07,1.13,137.2,M,-34.2,M,,*56
255,0,0.06,-0.36,-0.10,-0.37,0.06,0.31,-0.6815,-0.0435,0.0041,-0.7306,$GPGGA,205636.900,4041.1858,N,07423.0344,W,1,07,1.13,137.1,M,-34.2,M,,*5F
256,0,-0.43,0.72,-1.10,-0.62,-0.13,0.44,-0.6815,-0.0421,0.0035,-0.7307,$GPGGA,205637.000,4041.1866,N,07423.0333,W,1,07,1.23,137.1,M,-34.2,M,,*59
257,0,-0.82,0.08,-0.13,0.31,0.75,0.50,-0.6815,-0.0417,0.0039,-0.7307,$GPGGA,205637.100,4041.1874,N,07423.0321,W,1,07,1.13,137.1,M,-34.2,M,,*5B
258,0,-0.09,-0.80,0.23,0.88,-0.37,0.44,-0.6815,-0.0414,0.0045,-0.7307,$GPGGA,205637.200,4041.1883,N,07423.0310,W,1,07,1.13,137.0,M,-34.2,M,,*53
259,0,-0.17,-0.30,-0.41,2.25,0.50,0.13,-0.6815,-0.0420,0.0033,-0.7307,$GPGGA,205637.300,4041.1891,N,07423.0299,W,1,07,1.13,137.0,M,-34.2,M,,*51
260,0,0.01,-1.01,0.10,2.62,0.31,0.31,-0.6813,-0.0434,0.0015,-0.7307,$GPGGA,205637.400,4041.1899,N,07423.0288,W,1,07,1.13,137.0,M,-34.2,M,,*5E
261,0,-0.74,0.90,-0.71,3.75,1.56,0.44,-0.6812,-0.0446,-0.0013,-0.7307,$GPGGA,205637.500,4041.1907,N,07423.0276,W,1,07,1.13,137.0,M,-34.2,M,,*58
262,0,-0.61,0.59,-1.19,1.12,3.56,0.25,-0.6812,-0.0442,-0.0038,-0.7308,$GPGGA,205637.600,4041.1916,N,07423.0265,W,1,07,1.13,137.0,M,-34.2,M,,*59
263,0,-0.84,0.46,-0.94,0.13,4.50,-0.13,-0.6812,-0.0425,-0.0055,-0.7309,$GPGGA,205637.700,4041.1924,N,07423.0255,W,1,07,1.13,136.9,M,-34.2,M,,*52
264,0,-0.66,-0.10,0.01,-2.06,-0.31,-0.06,-0.6812,-0.0413,-0.0052,-0.7309,$GPGGA,205637.800,4041.1933,N,07423.0244,W,1,07,1.23,136.9,M,-34.2,M,,*58
265,0,-0.04,-0.59,1.25,-0.50,0.56,0.44,-0.6813,-0.0413,-0.0034,-0.7309,$GPGGA,205637.900,4041.1941,N,07423.0232,W,1,07,1.23,136.9,M,-34.2,M,,*5D
266,0,-0.30,0.57,0.26,-0.69,-0.81,0.81,-0.6811,-0.0413,-0.0029,-0.7310,$GPGGA,205638.000,4041.1950,N,07423.0221,W,1,07,1.23,136.9,M,-34.2,M,,*59
267,0,-0.45,0.43,-0.20,-1.25,0.00,0.69,-0.6807,-0.0407,-0.0026,-0.7314,$GPGGA,205638.100,4041.1958,N,07423.0210,W,1,07,1.23,136.8,M,-34.2,M,,*53
268,0,-0.87,1.08,-0.74,0.00,1.25,0.62,-0.6805,-0.0395,-0.0034,-0.7316,$GPGGA,205638.200,4041.1967,N,07423.0199,W,1,07,1.23,136.8,M,-34.2,M,,*5E
269,0,-0.37,-0.18,-0.47,-0.94,2.50,0.44,-0.6806,-0.0381,-0.0038,-0.7317,$GPGGA,205638.300,4041.1976,N,07423.0188,W,1,07,1.13,136.8,M,-34.2,M,,*5C
270,0,-0.61,-0.40,-0.58,-0.75,1.25,0.69,-0.6804,-0.0367,-0.0038,-0.7319,$GPGGA,205638.400,4041.1984,N,07423.0177,W,1,07,1.13,136.8,M,-34.2,M,,*56
271,0,-0.43,0.64,0.35,-3.87,-1.56,0.50,-0.6805,-0.0352,-0.0025,-0.7319,$GPGGA,205638.500,4041.1993,N,07423.0166,W,1,07,1.13,136.8,M,-34.2,M,,*51
272,0,-0.44,0.35,-0.07,-4.06,-0.94,0.37,-0.6805,-0.0323,-0.0018,-0.7320,$GPGGA,205638.600,4041.2002,N,07423.0155,W,1,07,1.13,136.7,M,-34.2,M,,*5F
273,0,-0.46,0.72,-0.60,-0.62,2.19,0.37,-0.6806,-0.0304,-0.0005,-0.7320,$GPGGA,205638.700,4041.2010,N,07423.0144,W,1,07,1.23,136.7,M,-34.2,M,,*5E
274,0,-0.52,-0.42,-0.95,-1.06,2.06,0.62,-0.6806,-0.0290,-0.0008,-0.7321,$GPGGA,205638.800,4041.2019,N,07423.0133,W,1,07,1.23,136.7,M,-34.2,M,,*58
275,0,-0.29,-0.79,-0.63,0.25,2.37,0.62,-0.6801,-0.0279,-0.0027,-0.7326,$GPGGA,205638.900,4041.2028,N,07423.0123,W,1,07,1.23,136.6,M,-34.2,M,,*5B
276,0,-0.14,0.17,-1.05,0.00,2.50,0.56,-0.6797,-0.0266,-0.0043,-0.7329,$GPGGA,205639.000,4041.2038,N,07423.0112,W,1,07,1.23,136.6,M,-34.2,M,,*50
277,0,-0.01,-0.04,0.18,-0.06,0.00,0.19,-0.6797,-0.0257,-0.0051,-0.7330,$GPGGA,205639.100,4041.2047,N,07423.0102,W,1,07,1.23,136.6,M,-34.2,M,,*58
278,0,-0.55,-0.42,0.13,1.75,-0.81,0.44,-0.6797,-0.0265,-0.0055,-0.7330,$GPGGA,205639.200,4041.2057,N,07423.0093,W,1,07,1.23,136.5,M,-34.2,M,,*50
279,0,-0.38,0.15,0.91,3.87,-0.75,0.75,-0.6796,-0.0291,-0.0063,-0.7330,$GPGGA,205639.300,4041.2066,N,07423.0082,W,1,07,1.13,136.5,M,-34.2,M,,*50
280,0,-0.09,-1.13,0.52,0.44,-0.88,0.44,-0.6793,-0.0309,-0.0070,-0.7332,$GPGGA,205639.400,4041.2076,N,07423.0071,W,1,07,1.23,136.4,M,-34.2,M,,*58
281,0,0.17,0.61,0.19,-0.06,-1.44,0.25,-0.6791,-0.0317,-0.0071,-0.7333,$GPGGA,205639.500,4041.2085,N,07423.0061,W,1,07,1.13,136.4,M,-34.2,M,,*57
282,0,-0.17,0.26,-0.93,-1.44,-0.56,0.25,-0.6791,-0.0308,-0.0064,-0.7333,$GPGGA,205639.600,4041.2094,N,07423.0050,W,1,07,1.23,136.4,M,-34.2,M,,*55
283,0,-0.56,0.13,-0.85,-1.31,4.00,0.13,-0.6792,-0.0286,-0.0062,-0.7334,$GPGGA,205639.700,4041.2103,N,07423.0040,W,1,07,1.23,136.3,M,-34.2,M,,*5D
284,0,-0.53,0.46,-0.79,-1.31,1.87,0.50,-0.6792,-0.0268,-0.0062,-0.7335,$GPGGA,205639.800,4041.2113,N,07423.0029,W,1,07,1.23,136.3,M,-34.2,M,,*5C
285,0,0.14,-0.67,-0.32,-2.06,-0.81,0.31,-0.6792,-0.0253,-0.0065,-0.7335,$GPGGA,205639.900,4041.2122,N,07423.0019,W,1,07,1.23,136.2,M,-34.2,M,,*5D
286,0,-0.11,0.45,-0.74,0.13,0.13,0.50,-0.6792,-0.0247,-0.0073,-0.7335,$GPGGA,205640.000,4041.2132,N,07423.0009,W,1,07,1.23,136.2,M,-34.2,M,,*5A
287,0,-0.19,0.46,-0.79,-0.06,2.19,0.37,-0.6791,-0.0238,-0.0081,-0.7336,$GPGGA,205640.100,4041.2141,N,07422.9998,W,1,07,1.23,136.1,M,-34.2,M,,*55
288,0,-0.13,0.08,-0.64,-2.50,2.06,0.19,-0.6792,-0.0218,-0.0077,-0.7336,$GPGGA,205640.200,4041.2150,N,07422.9988,W,1,07,1.23,136.1,M,-34.2,M,,*57
289,0,-0.49,-0.03,-0.42,-3.69,1.75,-0.25,-0.6793,-0.0190,-0.0059,-0.7336,$GPGGA,205640.300,4041.2159,N,07422.9978,W,1,07,1.13,136.0,M,-34.2,M,,*52
290,0,0.01,0.09,0.28,-4.62,0.37,-0.37,-0.6793,-0.0167,-0.0038,-0.7336,$GPGGA,205640.400,4041.2168,N,07422.9967,W,1,07,1.13,136.0,M,-34.2,M,,*59
291,0,-0.44,0.05,-1.36,-3.19,2.37,-0.25,-0.6794,-0.0139,-0.0025,-0.7337,$GPGGA,205640.500,4041.2178,N,07422.9957,W,1,07,1.13,135.9,M,-34.2,M,,*50
292,0,0.00,0.31,-0.79,-1.06,1.00,-0.06,-0.6794,-0.0114,-0.0022,-0.7337,$GPGGA,205640.600,4041.2186,N,07422.9946,W,1,07,1.23,135.9,M,-34.2,M,,*51
293,0,-0.70,-0.40,-0.94,0.37,1.31,-0.06,-0.6794,-0.0109,-0.0025,-0.7337,$GPGGA,205640.700,4041.2195,N,07422.9936,W,1,07,1.23,135.8,M,-34.2,M,,*54
294,0,0.01,-0.57,1.03,4.25,-1.44,0.37,-0.6793,-0.0134,-0.0037,-0.7337,$GPGGA,205640.800,4041.2204,N,07422.9925,W,1,07,1.23,135.8,M,-34.2,M,,*52
295,0,0.32,-0.32,1.02,2.31,-1.75,0.37,-0.6793,-0.0167,-0.0045,-0.7336,$GPGGA,205640.900,4041.2213,N,07422.9914,W,1,07,1.23,135.7,M,-34.2,M,,*58
296,0,0.52,-0.08,-0.18,0.50,-0.37,-0.19,-0.6793,-0.0175,-0.0054,-0.7336,$GPGGA,205641.000,4041.2222,N,07422.9904,W,1,07,1.23,135.7,M,-34.2,M,,*53
297,0,0.35,0.57,-0.32,-0.44,0.62,-0.13,-0.6793,-0.0165,-0.0057,-0.7336,$GPGGA,205641.100,4041.2231,N,07422.9893,W,1,07,1.23,135.6,M,-34.2,M,,*5E
298,0,-0.01,0.00,-0.68,-3.31,1.37,-0.69,-0.6794,-0.0145,-0.0051,-0.7335,$GPGGA,205641.200,4041.2240,N,07422.9883,W,1,07,1.23,135.5,M,-34.2,M,,*59
299,0,0.04,-0.52,0.41,-1.75,1.00,-0.37,-0.6796,-0.0126,-0.0037,-0.7335,$GPGGA,205641.300,4041.2248,N,07422.9872,W,1,07,1.13,135.5,M,-34.2,M,,*5D
300,0,0.00,-0.74,0.94,-0.69,-1.81,-0.13,-0.6796,-0.0131,-0.0018,-0.7334,$GPGGA,205641.400,4041.2257,N,07422.9862,W,1,07,1.13,135.4,M,-34.2,M,,*54
301,0,0.30,0.06,1.33,2.12,-3.19,0.31,-0.6796,-0.0158,-0.0008,-0.7334,$GPGGA,205641.500,4041.2266,N,07422.9851,W,1,07,1.23,135.4,M,-34.2,M,,*54
302,0,-0.02,-0.45,0.50,0.31,0.50,0.00,-0.6796,-0.0168,-0.0020,-0.7334,$GPGGA,205641.600,4041.2275,N,07422.9840,W,1,07,1.23,135.3,M,-34.2,M,,*52
303,0,-0.04,0.40,-1.50,1.56,1.62,-0.06,-0.6796,-0.0157,-0.0037,-0.7334,$GPGGA,205641.700,4041.2284,N,07422.9830,W,1,07,1.23,135.2,M,-34.2,M,,*5B
304,0,-0.45,0.33,-1.14,0.75,0.37,-0.62,-0.6796,-0.0157,-0.0042,-0.7334,$GPGGA,205641.800,4041.2293,N,07422.9819,W,1,07,1.23,135.2,M,-34.2,M,,*59
305,0,-0.18,-0.16,-0.50,-0.37,1.56,-0.75,-0.6799,-0.0155,-0.0044,-0.7332,$GPGGA,205641.900,4041.2302,N,07422.9809,W,1,07,1.23,135.1,M,-34.2,M,,*53
306,0,-0.60,0.01,-0.59,1.25,0.75,-0.69,-0.6804,-0.0150,-0.0055,-0.7327,$GPGGA,205642.000,4041.2311,N,07422.9799,W,1,07,1.23,135.0,M,-34.2,M,,*5C
307,0,0.37,-0.99,0.25,0.00,0.56,-0.88,-0.6808,-0.0148,-0.0066,-0.7323,$GPGGA,205642.100,4041.2320,N,07422.9789,W,1,07,1.23,135.0,M,-34.2,M,,*5E
308,0,0.34,-0.58,-0.07,-0.62,-1.25,-0.81,-0.6813,-0.0147,-0.0073,-0.7318,$GPGGA,205642.200,4041.2329,N,07422.9779,W,1,07,1.23,134.9,M,-34.2,M,,*53
309,0,0.32,-0.17,-0.46,-2.69,-2.50,-0.94,-0.6818,-0.0144,-0.0064,-0.7313,$GPGGA,205642.300,4041.2338,N,07422.9768,W,1,07,1.13,134.8,M,-34.2,M,,*50
310,0,0.02,0.29,0.58,-1.37,1.19,-1.19,-0.6825,-0.0134,-0.0051,-0.7308,$GPGGA,205642.400,4041.2347,N,07422.9758,W,1,07,1.23,134.7,M,-34.2,M,,*50
311,0,-0.11,-0.14,-1.04,-0.94,-0.37,-1.00,-0.6832,-0.0118,-0.0044,-0.7302,$GPGGA,205642.500,4041.2356,N,07422.9747,W,1,07,1.23,134.7,M,-34.2,M,,*5F
312,0,-0.10,-0.05,-0.39,0.00,-0.44,-0.75,-0.6837,-0.0113,-0.0043,-0.7297,$GPGGA,205642.600,4041.2365,N,07422.9737,W,1,07,1.23,134.6,M,-34.2,M,,*5A
313,0,-0.25,-0.21,-0.60,2.87,1.25,-0.37,-0.6837,-0.0120,-0.0057,-0.7296,$GPGGA,205642.700,4041.2374,N,07422.9726,W,1,07,1.23,134.6,M,-34.2,M,,*5B
314,0,-0.37,-0.34,-0.18,3.69,0.00,0.31,-0.6837,-0.0135,-0.0078,-0.7296,$GPGGA,205642.800,4041.2383,N,07422.9715,W,1,07,1.23,134.5,M,-34.2,M,,*5F
315,0,0.05,-0.28,0.34,2.12,0.19,0.00,-0.6837,-0.0159,-0.0093,-0.7296,$GPGGA,205642.900,4041.2392,N,07422.9704,W,1,07,1.23,134.5,M,-34.2,M,,*5E
316,0,0.37,0.22,-0.14,0.13,0.94,-0.31,-0.6837,-0.0165,-0.0107,-0.7296,$GPGGA,205643.000,4041.2401,N,07422.9693,W,1,07,1.23,134.4,M,-34.2,M,,*55
317,0,0.08,-0.27,0.22,-0.62,-0.37,-0.56,-0.6837,-0.0157,-0.0117,-0.7296,$GPGGA,205643.100,4041.2410,N,07422.9682,W,1,07,1.23,134.3,M,-34.2,M,,*53
318,0,0.18,0.38,0.13,-0.13,-1.50,-0.56,-0.6840,-0.0162,-0.0107,-0.7292,$GPGGA,205643.200,4041.2418,N,07422.9671,W,1,07,1.23,134.2,M,-34.2,M,,*55
319,0,0.35,0.53,-0.88,-4.37,3.81,-0.56,-0.6844,-0.0139,-0.0093,-0.7289,$GPGGA,205643.300,4041.2427,N,07422.9660,W,1,07,1.13,134.2,M,-34.2,M,,*5B
320,0,-0.44,-0.37,-0.41,-2.44,2.19,-0.94,-0.6846,-0.0112,-0.0090,-0.7288,$GPGGA,205643.400,4041.2436,N,07422.9649,W,1,07,1.13,134.1,M,-34.2,M,,*54
321,0,-0.73,-0.70,-0.58,0.37,-2.12,-0.25,-0.6849,-0.0112,-0.0068,-0.7285,$GPGGA,205643.500,4041.2445,N,07422.9638,W,1,07,1.13,134.0,M,-34.2,M,,*56
322,0,-0.27,-1.02,0.11,0.31,-0.13,0.00,-0.6849,-0.0122,-0.0060,-0.7285,$GPGGA,205643.600,4041.2454,N,07422.9626,W,1,07,1.13,134.0,M,-34.2,M,,*5A
323,0,-0.04,0.33,0.04,-0.50,-1.06,-0.44,-0.6849,-0.0130,-0.0051,-0.7285,$GPGGA,205643.700,4041.2463,N,07422.9615,W,1,07,1.23,133.9,M,-34.2,M,,*52
324,0,0.07,0.02,0.56,-2.50,1.37,-0.50,-0.6849,-0.0119,-0.0042,-0.7285,$GPGGA,205643.800,4041.2472,N,07422.9604,W,1,07,1.23,133.8,M,-34.2,M,,*5C
325,0,0.00,-0.61,-0.30,-2.44,0.50,-0.69,-0.6852,-0.0103,-0.0037,-0.7283,$GPGGA,205643.900,4041.2481,N,07422.9592,W,1,07,1.23,133.8,M,-34.2,M,,*5D
326,0,0.28,-0.06,0.00,-0.31,-0.31,-0.31,-0.6852,-0.0096,-0.0034,-0.7283,$GPGGA,205644.000,4041.2490,N,07422.9581,W,1,07,1.23,133.7,M,-34.2,M,,*5E
327,0,0.24,-0.14,-0.03,-0.56,-1.75,-0.13,-0.6852,-0.0093,-0.0034,-0.7283,$GPGGA,205644.100,4041.2499,N,07422.9570,W,1,07,1.23,133.6,M,-34.2,M,,*59
328,0,-0.34,-0.16,-0.02,1.87,0.81,-0.25,-0.6852,-0.0096,-0.0042,-0.7283,$GPGGA,205644.200,4041.2508,N,07422.9558,W,1,07,1.23,133.5,M,-34.2,M,,*5A
329,0,-0.42,0.43,0.25,2.56,-2.50,0.06,-0.6852,-0.0104,-0.0046,-0.7283,$GPGGA,205644.300,4041.2517,N,07422.9547,W,1,07,1.13,133.5,M,-34.2,M,,*58
330,0,-0.51,0.31,0.07,1.25,-1.37,-0.06,-0.6852,-0.0123,-0.0042,-0.7283,$GPGGA,205644.400,4041.2526,N,07422.9536,W,1,07,1.13,133.4,M,-34.2,M,,*5A
331,0,-0.11,0.24,0.84,1.19,-0.13,0.00,-0.6852,-0.0141,-0.0037,-0.7282,$GPGGA,205644.500,4041.2535,N,07422.9524,W,1,07,1.23,133.3,M,-34.2,M,,*5E
332,0,-0.16,0.17,0.31,-0.19,-0.31,-0.19,-0.6852,-0.0142,-0.0037,-0.7282,$GPGGA,205644.600,4041.2544,N,07422.9513,W,1,07,1.23,133.3,M,-34.2,M,,*5F
333,0,-0.05,-0.75,0.25,-0.50,1.19,-0.37,-0.6852,-0.0139,-0.0042,-0.7282,$GPGGA,205644.700,4041.2552,N,07422.9501,W,1,07,1.23,133.2,M,-34.2,M,,*5B
334,0,-0.05,-0.64,-0.56,0.13,0.06,-0.25,-0.6852,-0.0138,-0.0043,-0.7282,$GPGGA,205644.800,4041.2561,N,07422.9490,W,1,07,1.23,133.1,M,-34.2,M,,*5E
335,0,-0.31,-0.19,0.37,1.37,-0.62,0.06,-0.6852,-0.0146,-0.0048,-0.7282,$GPGGA,205644.900,4041.2570,N,07422.9478,W,1,07,1.23,133.1,M,-34.2,M,,*59
336,0,-0.23,0.24,0.35,-0.56,-1.06,-0.25,-0.6852,-0.0157,-0.0048,-0.7282,$GPGGA,205645.000,4041.2579,N,07422.9466,W,1,07,1.23,133.0,M,-34.2,M,,*56
337,0,0.14,0.05,0.47,2.00,-1.56,-0.13,-0.6851,-0.0168,-0.0054,-0.7282,$GPGGA,205645.100,4041.2588,N,07422.9455,W,1,07,1.23,132.9,M,-34.2,M,,*51
338,0,-0.05,-0.28,0.55,1.81,-1.50,0.00,-0.6851,-0.0182,-0.0063,-0.7282,$GPGGA,205645.200,4041.2597,N,07422.9443,W,1,07,1.23,132.9,M,-34.2,M,,*5B
339,0,-0.05,0.11,0.83,1.44,-1.94,0.31,-0.6851,-0.0201,-0.0060,-0.7281,$GPGGA,205645.300,4041.2605,N,07422.9432,W,1,07,1.13,132.8,M,-34.2,M,,*56
340,0,-0.42,0.47,0.03,-0.62,-0.75,0.06,-0.6851,-0.0209,-0.0050,-0.7281,$GPGGA,205645.400,4041.2614,N,07422.9421,W,1,07,1.13,132.8,M,-34.2,M,,*53
341,0,-0.32,0.64,-0.18,-0.56,-1.12,-0.25,-0.6851,-0.0212,-0.0044,-0.7281,$GPGGA,205645.500,4041.2622,N,07422.9409,W,1,07,1.13,132.7,M,-34.2,M,,*52
342,0,-0.42,0.87,-0.20,-1.31,-1.25,0.00,-0.6852,-0.0212,-0.0024,-0.7281,$GPGGA,205645.600,4041.2631,N,07422.9397,W,1,07,1.23,132.7,M,-34.2,M,,*50
343,0,-0.78,0.47,-0.43,-1.06,1.87,0.00,-0.6852,-0.0202,-0.0004,-0.7281,$GPGGA,205645.700,4041.2639,N,07422.9385,W,1,07,1.23,132.6,M,-34.2,M,,*5B
344,0,-0.85,-0.37,-0.67,0.13,2.37,0.06,-0.6852,-0.0195,-0.0002,-0.7281,$GPGGA,205645.800,4041.2648,N,07422.9374,W,1,07,1.23,132.6,M,-34.2,M,,*5C
345,0,-0.38,-0.21,1.16,-1.06,-1.12,0.44,-0.6852,-0.0203,0.0001,-0.7281,$GPGGA,205645.900,4041.2656,N,07422.9362,W,1,07,1.23,132.6,M,-34.2,M,,*55
346,0,-0.24,0.11,0.12,0.81,-0.88,0.37,-0.6851,-0.0212,0.0002,-0.7281,$GPGGA,205646.000,4041.2665,N,07422.9351,W,1,07,1.23,132.5,M,-34.2,M,,*5C
347,0,-0.16,-0.16,0.81,-0.44,-1.12,0.44,-0.6851,-0.0210,0.0006,-0.7281,$GPGGA,205646.100,4041.2674,N,07422.9339,W,1,07,1.23,132.5,M,-34.2,M,,*53
348,0,-0.52,-0.27,-0.05,-0.62,-1.19,0.19,-0.6851,-0.0208,0.0009,-0.7281,$GPGGA,205646.200,4041.2682,N,07422.9328,W,1,07,1.23,132.4,M,-34.2,M,,*58
349,0,0.00,0.21,1.24,0.69,-1.69,0.25,-0.6851,-0.0214,0.0012,-0.7281,$GPGGA,205646.300,4041.2691,N,07422.9316,W,1,07,1.13,132.4,M,-34.2,M,,*55
350,0,-0.34,0.22,-0.48,0.25,0.00,0.25,-0.6851,-0.0217,0.0006,-0.7281,$GPGGA,205646.400,4041.2699,N,07422.9304,W,1,07,1.23,132.3,M,-34.2,M,,*5D
351,0,-0.46,0.53,0.70,0.25,-1.12,-0.19,-0.6851,-0.0217,0.0010,-0.7281,$GPGGA,205646.500,4041.2708,N,07422.9293,W,1,07,1.23,132.3,M,-34.2,M,,*5A
352,0,-0.28,-0.58,-0.14,-1.44,-1.06,-0.88,-0.6853,-0.0222,0.0030,-0.7279,$GPGGA,205646.600,4041.2717,N,07422.9281,W,1,07,1.23,132.2,M,-34.2,M,,*55
353,0,-0.19,-1.43,-0.24,-0.81,-0.62,-0.88,-0.6858,-0.0225,0.0038,-0.7274,$GPGGA,205646.700,4041.2725,N,07422.9270,W,1,07,1.23,132.2,M,-34.2,M,,*5B
354,0,-0.86,-2.04,-0.71,-1.81,0.81,-0.25,-0.6858,-0.0235,0.0039,-0.7274,$GPGGA,205646.800,4041.2734,N,07422.9258,W,1,07,1.23,132.1,M,-34.2,M,,*5D
355,0,-0.12,-0.35,0.97,0.88,-0.25,0.06,-0.6858,-0.0248,0.0040,-0.7274,$GPGGA,205646.900,4041.2743,N,07422.9247,W,1,07,1.23,132.1,M,-34.2,M,,*52
356,0,0.00,0.77,0.53,0.69,-0.50,-0.44,-0.6858,-0.0255,0.0033,-0.7274,$GPGGA,205647.000,4041.2751,N,07422.9235,W,1,07,1.23,132.1,M,-34.2,M,,*5C
357,0,-0.28,-0.03,0.50,0.50,-0.31,-0.50,-0.6858,-0.0253,0.0030,-0.7274,$GPGGA,205647.100,4041.2760,N,07422.9223,W,1,07,1.23,132.0,M,-34.2,M,,*59
358,0,0.02,0.00,0.26,-0.69,-3.81,-0.37,-0.6858,-0.0259,0.0034,-0.7273,$GPGGA,205647.200,4041.2769,N,07422.9212,W,1,07,1.23,132.0,M,-34.2,M,,*51
359,0,-0.33,0.11,0.17,0.44,-1.62,-0.06,-0.6858,-0.0268,0.0046,-0.7273,$GPGGA,205647.300,4041.2777,N,07422.9200,W,1,07,1.13,132.0,M,-34.2,M,,*5F
360,0,-0.77,0.05,0.00,0.31,0.81,0.06,-0.6859,-0.0261,0.0043,-0.7273,$GPGGA,205647.400,4041.2786,N,07422.9189,W,1,07,1.13,131.9,M,-34.2,M,,*5E
361,0,-0.38,-0.71,-0.25,0.56,1.87,0.00,-0.6859,-0.0259,0.0037,-0.7273,$GPGGA,205647.500,4041.2795,N,07422.9177,W,1,07,1.23,131.9,M,-34.2,M,,*5F
362,0,-0.39,-0.53,-0.36,0.75,0.44,-0.19,-0.6858,-0.0263,0.0029,-0.7273,$GPGGA,205647.600,4041.2803,N,07422.9166,W,1,07,1.23,131.9,M,-34.2,M,,*5C
363,0,-0.43,-0.19,0.86,2.19,-1.31,0.13,-0.6857,-0.0284,0.0023,-0.7273,$GPGGA,205647.700,4041.2812,N,07422.9154,W,1,07,1.23,131.8,M,-34.2,M,,*5D
364,0,-0.60,0.21,0.53,1.56,-0.56,0.06,-0.6857,-0.0301,0.0012,-0.7272,$GPGGA,205647.800,4041.2821,N,07422.9143,W,1,07,1.23,131.8,M,-34.2,M,,*54
365,0,-0.30,0.27,-0.19,-0.37,-2.12,-0.19,-0.6857,-0.0308,0.0017,-0.7272,$GPGGA,205647.900,4041.2829,N,07422.9132,W,1,07,1.23,131.8,M,-34.2,M,,*5B
366,0,-0.66,0.40,-0.33,-1.19,-0.25,-0.44,-0.6857,-0.0310,0.0030,-0.7272,$GPGGA,205648.000,4041.2838,N,07422.9120,W,1,07,1.23,131.8,M,-34.2,M,,*5E
367,0,-0.27,0.06,-0.41,0.75,1.19,-0.13,-0.6859,-0.0306,0.0032,-0.7271,$GPGGA,205648.100,4041.2846,N,07422.9109,W,1,07,1.23,131.8,M,-34.2,M,,*5D
368,0,-0.52,0.08,-0.28,1.00,0.75,-0.13,-0.6859,-0.0306,0.0032,-0.7271,$GPGGA,205648.200,4041.2855,N,07422.9097,W,1,07,1.23,131.7,M,-34.2,M,,*55
369,0,-0.22,-0.47,1.05,-0.69,-1.87,-0.31,-0.6859,-0.0310,0.0038,-0.7271,$GPGGA,205648.300,4041.2863,N,07422.9086,W,1,07,1.13,131.7,M,-34.2,M,,*52
370,0,0.30,-0.37,0.94,-0.50,-2.94,-0.25,-0.6859,-0.0319,0.0047,-0.7271,$GPGGA,205648.400,4041.2872,N,07422.9074,W,1,07,1.13,131.7,M,-34.2,M,,*58
371,0,-0.27,-0.07,1.02,-0.75,-2.12,-0.13,-0.6859,-0.0323,0.0054,-0.7270,$GPGGA,205648.500,4041.2880,N,07422.9063,W,1,07,1.13,131.7,M,-34.2,M,,*52
372,0,-0.26,0.28,0.76,0.50,-0.81,-0.13,-0.6859,-0.0329,0.0058,-0.7270,$GPGGA,205648.600,4041.2889,N,07422.9051,W,1,07,1.13,131.7,M,-34.2,M,,*59
373,0,-0.46,0.20,0.09,0.56,0.88,0.06,-0.6859,-0.0331,0.0062,-0.7270,$GPGGA,205648.700,4041.2897,N,07422.9040,W,1,07,1.23,131.6,M,-34.2,M,,*55
374,0,-0.92,-0.22,-0.31,0.06,-0.19,-0.13,-0.6859,-0.0327,0.0062,-0.7270,$GPGGA,205648.800,4041.2905,N,07422.9028,W,1,07,1.23,131.6,M,-34.2,M,,*5E
375,0,-0.61,-0.09,0.20,-0.81,0.81,-0.25,-0.6859,-0.0325,0.0063,-0.7270,$GPGGA,205648.900,4041.2914,N,07422.9017,W,1,07,1.23,131.6,M,-34.2,M,,*53
376,0,-0.13,-0.16,0.50,-1.81,-0.88,-0.25,-0.6859,-0.0320,0.0069,-0.7270,$GPGGA,205649.000,4041.2922,N,07422.9005,W,1,07,1.23,131.6,M,-34.2,M,,*5D
377,0,-0.35,0.10,0.11,-2.19,-0.25,-0.62,-0.6860,-0.0308,0.0080,-0.7269,$GPGGA,205649.100,4041.2930,N,07422.8994,W,1,07,1.23,131.6,M,-34.2,M,,*5F
378,0,-0.64,0.51,-0.29,0.56,-0.06,-1.06,-0.6865,-0.0299,0.0087,-0.7264,$GPGGA,205649.200,4041.2939,N,07422.8983,W,1,07,1.23,131.6,M,-34.2,M,,*53
379,0,-0.90,-0.61,0.20,3.06,-0.31,-0.56,-0.6870,-0.0315,0.0085,-0.7260,$GPGGA,205649.300,4041.2947,N,07422.8971,W,2,07,1.13,131.6,M,-34.2,M,0000,0000*56
380,0,-0.61,-0.91,0.83,0.56,0.37,-0.56,-0.6870,-0.0329,0.0075,-0.7258,$GPGGA,205649.400,4041.2956,N,07422.8960,W,2,07,1.13,131.6,M,-34.2,M,0000,0000*51
381,0,-0.15,-0.33,0.64,0.75,-0.19,-0.37,-0.6870,-0.0337,0.0070,-0.7258,$GPGGA,205649.500,4041.2964,N,07422.8949,W,2,07,1.13,131.6,M,-34.2,M,0000,0000*5A
382,0,-0.30,0.24,0.01,-0.69,0.25,-0.94,-0.6876,-0.0337,0.0076,-0.7253,$GPGGA,205649.600,4041.2972,N,07422.8937,W,2,07,1.23,131.6,M,-34.2,M,0000,0000*54
383,0,-0.28,-0.01,-0.43,-0.25,0.56,-0.88,-0.6881,-0.0336,0.0073,-0.7248,$GPGGA,205649.700,4041.2981,N,07422.8926,W,2,07,1.23,131.6,M,-34.2,M,0000,0000*59
384,0,-0.81,0.05,-0.12,1.50,0.31,-0.37,-0.6882,-0.0344,0.0068,-0.7246,$GPGGA,205649.800,4041.2989,N,07422.8915,W,2,07,1.23,131.6,M,-34.2,M,0000,0000*5E
385,0,-0.37,-0.44,0.80,2.00,-1.69,-0.31,-0.6882,-0.0356,0.0068,-0.7246,$GPGGA,205649.900,4041.2997,N,07422.8903,W,2,07,1.23,131.6,M,-34.2,M,0000,0000*57
386,0,-0.41,-0.24,0.70,0.13,-1.94,-0.06,-0.6882,-0.0372,0.0069,-0.7245,$GPGGA,205650.000,4041.3006,N,07422.8892,W,2,07,1.23,131.6,M,-34.2,M,0000,0000*5F
387,0,-0.33,0.34,0.27,1.19,-1.31,0.00,-0.6882,-0.0374,0.0060,-0.7245,$GPGGA,205650.100,4041.3014,N,07422.8880,W,2,07,1.23,131.6,M,-34.2,M,0000,0000*5E
388,0,-0.36,0.46,-0.81,0.44,0.19,-0.06,-0.6882,-0.0377,0.0066,-0.7245,$GPGGA,205650.200,4041.3022,N,07422.8869,W,2,07,1.23,131.6,M,-34.2,M,0000,0000*5F
389,0,-0.32,-0.02,-0.31,-2.19,1.44,-0.31,-0.6882,-0.0361,0.0072,-0.7245,$GPGGA,205650.300,4041.3030,N,07422.8858,W,2,07,1.13,131.6,M,-34.2,M,0000,0000*5C
390,0,-0.15,-0.37,0.76,-2.06,-2.56,-0.44,-0.6884,-0.0352,0.0081,-0.7245,$GPGGA,205650.400,4041.3038,N,07422.8847,W,2,07,1.13,131.6,M,-34.2,M,0000,0000*5D
391,0,-0.13,0.10,-0.27,-1.37,-3.06,-0.25,-0.6884,-0.0353,0.0098,-0.7244,$GPGGA,205650.500,4041.3047,N,07422.8835,W,2,07,1.23,131.6,M,-34.2,M,0000,0000*52
392,0,-0.15,0.11,-0.52,-1.37,0.75,0.00,-0.6884,-0.0347,0.0106,-0.7244,$GPGGA,205650.600,4041.3055,N,07422.8824,W,2,07,1.23,131.6,M,-34.2,M,0000,0000*52
393,0,-0.37,-0.15,-0.32,-1.12,2.06,-0.19,-0.6885,-0.0333,0.0109,-0.7244,$GPGGA,205650.700,4041.3064,N,07422.8814,W,2,07,1.23,131.6,M,-34.2,M,0000,0000*52
394,0,-0.23,-0.16,-0.14,-0.88,0.19,-0.31,-0.6885,-0.0320,0.0106,-0.7245,$GPGGA,205650.800,4041.3072,N,07422.8803,W,2,07,1.23,131.6,M,-34.2,M,0000,0000*5C
395,0,-0.28,0.05,0.13,2.94,-0.13,-0.37,-0.6885,-0.0325,0.0095,-0.7245,$GPGGA,205650.900,4041.3081,N,07422.8792,W,2,07,1.23,131.6,M,-34.2,M,0000,0000*56
396,0,-0.59,0.41,-0.24,3.81,0.19,0.19,-0.6884,-0.0338,0.0076,-0.7245,$GPGGA,205651.000,4041.3089,N,07422.8781,W,2,07,1.23,131.6,M,-34.2,M,0000,0000*54
397,0,-0.70,0.00,0.65,1.50,0.75,-0.13,-0.6883,-0.0353,0.0062,-0.7245,$GPGGA,205651.100,4041.3098,N,07422.8770,W,2,07,1.23,131.6,M,-34.2,M,0000,0000*5B
398,0,-0.47,0.06,-0.29,-1.25,0.81,-0.37,-0.6883,-0.0353,0.0063,-0.7245,$GPGGA,205651.200,4041.3106,N,07422.8760,W,2,07,1.23,131.7,M,-34.2,M,0000,0000*5E
399,0,-0.36,0.42,-0.17,-0.69,-0.06,-0.62,-0.6886,-0.0349,0.0068,-0.7243,$GPGGA,205651.300,4041.3115,N,07422.8748,W,2,07,1.13,131.7,M,-34.2,M,0000,0000*54
400,0,-0.57,-0.27,-1.05,0.50,0.37,-0.44,-0.6888,-0.0340,0.0065,-0.7241,$GPGGA,205651.400,4041.3123,N,07422.8737,W,2,07,1.13,131.7,M,-34.2,M,0000,0000*5E
401,0,-0.46,-0.41,-1.06,-0.19,1.62,-0.31,-0.6888,-0.0327,0.0058,-0.7242,$GPGGA,205651.500,4041.3131,N,07422.8726,W,2,07,1.13,131.7,M,-34.2,M,0000,0000*5C
402,0,-0.21,-0.19,-0.06,0.75,-1.37,-0.19,-0.6888,-0.0332,0.0049,-0.7242,$GPGGA,205651.600,4041.3140,N,07422.8715,W,2,07,1.13,131.7,M,-34.2,M,0000,0000*59
403,0,-0.74,-0.07,-0.68,1.06,-0.56,-0.25,-0.6888,-0.0341,0.0046,-0.7242,$GPGGA,205651.700,4041.3148,N,07422.8704,W,2,07,1.23,131.7,M,-34.2,M,0000,0000*53
404,0,-0.41,-0.64,0.49,-0.19,1.06,-0.69,-0.6888,-0.0345,0.0042,-0.7241,$GPGGA,205651.800,4041.3156,N,07422.8693,W,2,07,1.23,131.7,M,-34.2,M,0000,0000*5C
405,0,-0.14,0.31,-0.93,0.19,0.81,-0.62,-0.6891,-0.0339,0.0031,-0.7239,$GPGGA,205651.900,4041.3164,N,07422.8682,W,2,07,1.23,131.7,M,-34.2,M,0000,0000*5C
406,0,-0.50,-0.57,-0.62,1.94,1.69,-0.44,-0.6892,-0.0333,0.0017,-0.7238,$GPGGA,205652.000,4041.3172,N,07422.8671,W,2,07,1.23,131.8,M,-34.2,M,0000,0000*52
407,0,-0.32,-0.41,0.20,1.25,1.12,-0.50,-0.6891,-0.0334,0.0007,-0.7238,$GPGGA,205652.100,4041.3180,N,07422.8660,W,2,07,1.23,131.8,M,-34.2,M,0000,0000*5E
408,0,-0.07,-0.21,-0.08,1.06,1.00,-0.44,-0.6891,-0.0342,-0.0004,-0.7238,$GPGGA,205652.200,4041.3188,N,07422.8648,W,2,07,1.23,131.8,M,-34.2,M,0000,0000*5F
409,0,-0.73,0.20,-0.77,1.31,0.13,-0.31,-0.6891,-0.0350,-0.0014,-0.7238,$GPGGA,205652.300,4041.3196,N,07422.8637,W,2,07,1.13,131.8,M,-34.2,M,0000,0000*5A
410,0,-0.11,-0.39,0.65,-0.25,0.94,-0.37,-0.6891,-0.0352,-0.0021,-0.7238,$GPGGA,205652.400,4041.3204,N,07422.8626,W,2,07,1.13,131.8,M,-34.2,M,0000,0000*55
411,0,-0.34,0.20,-0.15,-0.75,0.31,-0.69,-0.6895,-0.0352,-0.0019,-0.7234,$GPGGA,205652.500,4041.3212,N,07422.8614,W,2,07,1.13,131.8,M,-34.2,M,0000,0000*52
