0,3,-0.01,-0.01,-0.01,-0.06,-0.06,-0.06,-0.0001,-0.0001,-0.0001,-0.0001,$GPGGA,140325.300,3851.7350,N,07703.1514,W,1,04,1.43,168.1,M,-33.5,M,,*54
1,3,0.02,-0.02,0.01,-2.44,-0.37,-0.19,0.9799,-0.0502,0.0099,-0.1929,$GPGGA,140325.400,3851.7349,N,07703.1508,W,1,04,1.43,165.6,M,-33.5,M,,*5C
2,3,0.01,0.02,-0.10,1.75,0.13,0.06,0.9797,-0.0541,0.0102,-0.1928,$GPGGA,140325.500,3851.7348,N,07703.1502,W,1,04,1.43,163.4,M,-33.5,M,,*52
3,3,0.01,-0.02,-0.11,-1.62,-0.06,-0.06,0.9797,-0.0547,0.0103,-0.1928,$GPGGA,140325.700,3851.7348,N,07703.1498,W,1,04,1.43,161.7,M,-33.5,M,,*53
4,3,0.00,0.02,-0.01,1.56,0.06,0.13,0.9798,-0.0519,0.0098,-0.1929,$GPGGA,140325.700,3851.7348,N,07703.1498,W,1,04,1.43,161.7,M,-33.5,M,,*53
5,3,0.01,-0.04,0.00,-2.19,0.06,-0.06,0.9797,-0.0534,0.0101,-0.1928,$GPGGA,140325.900,3851.7347,N,07703.1493,W,1,04,1.43,159.6,M,-33.5,M,,*53
6,3,0.01,-0.02,-0.05,5.06,-0.13,0.00,0.9797,-0.0546,0.0103,-0.1928,$GPGGA,140326.000,3851.7347,N,07703.1491,W,1,04,1.43,158.9,M,-33.5,M,,*55
7,3,0.00,-0.01,-0.04,-2.37,-0.13,-0.06,0.9799,-0.0513,0.0096,-0.1929,$GPGGA,140326.100,3851.7346,N,07703.1491,W,1,04,1.43,158.7,M,-33.5,M,,*5B
8,3,0.01,0.00,-0.06,-4.62,-0.37,-0.06,0.9797,-0.0532,0.0100,-0.1928,$GPGGA,140326.100,3851.7346,N,07703.1491,W,1,04,1.43,158.7,M,-33.5,M,,*5B
9,3,0.01,0.02,0.01,0.06,-0.19,-0.06,0.9798,-0.0522,0.0098,-0.1929,$GPGGA,140326.300,3851.7346,N,07703.1490,W,1,04,1.43,158.2,M,-33.5,M,,*5D
10,3,0.00,0.01,-0.02,2.19,0.19,-0.06,0.9797,-0.0539,0.0101,-0.1928,$GPGGA,140326.400,3851.7346,N,07703.1490,W,1,04,1.43,157.9,M,-33.5,M,,*5E
11,3,0.00,-0.02,-0.06,-1.87,0.13,0.00,0.9796,-0.0562,0.0106,-0.1928,$GPGGA,140326.400,3851.7346,N,07703.1490,W,1,04,1.43,157.9,M,-33.5,M,,*5E
12,3,0.01,0.00,-0.01,0.19,-0.06,-0.06,0.9796,-0.0551,0.0104,-0.1928,$GPGGA,140326.500,3851.7345,N,07703.1490,W,1,04,1.43,157.6,M,-33.5,M,,*53
13,3,0.01,0.00,0.00,4.00,-0.19,-0.13,0.9797,-0.0540,0.0101,-0.1928,$GPGGA,140326.700,3851.7345,N,07703.1490,W,1,04,1.43,157.1,M,-33.5,M,,*56
14,3,0.02,0.02,0.01,2.37,-0.06,-0.13,0.9798,-0.0518,0.0097,-0.1929,$GPGGA,140326.800,3851.7344,N,07703.1490,W,1,04,1.43,156.8,M,-33.5,M,,*50
15,3,0.00,0.05,0.02,3.44,-0.06,0.00,0.9798,-0.0521,0.0098,-0.1929,$GPGGA,140326.800,3851.7344,N,07703.1490,W,1,04,1.43,156.8,M,-33.5,M,,*50
16,3,0.01,0.04,0.02,2.00,0.19,0.06,0.9799,-0.0514,0.0096,-0.1929,$GPGGA,140326.900,3851.7344,N,07703.1490,W,1,04,1.43,156.6,M,-33.5,M,,*5F
17,3,0.01,0.08,0.01,1.25,-0.06,0.00,0.9799,-0.0513,0.0096,-0.1929,$GPGGA,140327.100,3851.7343,N,07703.1489,W,1,04,1.43,155.8,M,-33.5,M,,*54
18,3,0.01,0.00,-0.05,-1.31,0.06,-0.06,0.9796,-0.0552,0.0104,-0.1928,$GPGGA,140327.200,3851.7343,N,07703.1489,W,1,04,1.43,155.4,M,-33.5,M,,*5B
19,3,0.01,0.05,0.00,-5.00,0.00,0.00,0.9796,-0.0552,0.0104,-0.1928,$GPGGA,140327.300,3851.7343,N,07703.1488,W,1,04,1.43,155.0,M,-33.5,M,,*5F
20,3,0.00,0.06,-0.04,3.00,-0.06,-0.13,0.9795,-0.0575,0.0109,-0.1928,$GPGGA,140327.400,3851.7343,N,07703.1487,W,1,04,1.43,154.7,M,-33.5,M,,*51
21,3,0.01,0.04,-0.06,0.75,0.13,0.06,0.9795,-0.0579,0.0109,-0.1928,$GPGGA,140327.500,3851.7342,N,07703.1487,W,1,04,1.43,154.5,M,-33.5,M,,*53
22,3,0.01,0.00,-0.02,-1.94,0.25,-0.13,0.9794,-0.0587,0.0111,-0.1927,$GPGGA,140327.500,3851.7342,N,07703.1487,W,1,04,1.43,154.5,M,-33.5,M,,*53
23,3,0.01,-0.01,-0.05,1.12,-0.13,-0.13,0.9793,-0.0609,0.0115,-0.1927,$GPGGA,140327.700,3851.7341,N,07703.1486,W,1,04,1.43,153.8,M,-33.5,M,,*59
24,3,0.01,-0.01,0.00,1.69,0.19,-0.06,0.9794,-0.0595,0.0112,-0.1927,$GPGGA,140327.800,3851.7341,N,07703.1485,W,1,04,1.43,153.6,M,-33.5,M,,*5B
25,3,0.01,0.04,-0.02,2.87,-0.06,-0.06,0.9794,-0.0592,0.0112,-0.1927,$GPGGA,140327.900,3851.7341,N,07703.1485,W,1,04,1.43,153.3,M,-33.5,M,,*5F
26,3,0.01,0.01,-0.01,-0.50,-0.06,-0.13,0.9794,-0.0583,0.0110,-0.1927,$GPGGA,140327.900,3851.7341,N,07703.1485,W,1,04,1.43,153.3,M,-33.5,M,,*5F
27,3,0.01,0.05,0.01,-1.56,0.13,-0.06,0.9794,-0.0587,0.0111,-0.1927,$GPGGA,140328.000,3851.7340,N,07703.1485,W,1,04,1.43,153.1,M,-33.5,M,,*5A
28,3,0.01,0.03,0.00,1.19,-0.19,-0.13,0.9794,-0.0582,0.0110,-0.1927,$GPGGA,140328.200,3851.7340,N,07703.1483,W,1,04,1.43,152.3,M,-33.5,M,,*5D
29,3,0.01,0.04,0.07,2.50,0.00,0.00,0.9796,-0.0570,0.0107,-0.1928,$GPGGA,140328.200,3851.7340,N,07703.1483,W,1,04,1.43,152.3,M,-33.5,M,,*5D
30,3,0.01,0.03,0.05,2.37,-0.06,-0.06,0.9796,-0.0569,0.0107,-0.1928,$GPGGA,140328.400,3851.7339,N,07703.1482,W,1,04,1.43,151.6,M,-33.5,M,,*52
31,3,0.00,0.02,-0.04,1.31,-0.19,-0.13,0.9795,-0.0577,0.0109,-0.1928,$GPGGA,140328.500,3851.7338,N,07703.1481,W,1,04,1.43,151.2,M,-33.5,M,,*55
32,3,0.01,0.01,-0.06,-1.69,0.13,0.00,0.9794,-0.0581,0.0110,-0.1927,$GPGGA,140328.600,3851.7338,N,07703.1481,W,1,04,1.43,151.0,M,-33.5,M,,*54
33,3,0.01,0.04,-0.02,2.75,0.06,0.00,0.9796,-0.0550,0.0104,-0.1928,$GPGGA,140328.700,3851.7337,N,07703.1480,W,1,04,1.43,150.7,M,-33.5,M,,*5D
34,3,0.02,-0.01,0.00,-4.62,0.06,0.00,0.9796,-0.0551,0.0104,-0.1928,$GPGGA,140328.800,3851.7337,N,07703.1480,W,1,04,1.43,150.4,M,-33.5,M,,*51
35,3,0.02,0.00,0.00,3.37,-0.06,0.00,0.9796,-0.0565,0.0107,-0.1928,$GPGGA,140328.900,3851.7336,N,07703.1480,W,1,04,1.43,150.2,M,-33.5,M,,*57
36,3,0.01,0.03,0.00,1.19,-0.13,-0.06,0.9796,-0.0554,0.0104,-0.1928,$GPGGA,140329.000,3851.7335,N,07703.1479,W,1,04,1.43,149.9,M,-33.5,M,,*59
37,3,0.01,0.01,0.01,3.56,0.13,-0.06,0.9797,-0.0531,0.0100,-0.1928,$GPGGA,140329.100,3851.7335,N,07703.1479,W,1,04,1.43,149.7,M,-33.5,M,,*56
38,3,0.01,-0.01,0.00,-2.19,0.31,-0.06,0.9797,-0.0529,0.0101,-0.1929,$GPGGA,140329.200,3851.7334,N,07703.1479,W,1,04,1.43,149.4,M,-33.5,M,,*57
39,3,0.00,0.00,0.02,7.37,0.06,-0.13,0.9798,-0.0521,0.0099,-0.1929,$GPGGA,140329.300,3851.7334,N,07703.1479,W,1,04,1.43,149.1,M,-33.5,M,,*53
40,3,0.01,0.04,-0.01,8.44,-0.13,-0.06,0.9800,-0.0491,0.0093,-0.1929,$GPGGA,140329.400,3851.7334,N,07703.1479,W,1,04,1.43,148.9,M,-33.5,M,,*5D
41,3,0.02,0.01,-0.10,-1.69,0.06,-0.06,0.9800,-0.0489,0.0093,-0.1929,$GPGGA,140329.500,3851.7333,N,07703.1479,W,1,04,1.43,148.6,M,-33.5,M,,*54
42,3,0.02,0.03,0.04,5.00,0.06,0.00,0.9801,-0.0453,0.0086,-0.1929,$GPGGA,140329.600,3851.7333,N,07703.1479,W,1,04,1.43,148.4,M,-33.5,M,,*55
43,3,0.01,0.05,-0.08,-8.19,-0.62,-0.06,0.9800,-0.0491,0.0093,-0.1929,$GPGGA,140329.700,3851.7333,N,07703.1479,W,1,04,1.43,148.1,M,-33.5,M,,*51
44,3,0.00,0.07,0.09,-10.50,-0.25,-0.06,0.9798,-0.0522,0.0099,-0.1929,$GPGGA,140329.800,3851.7332,N,07703.1479,W,1,04,1.43,147.8,M,-33.5,M,,*59
45,3,0.01,0.01,-0.02,2.25,0.00,-0.06,0.9796,-0.0557,0.0106,-0.1928,$GPGGA,140329.900,3851.7332,N,07703.1479,W,1,04,1.43,147.5,M,-33.5,M,,*55
46,3,0.01,0.08,0.09,-3.94,-0.50,-0.13,0.9796,-0.0551,0.0104,-0.1928,$GPGGA,140330.000,3851.7331,N,07703.1479,W,1,04,1.43,147.2,M,-33.5,M,,*50
47,3,0.01,0.04,-0.06,2.06,-0.44,-0.06,0.9794,-0.0590,0.0111,-0.1927,$GPGGA,140330.100,3851.7331,N,07703.1479,W,1,04,1.43,147.0,M,-33.5,M,,*53
48,3,0.00,0.05,0.01,-0.56,-0.56,0.06,0.9795,-0.0582,0.0098,-0.1927,$GPGGA,140330.200,3851.7330,N,07703.1478,W,1,04,1.44,146.7,M,-33.5,M,,*51
49,3,0.00,0.09,0.03,7.31,-0.62,-0.06,0.9797,-0.0548,0.0091,-0.1927,$GPGGA,140330.300,3851.7330,N,07703.1478,W,1,04,1.43,146.5,M,-33.5,M,,*55
50,3,0.00,0.11,0.00,5.75,-0.31,-0.19,0.9799,-0.0506,0.0076,-0.1927,$GPGGA,140330.400,3851.7329,N,07703.1478,W,1,04,1.43,146.1,M,-33.5,M,,*5E
51,3,-0.01,0.07,-0.03,-3.75,0.13,0.13,0.9799,-0.0499,0.0074,-0.1927,$GPGGA,140330.500,3851.7329,N,07703.1477,W,1,04,1.43,145.8,M,-33.5,M,,*5A
52,3,0.00,0.08,-0.05,-0.88,-0.19,-0.13,0.9799,-0.0521,0.0079,-0.1927,$GPGGA,140330.600,3851.7328,N,07703.1477,W,1,04,1.43,145.6,M,-33.5,M,,*56
53,3,0.00,0.12,0.01,0.62,0.06,-0.06,0.9799,-0.0501,0.0074,-0.1927,$GPGGA,140330.700,3851.7328,N,07703.1476,W,1,04,1.43,145.2,M,-33.5,M,,*52
54,3,0.00,0.09,-0.01,1.37,-0.19,0.00,0.9799,-0.0508,0.0076,-0.1927,$GPGGA,140330.800,3851.7327,N,07703.1476,W,1,04,1.44,145.0,M,-33.5,M,,*57
55,3,0.00,0.11,0.00,1.87,0.19,0.06,0.9799,-0.0500,0.0074,-0.1927,$GPGGA,140330.900,3851.7327,N,07703.1476,W,1,04,1.43,144.6,M,-33.5,M,,*56
56,3,0.00,0.09,0.00,0.56,0.13,-0.13,0.9799,-0.0499,0.0074,-0.1927,$GPGGA,140331.000,3851.7326,N,07703.1475,W,1,04,1.43,144.3,M,-33.5,M,,*59
57,3,0.00,0.13,0.00,0.62,-0.06,-0.06,0.9800,-0.0487,0.0072,-0.1927,$GPGGA,140331.100,3851.7326,N,07703.1475,W,1,04,1.43,144.0,M,-33.5,M,,*5B
58,3,0.00,0.11,0.02,-2.19,-0.13,0.00,0.9800,-0.0492,0.0073,-0.1927,$GPGGA,140331.200,3851.7325,N,07703.1475,W,1,04,1.43,143.6,M,-33.5,M,,*5A
59,3,0.00,0.05,0.00,0.94,-0.06,-0.06,0.9800,-0.0493,0.0073,-0.1927,$GPGGA,140331.300,3851.7325,N,07703.1474,W,1,04,1.43,143.3,M,-33.5,M,,*5F
60,3,0.00,0.09,-0.02,-0.37,-0.06,0.00,0.9800,-0.0490,0.0073,-0.1927,$GPGGA,140331.400,3851.7324,N,07703.1474,W,1,04,1.43,143.0,M,-33.5,M,,*5A
61,3,0.00,0.07,-0.01,0.81,0.06,-0.13,0.9800,-0.0484,0.0071,-0.1927,$GPGGA,140331.500,3851.7324,N,07703.1473,W,1,04,1.43,142.7,M,-33.5,M,,*5A
62,3,0.00,0.10,-0.03,-1.44,-0.25,-0.06,0.9800,-0.0477,0.0070,-0.1927,$GPGGA,140331.600,3851.7323,N,07703.1473,W,1,04,1.43,142.3,M,-33.5,M,,*5A
63,3,0.01,0.08,0.01,0.75,-0.13,0.06,0.9801,-0.0469,0.0068,-0.1927,$GPGGA,140331.700,3851.7323,N,07703.1472,W,1,04,1.43,142.0,M,-33.5,M,,*59
64,3,0.00,0.06,0.00,-1.87,0.00,-0.06,0.9800,-0.0479,0.0070,-0.1927,$GPGGA,140331.800,3851.7322,N,07703.1473,W,1,04,1.43,141.9,M,-33.5,M,,*5C
65,3,0.00,0.02,-0.02,-1.44,-0.13,0.00,0.9800,-0.0492,0.0073,-0.1927,$GPGGA,140331.900,3851.7322,N,07703.1473,W,1,04,1.43,141.9,M,-33.5,M,,*5D
66,3,0.00,0.06,0.00,-0.75,-0.06,-0.06,0.9800,-0.0493,0.0073,-0.1927,$GPGGA,140332.000,3851.7322,N,07703.1473,W,1,04,1.43,141.8,M,-33.5,M,,*56
67,3,0.00,0.05,0.01,-0.13,0.06,-0.13,0.9800,-0.0491,0.0073,-0.1927,$GPGGA,140332.100,3851.7321,N,07703.1473,W,1,04,1.43,141.8,M,-33.5,M,,*54
68,3,0.00,0.07,-0.04,-1.37,-0.06,0.00,0.9799,-0.0500,0.0074,-0.1927,$GPGGA,140332.200,3851.7321,N,07703.1474,W,1,04,1.43,141.7,M,-33.5,M,,*5F
69,3,-0.01,0.07,0.00,-3.31,0.25,-0.06,0.9800,-0.0496,0.0073,-0.1927,$GPGGA,140332.300,3851.7320,N,07703.1474,W,1,04,1.43,141.7,M,-33.5,M,,*5F
70,3,0.00,0.07,0.02,-0.06,0.00,-0.13,0.9799,-0.0505,0.0075,-0.1927,$GPGGA,140332.400,3851.7320,N,07703.1474,W,1,04,1.43,141.6,M,-33.5,M,,*59
71,3,0.00,0.09,0.00,0.62,0.00,-0.06,0.9799,-0.0513,0.0077,-0.1927,$GPGGA,140332.500,3851.7319,N,07703.1474,W,1,04,1.43,141.6,M,-33.5,M,,*52
72,3,0.00,0.05,-0.03,-2.50,-0.25,0.06,0.9798,-0.0529,0.0080,-0.1927,$GPGGA,140332.600,3851.7319,N,07703.1474,W,1,04,1.43,141.5,M,-33.5,M,,*52
73,3,0.00,0.07,0.00,-1.00,0.00,-0.13,0.9797,-0.0536,0.0082,-0.1927,$GPGGA,140332.700,3851.7318,N,07703.1474,W,1,04,1.43,141.5,M,-33.5,M,,*52
74,3,0.00,0.10,0.00,-0.31,-0.19,-0.06,0.9798,-0.0533,0.0081,-0.1927,$GPGGA,140332.800,3851.7318,N,07703.1475,W,1,04,1.43,141.4,M,-33.5,M,,*5D
75,3,0.00,0.06,-0.01,-0.13,0.13,-0.13,0.9797,-0.0538,0.0082,-0.1927,$GPGGA,140332.900,3851.7317,N,07703.1475,W,1,04,1.44,141.4,M,-33.5,M,,*54
76,3,-0.01,0.06,0.00,-1.94,0.13,0.00,0.9797,-0.0540,0.0082,-0.1927,$GPGGA,140333.000,3851.7317,N,07703.1475,W,1,04,1.43,141.3,M,-33.5,M,,*5C
77,3,0.02,0.04,-0.01,-7.12,0.06,0.00,0.9796,-0.0564,0.0087,-0.1927,$GPGGA,140333.100,3851.7317,N,07703.1476,W,1,04,1.43,141.3,M,-33.5,M,,*5E
78,3,0.00,-0.03,-0.07,-3.56,0.94,0.13,0.9792,-0.0627,0.0107,-0.1927,$GPGGA,140333.200,3851.7317,N,07703.1476,W,1,04,1.43,141.2,M,-33.5,M,,*5C
79,3,0.02,-0.02,-0.03,-2.44,0.75,0.00,0.9791,-0.0649,0.0117,-0.1927,$GPGGA,140333.300,3851.7317,N,07703.1476,W,1,04,1.43,141.2,M,-33.5,M,,*5D
80,3,0.03,0.06,0.12,-16.19,1.25,0.00,0.9785,-0.0718,0.0141,-0.1927,$GPGGA,140333.400,3851.7317,N,07703.1477,W,1,04,1.43,141.1,M,-33.5,M,,*58
81,3,0.03,0.02,0.18,-28.81,3.56,1.06,0.9770,-0.0900,0.0191,-0.1924,$GPGGA,140333.500,3851.7317,N,07703.1477,W,1,04,1.43,141.0,M,-33.5,M,,*58
82,3,-0.33,-0.68,-0.24,-16.94,18.37,27.31,0.9770,-0.1047,0.0342,-0.1825,$GPGGA,140333.600,3851.7317,N,07703.1477,W,1,04,1.43,140.8,M,-33.5,M,,*52
83,3,0.13,-0.42,0.37,3.87,-19.06,0.06,0.9769,-0.1203,0.0473,-0.1705,$GPGGA,140333.700,3851.7316,N,07703.1477,W,1,04,1.43,140.7,M,-33.5,M,,*5D
84,3,0.08,0.23,-1.48,34.88,-25.87,6.44,0.9802,-0.1024,0.0264,-0.1676,$GPGGA,140333.800,3851.7316,N,07703.1477,W,1,04,1.43,140.5,M,-33.5,M,,*50
85,3,-1.10,0.09,-0.34,-35.81,1.75,8.88,0.9795,-0.1161,0.0229,-0.1630,$GPGGA,140333.900,3851.7316,N,07703.1477,W,1,04,1.43,140.3,M,-33.5,M,,*57
86,3,-1.71,0.37,1.72,-3.94,-11.31,17.62,0.9798,-0.1438,0.0245,-0.1370,$GPGGA,140334.000,3851.7316,N,07703.1477,W,1,04,1.43,140.0,M,-33.5,M,,*5A
87,2,-0.86,0.34,0.67,1.12,-4.44,45.63,0.9849,-0.1335,0.0148,-0.1095,$GPGGA,140334.100,3851.7315,N,07703.1477,W,1,04,1.43,139.7,M,-33.5,M,,*51
88,1,-0.54,-0.20,0.33,1.56,0.31,37.31,0.9870,-0.1375,0.0251,-0.0793,$GPGGA,140334.200,3851.7315,N,07703.1475,W,1,04,1.43,138.7,M,-33.5,M,,*51
89,1,-0.01,-0.08,1.02,-12.06,19.81,65.56,0.9868,-0.1505,0.0397,-0.0441,$GPGGA,140334.300,3851.7314,N,07703.1473,W,1,04,1.43,137.6,M,-33.5,M,,*59
90,1,2.25,-0.05,-0.35,34.44,-14.13,59.31,0.9886,-0.1425,0.0470,0.0082,$GPGGA,140334.400,3851.7314,N,07703.1472,W,1,04,1.43,136.5,M,-33.5,M,,*5D
91,1,2.00,-0.18,0.90,16.44,12.13,23.81,0.9870,-0.1442,0.0620,0.0346,$GPGGA,140334.500,3851.7313,N,07703.1470,W,1,04,1.43,135.4,M,-33.5,M,,*5B
92,2,1.29,-0.57,1.42,-43.25,15.81,19.06,0.9850,-0.1479,0.0748,0.0480,$GPGGA,140334.600,3851.7312,N,07703.1469,W,1,04,1.43,134.5,M,-33.5,M,,*51
93,2,2.48,-0.93,-0.59,11.81,-21.44,5.50,0.9871,-0.1314,0.0645,0.0657,$GPGGA,140334.700,3851.7312,N,07703.1468,W,1,04,1.43,133.4,M,-33.5,M,,*57
94,2,2.81,-0.65,0.51,24.06,-1.50,0.44,0.9844,-0.1484,0.0677,0.0654,$GPGGA,140334.800,3851.7311,N,07703.1467,W,1,04,1.43,132.5,M,-33.5,M,,*54
95,2,3.01,-0.68,1.97,-19.12,10.56,-15.94,0.9856,-0.1452,0.0670,0.0546,$GPGGA,140334.900,3851.7310,N,07703.1466,W,1,04,1.43,131.6,M,-33.5,M,,*55
96,2,1.56,-0.46,-0.76,11.94,-7.12,-34.88,0.9912,-0.1185,0.0531,0.0254,$GPGGA,140335.000,3851.7309,N,07703.1464,W,1,04,1.43,130.6,M,-33.5,M,,*56
97,2,1.88,-0.27,-0.53,16.00,-8.00,-40.69,0.9927,-0.1111,0.0462,-0.0042,$GPGGA,140335.100,3851.7308,N,07703.1464,W,1,04,1.43,130.3,M,-33.5,M,,*53
98,2,-0.13,-0.69,1.05,-40.56,17.00,-35.63,0.9891,-0.1328,0.0488,-0.0419,$GPGGA,140335.200,3851.7308,N,07703.1462,W,1,04,1.43,129.4,M,-33.5,M,,*59
99,2,-0.34,-0.99,-0.20,44.56,-32.25,-15.88,0.9907,-0.1167,0.0291,-0.0647,$GPGGA,140335.300,3851.7308,N,07703.1460,W,1,04,1.43,128.5,M,-33.5,M,,*5A
100,2,-0.27,0.00,-2.38,-68.00,11.25,-49.81,0.9896,-0.1076,0.0162,-0.0941,$GPGGA,140335.400,3851.7307,N,07703.1458,W,1,04,1.43,127.6,M,-33.5,M,,*55
101,3,-3.65,-0.30,0.92,-16.19,-9.81,-58.31,0.9791,-0.1416,0.0141,-0.1456,$GPGGA,140335.500,3851.7307,N,07703.1456,W,1,04,1.43,126.6,M,-33.5,M,,*5B
102,3,-4.25,0.12,1.88,-44.88,1.06,-32.50,0.9709,-0.1603,0.0076,-0.1774,$GPGGA,140335.600,3851.7307,N,07703.1454,W,1,04,1.43,125.8,M,-33.5,M,,*57
103,3,-2.71,0.29,0.63,-31.62,4.56,-8.75,0.9678,-0.1646,-0.0010,-0.1904,$GPGGA,140335.700,3851.7307,N,07703.1451,W,1,04,1.43,125.1,M,-33.5,M,,*5A
104,3,-4.38,0.06,0.42,-16.19,14.19,-8.13,0.9641,-0.1711,0.0057,-0.2029,$GPGGA,140335.800,3851.7306,N,07703.1449,W,1,04,1.43,124.5,M,-33.5,M,,*58
105,3,-1.95,-0.02,-0.11,-23.19,19.44,-8.31,0.9643,-0.1786,0.0145,-0.1951,$GPGGA,140335.900,3851.7306,N,07703.1448,W,1,04,1.43,124.1,M,-33.5,M,,*5C
106,3,-5.72,-1.08,0.36,3.56,10.19,-44.56,0.9564,-0.1892,0.0195,-0.2216,$GPGGA,140336.000,3851.7306,N,07703.1447,W,1,04,1.43,123.7,M,-33.5,M,,*58
107,3,-4.15,-1.14,0.31,7.94,18.12,24.69,0.9596,-0.1894,0.0508,-0.2020,$GPGGA,140336.100,3851.7306,N,07703.1447,W,1,04,1.43,123.4,M,-33.5,M,,*5A
108,3,0.66,0.22,0.89,5.44,34.75,68.62,0.9698,-0.1725,0.0791,-0.1534,$GPGGA,140336.200,3851.7306,N,07703.1446,W,1,04,1.43,123.0,M,-33.5,M,,*5C
109,2,1.03,0.02,0.78,-7.06,36.31,51.88,0.9727,-0.1569,0.1213,-0.1204,$GPGGA,140336.300,3851.7305,N,07703.1446,W,1,04,1.43,122.7,M,-33.5,M,,*58
110,2,2.61,-0.11,-0.48,-1.62,6.62,65.25,0.9742,-0.1475,0.1483,-0.0844,$GPGGA,140336.400,3851.7305,N,07703.1447,W,1,04,1.43,122.4,M,-33.5,M,,*5D
111,2,4.78,-0.42,1.26,-37.94,-6.25,60.25,0.9720,-0.1689,0.1591,-0.0378,$GPGGA,140336.500,3851.7305,N,07703.1445,W,1,04,1.43,121.2,M,-33.5,M,,*5B
112,2,2.15,-0.43,1.02,-0.69,-28.06,30.00,0.9705,-0.1812,0.1586,-0.0145,$GPGGA,140336.600,3851.7304,N,07703.1444,W,1,04,1.44,120.1,M,-33.5,M,,*5D
113,2,2.81,0.34,0.43,-3.56,-16.31,16.62,0.9729,-0.1785,0.1469,0.0021,$GPGGA,140336.700,3851.7304,N,07703.1443,W,1,04,1.43,119.0,M,-33.5,M,,*57
114,2,1.77,-0.38,1.71,-10.81,-17.31,2.00,0.9745,-0.1816,0.1314,0.0021,$GPGGA,140336.800,3851.7303,N,07703.1442,W,1,04,1.43,118.0,M,-33.5,M,,*5F
115,1,2.32,-0.34,0.80,1.62,-17.69,2.12,0.9800,-0.1658,0.1098,-0.0026,$GPGGA,140336.900,3851.7303,N,07703.1440,W,1,04,1.43,117.0,M,-33.5,M,,*53
116,1,2.22,-0.20,-1.02,51.69,-30.00,-4.31,0.9850,-0.1468,0.0900,-0.0085,$GPGGA,140337.000,3851.7302,N,07703.1439,W,1,04,1.43,116.2,M,-33.5,M,,*57
117,1,0.34,0.14,-0.95,-51.50,19.56,-20.31,0.9825,-0.1637,0.0814,-0.0341,$GPGGA,140337.100,3851.7302,N,07703.1438,W,1,04,1.43,115.8,M,-33.5,M,,*5E
118,2,-0.88,-0.14,-1.87,64.12,-9.81,-76.06,0.9789,-0.1749,0.0744,-0.0755,$GPGGA,140337.200,3851.7301,N,07703.1436,W,1,04,1.43,114.8,M,-33.5,M,,*51
119,2,-2.35,-0.01,-0.20,-12.69,-26.69,-14.50,0.9682,-0.2114,0.0700,-0.1141,$GPGGA,140337.300,3851.7301,N,07703.1434,W,1,04,1.43,113.7,M,-33.5,M,,*5A
120,2,-4.24,-0.35,-1.72,107.19,-86.69,-102.00,0.9677,-0.1974,0.0170,-0.1562,$GPGGA,140337.400,3851.7300,N,07703.1431,W,1,04,1.44,112.6,M,-33.5,M,,*5E
121,3,-4.78,-0.38,3.69,-133.81,16.94,-51.00,0.9516,-0.2358,0.0172,-0.1965,$GPGGA,140337.500,3851.7300,N,07703.1428,W,1,04,1.43,111.5,M,-33.5,M,,*50
122,3,-3.75,-0.02,2.00,-2.19,-26.75,-51.56,0.9448,-0.2541,0.0038,-0.2070,$GPGGA,140337.600,3851.7299,N,07703.1426,W,1,04,1.43,110.7,M,-33.5,M,,*5F
123,3,-0.17,0.89,-2.53,-25.81,12.63,-25.44,0.9534,-0.2264,-0.0061,-0.1992,$GPGGA,140337.700,3851.7299,N,07703.1423,W,1,04,1.44,110.0,M,-33.5,M,,*5B
124,3,-0.72,0.59,-1.26,-11.00,30.19,3.94,0.9492,-0.2409,0.0116,-0.2022,$GPGGA,140337.800,3851.7298,N,07703.1421,W,1,04,1.43,109.2,M,-33.5,M,,*5A
125,3,-3.17,0.09,-0.79,13.06,6.12,28.50,0.9471,-0.2443,0.0200,-0.2070,$GPGGA,140337.900,3851.7298,N,07703.1420,W,1,04,1.44,108.5,M,-33.5,M,,*5B
126,3,-0.51,-0.20,1.08,3.94,45.63,58.88,0.9496,-0.2446,0.0374,-0.1923,$GPGGA,140338.000,3851.7297,N,07703.1419,W,1,04,1.43,108.0,M,-33.5,M,,*5A
127,3,-3.43,-0.55,1.04,56.50,22.56,41.69,0.9553,-0.2251,0.0531,-0.1841,$GPGGA,140338.100,3851.7297,N,07703.1418,W,1,04,1.43,107.4,M,-33.5,M,,*51
128,2,-1.04,0.77,0.73,13.56,41.00,26.87,0.9658,-0.1949,0.0721,-0.1555,$GPGGA,140338.200,3851.7297,N,07703.1417,W,1,04,1.43,106.8,M,-33.5,M,,*50
129,1,-2.27,1.09,-3.14,-8.25,72.37,-41.63,0.9655,-0.1853,0.1097,-0.1466,$GPGGA,140338.300,3851.7296,N,07703.1416,W,1,04,1.43,106.1,M,-33.5,M,,*58
130,1,-0.30,-0.07,0.68,-10.44,0.19,13.38,0.9512,-0.2385,0.1384,-0.1387,$GPGGA,140338.400,3851.7296,N,07703.1415,W,1,04,1.43,105.3,M,-33.5,M,,*5D
131,1,2.01,-0.10,1.73,-24.25,-25.37,37.19,0.9509,-0.2580,0.1323,-0.1086,$GPGGA,140338.500,3851.7295,N,07703.1414,W,1,04,1.43,104.6,M,-33.5,M,,*5A
132,1,1.07,0.22,1.94,47.44,-51.06,-6.00,0.9594,-0.2455,0.1006,-0.0953,$GPGGA,140338.600,3851.7295,N,07703.1413,W,1,04,1.43,103.8,M,-33.5,M,,*57
133,1,0.54,-0.66,2.08,19.69,-20.31,4.12,0.9730,-0.1984,0.0739,-0.0919,$GPGGA,140338.700,3851.7295,N,07703.1412,W,1,04,1.43,103.1,M,-33.5,M,,*5E
134,2,2.73,0.35,1.99,60.38,-18.44,6.00,0.9831,-0.1493,0.0631,-0.0851,$GPGGA,140338.800,3851.7294,N,07703.1412,W,1,04,1.43,102.4,M,-33.5,M,,*54
135,3,1.46,-0.12,-0.63,-36.88,9.63,-12.56,0.9889,-0.1011,0.0519,-0.0958,$GPGGA,140338.900,3851.7294,N,07703.1411,W,1,04,1.43,101.8,M,-33.5,M,,*59
136,3,1.94,-0.56,0.00,-14.19,6.56,-18.31,0.9837,-0.1263,0.0709,-0.1063,$GPGGA,140339.000,3851.7294,N,07703.1410,W,1,04,1.44,101.3,M,-33.5,M,,*5C
137,3,1.54,-0.03,0.35,4.37,13.88,-21.94,0.9771,-0.1472,0.0771,-0.1332,$GPGGA,140339.100,3851.7294,N,07703.1409,W,1,04,1.43,100.8,M,-33.5,M,,*58
138,3,1.47,0.15,-0.58,-22.44,19.75,5.75,0.9730,-0.1584,0.0805,-0.1476,$GPGGA,140339.200,3851.7293,N,07703.1408,W,1,04,1.43,100.3,M,-33.5,M,,*56
139,3,1.99,-0.23,-4.61,73.87,-27.44,-57.63,0.9739,-0.1419,0.0494,-0.1703,$GPGGA,140339.300,3851.7293,N,07703.1407,W,1,04,1.43,99.7,M,-33.5,M,,*6D
140,2,0.59,-0.01,0.12,14.94,-13.81,-3.06,0.9640,-0.1669,0.0438,-0.2024,$GPGGA,140339.400,3851.7293,N,07703.1406,W,1,04,1.43,99.2,M,-33.5,M,,*6E
141,1,2.66,-0.46,0.20,-89.19,-9.50,90.94,0.9627,-0.1937,0.0483,-0.1827,$GPGGA,140339.500,3851.7293,N,07703.1404,W,1,04,1.56,98.6,M,-33.5,M,,*6C
142,1,0.24,-1.00,-0.15,-41.38,27.00,12.38,0.9568,-0.2241,0.0453,-0.1793,$GPGGA,140339.600,3851.7292,N,07703.1403,W,1,04,1.43,98.2,M,-33.5,M,,*69
143,1,-3.85,-0.17,-1.91,68.37,-20.25,-25.75,0.9473,-0.2298,0.0369,-0.2203,$GPGGA,140339.700,3851.7292,N,07703.1401,W,1,04,1.43,97.8,M,-33.5,M,,*6F
144,1,-2.28,-0.52,2.06,5.19,-29.81,18.31,0.9453,-0.2381,0.0278,-0.2216,$GPGGA,140339.800,3851.7291,N,07703.1400,W,1,04,1.44,97.5,M,-33.5,M,,*68
145,1,-2.25,-0.85,0.00,-25.31,27.37,1.31,0.9499,-0.2229,0.0258,-0.2175,$GPGGA,140339.900,3851.7290,N,07703.1399,W,1,04,1.43,97.2,M,-33.5,M,,*6F
146,2,-0.72,-1.69,1.12,69.37,14.81,87.94,0.9529,-0.2197,0.0473,-0.2033,$GPGGA,140340.000,3851.7290,N,07703.1399,W,1,04,1.44,96.8,M,-33.5,M,,*64
147,2,1.95,0.73,-0.30,-0.25,54.00,13.44,0.9639,-0.1835,0.0673,-0.1808,$GPGGA,140340.100,3851.7289,N,07703.1398,W,1,04,1.43,96.5,M,-33.5,M,,*66
148,1,-2.79,-0.27,0.95,-65.94,30.19,-2.12,0.9476,-0.2139,0.1260,-0.2007,$GPGGA,140340.200,3851.7289,N,07703.1398,W,1,04,1.44,96.1,M,-33.5,M,,*66
149,0,1.61,-0.85,3.31,-12.19,-21.81,53.38,0.9424,-0.2512,0.1437,-0.1678,$GPGGA,140340.300,3851.7289,N,07703.1397,W,1,04,1.43,95.7,M,-33.5,M,,*6A
150,0,1.29,0.24,-0.60,21.25,-21.75,28.81,0.9527,-0.2371,0.1359,-0.1331,$GPGGA,140340.400,3851.7288,N,07703.1397,W,1,04,1.44,95.4,M,-33.5,M,,*68
151,0,4.13,0.40,-1.10,12.00,-35.69,17.12,0.9587,-0.2363,0.1238,-0.0989,$GPGGA,140340.500,3851.7288,N,07703.1396,W,1,04,1.44,94.9,M,-33.5,M,,*64
152,0,3.11,-0.14,0.60,7.69,-18.87,1.00,0.9580,-0.2483,0.1108,-0.0910,$GPGGA,140340.600,3851.7288,N,07703.1397,W,1,04,1.44,94.6,M,-33.5,M,,*69
153,0,2.94,0.13,-1.06,-7.25,-29.56,-24.37,0.9611,-0.2407,0.0892,-0.1027,$GPGGA,140340.700,3851.7288,N,07703.1397,W,1,04,1.44,94.2,M,-33.5,M,,*6C
154,0,2.02,-1.16,2.04,-0.69,3.75,-15.69,0.9541,-0.2593,0.0955,-0.1152,$GPGGA,140340.800,3851.7287,N,07703.1397,W,1,04,1.43,93.8,M,-33.5,M,,*66
155,0,2.60,-0.43,1.54,6.37,-39.81,15.69,0.9576,-0.2530,0.0852,-0.1080,$GPGGA,140340.900,3851.7287,N,07703.1397,W,1,04,1.43,93.4,M,-33.5,M,,*6B
156,0,1.12,-0.59,1.10,-61.50,-28.56,-10.94,0.9617,-0.2493,0.0521,-0.1018,$GPGGA,140341.000,3851.7287,N,07703.1396,W,1,04,1.44,93.1,M,-33.5,M,,*60
157,0,0.78,-0.62,-0.83,-11.06,-3.31,-26.06,0.9688,-0.2247,0.0298,-0.1006,$GPGGA,140341.100,3851.7287,N,07703.1395,W,1,04,1.43,92.7,M,-33.5,M,,*62
158,0,3.64,-0.09,0.12,48.81,-13.44,-31.44,0.9700,-0.2190,0.0345,-0.0993,$GPGGA,140341.200,3851.7286,N,07703.1395,W,1,04,1.43,92.4,M,-33.5,M,,*63
159,0,1.62,-0.59,0.85,-14.25,3.06,15.56,0.9703,-0.2117,0.0259,-0.1144,$GPGGA,140341.300,3851.7286,N,07703.1394,W,1,04,1.44,92.1,M,-33.5,M,,*61
160,1,-1.62,-0.93,3.06,-37.63,-21.06,-33.50,0.9614,-0.2374,0.0242,-0.1368,$GPGGA,140341.400,3851.7285,N,07703.1393,W,1,04,1.44,91.8,M,-33.5,M,,*68
161,1,-0.92,-0.86,1.12,-60.19,-11.19,-31.19,0.9603,-0.2351,0.0065,-0.1503,$GPGGA,140341.500,3851.7285,N,07703.1392,W,1,04,1.44,91.5,M,-33.5,M,,*65
162,1,-1.69,-0.36,-0.89,-36.44,-69.56,43.81,0.9562,-0.2432,-0.0148,-0.1623,$GPGGA,140341.600,3851.7285,N,07703.1390,W,1,04,1.44,91.2,M,-33.5,M,,*63
163,1,-1.90,-0.39,2.15,-16.25,3.81,32.19,0.9440,-0.2855,0.0073,-0.1655,$GPGGA,140341.700,3851.7284,N,07703.1389,W,1,04,1.44,90.9,M,-33.5,M,,*61
164,1,-4.51,0.57,0.02,-19.94,19.87,-16.50,0.9504,-0.2620,0.0125,-0.1668,$GPGGA,140341.800,3851.7284,N,07703.1388,W,1,04,1.44,90.6,M,-33.5,M,,*60
165,2,-3.22,-0.19,3.45,12.81,-47.81,6.87,0.9464,-0.2742,0.0240,-0.1692,$GPGGA,140341.900,3851.7283,N,07703.1387,W,1,04,1.43,90.4,M,-33.5,M,,*6C
166,3,-1.53,-0.97,-0.13,21.25,1.19,-32.88,0.9589,-0.2281,-0.0149,-0.1678,$GPGGA,140342.000,3851.7283,N,07703.1387,W,1,04,1.44,90.1,M,-33.5,M,,*64
167,3,1.78,-0.31,-1.14,-85.62,87.37,27.31,0.9631,-0.2073,0.0350,-0.1682,$GPGGA,140342.100,3851.7283,N,07703.1387,W,1,04,1.44,89.9,M,-33.5,M,,*65
168,1,1.69,0.70,2.83,-76.69,65.00,16.75,0.9485,-0.2432,0.1135,-0.1683,$GPGGA,140342.200,3851.7283,N,07703.1386,W,1,04,1.43,89.6,M,-33.5,M,,*6F
169,0,0.81,0.38,0.65,-10.06,8.13,36.38,0.9432,-0.2543,0.1473,-0.1553,$GPGGA,140342.300,3851.7282,N,07703.1386,W,1,04,1.43,89.3,M,-33.5,M,,*6A
170,0,-0.40,0.10,1.96,-8.88,-8.50,34.19,0.9424,-0.2650,0.1454,-0.1434,$GPGGA,140342.400,3851.7282,N,07703.1386,W,1,04,1.44,89.1,M,-33.5,M,,*68
171,0,0.47,0.05,-0.06,2.56,-4.87,37.88,0.9507,-0.2531,0.1307,-0.1229,$GPGGA,140342.500,3851.7282,N,07703.1386,W,1,04,1.44,88.8,M,-33.5,M,,*61
172,0,2.03,0.57,1.34,-3.19,9.00,25.87,0.9504,-0.2624,0.1367,-0.0959,$GPGGA,140342.600,3851.7281,N,07703.1386,W,1,04,1.44,88.4,M,-33.5,M,,*6D
173,1,-0.33,-0.58,0.42,-2.81,-12.06,8.56,0.9523,-0.2617,0.1277,-0.0912,$GPGGA,140342.700,3851.7281,N,07703.1386,W,1,04,1.44,88.1,M,-33.5,M,,*69
174,1,0.50,0.06,-0.50,-8.25,-5.94,-13.63,0.9520,-0.2676,0.1203,-0.0873,$GPGGA,140342.800,3851.7281,N,07703.1387,W,1,04,1.43,87.9,M,-33.5,M,,*67
175,0,0.35,-0.09,0.26,-43.25,24.62,-0.13,0.9456,-0.2878,0.1260,-0.0848,$GPGGA,140342.900,3851.7281,N,07703.1387,W,1,04,1.44,87.6,M,-33.5,M,,*6E
176,0,0.69,-0.33,1.75,31.25,-27.56,-20.75,0.9441,-0.2943,0.1209,-0.0863,$GPGGA,140343.000,3851.7280,N,07703.1387,W,1,04,1.44,87.3,M,-33.5,M,,*62
177,0,0.76,-0.03,-0.34,3.37,1.12,1.00,0.9491,-0.2849,0.1073,-0.0807,$GPGGA,140343.100,3851.7280,N,07703.1387,W,1,04,1.44,87.0,M,-33.5,M,,*60
178,0,0.54,-0.25,1.31,26.81,-17.31,2.81,0.9474,-0.2913,0.1079,-0.0765,$GPGGA,140343.200,3851.7280,N,07703.1386,W,1,04,1.44,86.8,M,-33.5,M,,*6B
179,0,0.48,0.09,-0.13,12.88,-5.56,1.37,0.9535,-0.2762,0.0958,-0.0732,$GPGGA,140343.300,3851.7279,N,07703.1387,W,1,04,1.44,86.6,M,-33.5,M,,*63
180,0,1.48,0.14,0.56,22.69,-4.44,9.13,0.9566,-0.2740,0.0894,-0.0432,$GPGGA,140343.400,3851.7278,N,07703.1386,W,1,04,1.43,86.4,M,-33.5,M,,*61
181,0,-1.32,-0.26,0.44,-19.06,14.81,-16.12,0.9608,-0.2636,0.0775,-0.0375,$GPGGA,140343.500,3851.7278,N,07703.1386,W,1,04,1.44,86.2,M,-33.5,M,,*61
182,0,0.36,0.36,-0.08,-6.12,10.44,-22.00,0.9611,-0.2617,0.0746,-0.0483,$GPGGA,140343.600,3851.7278,N,07703.1386,W,1,04,1.44,86.0,M,-33.5,M,,*60
183,0,0.24,0.23,0.71,-0.75,8.88,-4.37,0.9592,-0.2645,0.0803,-0.0591,$GPGGA,140343.700,3851.7277,N,07703.1386,W,1,04,1.44,85.7,M,-33.5,M,,*6A
184,0,0.18,-0.08,0.32,12.88,-5.44,-24.87,0.9605,-0.2579,0.0846,-0.0616,$GPGGA,140343.800,3851.7277,N,07703.1386,W,1,04,1.43,85.5,M,-33.5,M,,*60
185,0,0.99,0.09,-0.06,-3.19,-2.37,-10.63,0.9607,-0.2562,0.0806,-0.0702,$GPGGA,140343.900,3851.7277,N,07703.1385,W,1,04,1.43,85.3,M,-33.5,M,,*64
186,1,1.55,0.19,0.58,5.56,-12.94,-7.00,0.9575,-0.2653,0.0784,-0.0822,$GPGGA,140344.000,3851.7277,N,07703.1385,W,1,04,1.44,85.1,M,-33.5,M,,*6F
187,2,-0.07,0.34,0.32,9.63,-14.38,-28.12,0.9575,-0.2640,0.0626,-0.0986,$GPGGA,140344.100,3851.7276,N,07703.1385,W,1,04,1.43,84.9,M,-33.5,M,,*61
188,2,-0.72,0.56,-0.33,-21.37,-6.12,-7.50,0.9565,-0.2640,0.0546,-0.1115,$GPGGA,140344.200,3851.7276,N,07703.1384,W,1,04,1.43,84.7,M,-33.5,M,,*6D
189,1,-2.83,0.45,2.18,6.12,-46.44,-20.62,0.9533,-0.2709,0.0441,-0.1259,$GPGGA,140344.300,3851.7276,N,07703.1383,W,1,04,1.44,84.4,M,-33.5,M,,*6F
190,0,-2.64,0.16,1.07,-16.87,-9.31,-52.19,0.9570,-0.2622,0.0114,-0.1236,$GPGGA,140344.400,3851.7275,N,07703.1383,W,1,04,1.44,84.3,M,-33.5,M,,*6C
191,0,-2.51,0.68,-1.63,3.50,22.50,-40.31,0.9560,-0.2560,0.0093,-0.1429,$GPGGA,140344.500,3851.7275,N,07703.1382,W,1,04,1.44,84.1,M,-33.5,M,,*6E
192,0,-4.16,0.15,0.37,-16.19,18.87,-39.44,0.9478,-0.2689,0.0270,-0.1693,$GPGGA,140344.600,3851.7274,N,07703.1381,W,1,04,1.44,83.9,M,-33.5,M,,*60
193,0,-2.97,-0.02,0.70,17.75,-17.94,-24.06,0.9470,-0.2678,0.0251,-0.1757,$GPGGA,140344.700,3851.7273,N,07703.1381,W,1,04,1.43,83.7,M,-33.5,M,,*6F
194,1,-1.72,0.42,-1.09,2.87,8.63,0.50,0.9547,-0.2443,0.0172,-0.1693,$GPGGA,140344.800,3851.7273,N,07703.1380,W,1,04,1.44,83.5,M,-33.5,M,,*64
195,1,-4.21,-0.12,-1.44,-7.56,4.06,-12.31,0.9532,-0.2441,0.0249,-0.1768,$GPGGA,140344.900,3851.7273,N,07703.1380,W,1,04,1.43,83.3,M,-33.5,M,,*64
196,1,-3.69,-0.04,-0.56,-12.25,10.06,-1.62,0.9508,-0.2543,0.0476,-0.1703,$GPGGA,140345.000,3851.7273,N,07703.1380,W,1,04,1.44,83.1,M,-33.5,M,,*69
197,0,-1.27,0.83,-0.43,4.37,-1.87,31.00,0.9556,-0.2518,0.0569,-0.1420,$GPGGA,140345.100,3851.7273,N,07703.1380,W,1,04,1.44,82.9,M,-33.5,M,,*61
198,0,-1.53,0.06,0.94,-41.63,9.44,16.81,0.9530,-0.2671,0.0826,-0.1167,$GPGGA,140345.200,3851.7273,N,07703.1380,W,1,04,1.43,82.7,M,-33.5,M,,*6B
199,0,-0.14,0.36,-1.02,-25.06,-5.62,17.62,0.9581,-0.2612,0.0793,-0.0870,$GPGGA,140345.300,3851.7272,N,07703.1380,W,1,04,1.44,82.5,M,-33.5,M,,*6E
200,0,0.87,0.22,1.46,-9.25,-15.38,26.00,0.9580,-0.2689,0.0781,-0.0615,$GPGGA,140345.400,3851.7272,N,07703.1380,W,1,04,1.44,82.3,M,-33.5,M,,*6F
201,1,-0.25,0.06,1.82,-15.00,1.81,-1.19,0.9603,-0.2646,0.0718,-0.0507,$GPGGA,140345.500,3851.7272,N,07703.1380,W,1,04,1.43,82.1,M,-33.5,M,,*6B
202,1,0.25,-0.05,1.14,-23.31,7.31,3.00,0.9629,-0.2585,0.0670,-0.0390,$GPGGA,140345.600,3851.7272,N,07703.1380,W,1,04,1.43,81.9,M,-33.5,M,,*63
203,2,1.10,-0.06,0.32,31.31,-9.31,1.75,0.9650,-0.2517,0.0667,-0.0325,$GPGGA,140345.700,3851.7271,N,07703.1380,W,1,04,1.44,81.7,M,-33.5,M,,*68
204,2,1.15,0.15,-0.91,71.94,-15.06,13.25,0.9760,-0.2090,0.0568,-0.0223,$GPGGA,140345.800,3851.7271,N,07703.1380,W,1,04,1.44,81.6,M,-33.5,M,,*66
205,2,0.07,-0.14,-0.44,47.50,5.19,-1.62,0.9836,-0.1718,0.0531,-0.0145,$GPGGA,140345.900,3851.7271,N,07703.1381,W,1,04,1.44,81.4,M,-33.5,M,,*64
206,2,-0.53,0.35,-0.59,22.62,32.00,-16.56,0.9875,-0.1417,0.0675,-0.0154,$GPGGA,140346.000,3851.7271,N,07703.1380,W,1,04,1.44,81.3,M,-33.5,M,,*68
207,1,0.76,0.31,-0.92,30.81,-9.44,-19.87,0.9878,-0.1369,0.0726,-0.0166,$GPGGA,140346.100,3851.7271,N,07703.1380,W,1,04,1.44,81.1,M,-33.5,M,,*6B
208,1,0.30,-0.04,0.12,33.19,-8.75,-24.12,0.9894,-0.1271,0.0592,-0.0358,$GPGGA,140346.200,3851.7271,N,07703.1380,W,1,04,1.44,80.9,M,-33.5,M,,*61
209,2,-0.07,0.07,-0.42,42.06,-19.31,-5.12,0.9931,-0.0977,0.0433,-0.0475,$GPGGA,140346.300,3851.7271,N,07703.1379,W,1,04,1.44,80.8,M,-33.5,M,,*67
210,2,-0.10,0.50,-1.31,41.19,-3.31,5.44,0.9959,-0.0697,0.0304,-0.0483,$GPGGA,140346.400,3851.7271,N,07703.1379,W,1,04,1.43,80.5,M,-33.5,M,,*6A
211,2,-0.82,0.14,-0.62,4.69,12.81,-15.06,0.9961,-0.0624,0.0315,-0.0544,$GPGGA,140346.500,3851.7271,N,07703.1378,W,1,04,1.44,80.3,M,-33.5,M,,*6B
212,2,-1.45,-0.01,0.28,22.81,4.87,-23.25,0.9954,-0.0614,0.0339,-0.0657,$GPGGA,140346.600,3851.7270,N,07703.1378,W,1,04,1.44,80.2,M,-33.5,M,,*68
213,0,-0.28,0.21,-0.40,31.19,-5.62,1.81,0.9965,-0.0458,0.0255,-0.0656,$GPGGA,140346.700,3851.7270,N,07703.1377,W,1,04,1.44,80.0,M,-33.5,M,,*64
214,0,-0.74,0.53,0.13,-7.87,11.44,7.12,0.9966,-0.0436,0.0323,-0.0618,$GPGGA,140346.800,3851.7269,N,07703.1377,W,1,04,1.44,79.8,M,-33.5,M,,*6D
215,0,0.10,-0.61,0.08,58.06,-22.75,15.06,0.9979,-0.0347,0.0280,-0.0472,$GPGGA,140346.900,3851.7268,N,07703.1377,W,1,04,1.44,79.7,M,-33.5,M,,*62
216,0,-0.18,-0.42,0.87,12.69,-16.37,30.87,0.9991,-0.0193,0.0198,-0.0312,$GPGGA,140347.000,3851.7268,N,07703.1377,W,1,04,1.43,79.5,M,-33.5,M,,*6F
217,0,-0.97,0.00,-0.21,-41.31,16.25,-1.44,0.9994,-0.0160,0.0243,-0.0199,$GPGGA,140347.100,3851.7268,N,07703.1377,W,1,04,1.44,79.3,M,-33.5,M,,*6F
218,0,-1.16,0.17,-0.18,10.88,1.06,-12.88,0.9991,-0.0223,0.0316,-0.0183,$GPGGA,140347.200,3851.7267,N,07703.1377,W,1,04,1.44,79.2,M,-33.5,M,,*62
219,0,-1.16,-0.35,0.16,-5.44,-11.63,18.75,0.9995,-0.0176,0.0233,0.0175,$GPGGA,140347.300,3851.7267,N,07703.1376,W,1,04,1.44,79.0,M,-33.5,M,,*60
220,0,0.14,-1.08,-0.97,-94.50,61.38,60.19,0.9946,-0.0507,0.0444,0.0782,$GPGGA,140347.400,3851.7266,N,07703.1376,W,1,04,1.44,78.8,M,-33.5,M,,*6F
221,0,-2.14,-1.52,1.16,38.81,-55.63,-1.75,0.9877,-0.0921,0.0541,0.1139,$GPGGA,140347.500,3851.7266,N,07703.1376,W,1,04,1.44,78.7,M,-33.5,M,,*61
222,0,-1.77,-0.30,-0.80,-37.56,7.81,-7.94,0.9881,-0.0750,0.0336,0.1302,$GPGGA,140347.600,3851.7265,N,07703.1376,W,1,04,1.44,78.6,M,-33.5,M,,*60
223,0,-0.31,-0.20,-0.21,26.12,-10.94,-13.63,0.9869,-0.0806,0.0316,0.1360,$GPGGA,140347.700,3851.7265,N,07703.1376,W,1,04,1.44,78.5,M,-33.5,M,,*62
224,1,-1.26,0.73,-0.34,40.44,0.81,-14.81,0.9917,-0.0616,0.0208,0.1109,$GPGGA,140347.800,3851.7264,N,07703.1376,W,1,04,1.44,78.3,M,-33.5,M,,*6A
225,2,-1.80,0.22,0.51,5.31,6.44,-0.62,0.9939,-0.0606,0.0063,0.0918,$GPGGA,140347.900,3851.7263,N,07703.1376,W,1,04,1.44,78.2,M,-33.5,M,,*6D
226,2,-0.06,0.66,-1.11,9.06,24.87,-25.69,0.9954,-0.0544,0.0010,0.0793,$GPGGA,140348.000,3851.7262,N,07703.1376,W,1,04,1.44,78.1,M,-33.5,M,,*69
227,2,-0.34,0.51,0.63,3.87,32.06,-29.19,0.9968,-0.0632,0.0011,0.0500,$GPGGA,140348.100,3851.7262,N,07703.1376,W,1,04,1.43,78.0,M,-33.5,M,,*6E
228,3,-0.16,0.45,0.49,15.88,4.37,-19.44,0.9980,-0.0569,0.0073,0.0278,$GPGGA,140348.200,3851.7261,N,07703.1376,W,1,04,1.44,77.9,M,-33.5,M,,*6F
229,3,-0.67,-0.35,-0.25,-0.69,10.50,-15.44,0.9990,-0.0449,0.0051,0.0087,$GPGGA,140348.300,3851.7261,N,07703.1376,W,1,04,1.44,77.8,M,-33.5,M,,*6F
230,3,-1.84,-0.33,0.09,18.19,-6.81,-42.38,0.9990,-0.0438,0.0031,-0.0143,$GPGGA,140348.400,3851.7260,N,07703.1376,W,1,04,1.44,77.7,M,-33.5,M,,*66
231,3,-2.00,-0.18,1.24,8.00,15.13,-16.06,0.9989,-0.0367,0.0044,-0.0289,$GPGGA,140348.500,3851.7260,N,07703.1376,W,1,04,1.43,77.6,M,-33.5,M,,*61
232,3,-2.31,-0.55,1.24,-13.75,25.94,-7.56,0.9990,-0.0275,-0.0004,-0.0352,$GPGGA,140348.600,3851.7260,N,07703.1376,W,1,04,1.44,77.5,M,-33.5,M,,*66
233,3,-2.23,-0.61,0.53,-7.37,15.81,-27.75,0.9990,-0.0172,-0.0078,-0.0394,$GPGGA,140348.700,3851.7260,N,07703.1376,W,1,04,1.44,77.4,M,-33.5,M,,*66
234,3,-1.00,-0.02,-0.69,17.06,-15.88,-25.69,0.9989,-0.0054,-0.0154,-0.0437,$GPGGA,140348.800,3851.7259,N,07703.1376,W,1,04,1.44,77.2,M,-33.5,M,,*65
235,3,-1.10,0.42,1.21,-4.69,-5.00,-25.00,0.9984,-0.0082,-0.0107,-0.0544,$GPGGA,140348.900,3851.7259,N,07703.1376,W,1,04,1.44,77.1,M,-33.5,M,,*67
236,3,-1.14,0.20,0.38,-18.12,7.75,-19.56,0.9978,-0.0046,-0.0134,-0.0644,$GPGGA,140349.000,3851.7259,N,07703.1375,W,1,04,1.44,77.0,M,-33.5,M,,*6D
237,3,-1.10,0.66,0.20,-9.25,5.06,-19.19,0.9973,-0.0032,-0.0148,-0.0717,$GPGGA,140349.100,3851.7259,N,07703.1375,W,1,04,1.44,76.9,M,-33.5,M,,*64
238,2,-0.16,0.39,0.08,-2.87,2.62,-10.50,0.9968,-0.0016,-0.0165,-0.0786,$GPGGA,140349.200,3851.7258,N,07703.1375,W,1,04,1.44,76.8,M,-33.5,M,,*67
239,2,-0.28,0.40,0.72,1.12,-2.69,-2.00,0.9957,-0.0029,-0.0164,-0.0905,$GPGGA,140349.300,3851.7258,N,07703.1375,W,1,04,1.44,76.7,M,-33.5,M,,*69
240,2,0.62,0.36,0.59,-15.13,13.88,-7.19,0.9952,0.0001,-0.0214,-0.0959,$GPGGA,140349.400,3851.7257,N,07703.1375,W,1,04,1.44,76.6,M,-33.5,M,,*60
241,2,0.71,0.77,-1.05,-0.19,-5.81,4.06,0.9941,0.0040,-0.0228,-0.1057,$GPGGA,140349.500,3851.7256,N,07703.1375,W,1,04,1.44,76.5,M,-33.5,M,,*63
242,2,1.04,0.56,-0.01,-6.87,2.75,0.69,0.9940,0.0004,-0.0213,-0.1078,$GPGGA,140349.600,3851.7256,N,07703.1375,W,1,04,1.44,76.4,M,-33.5,M,,*61
243,2,1.11,0.55,-0.64,7.87,-10.00,15.13,0.9930,-0.0007,-0.0161,-0.1170,$GPGGA,140349.700,3851.7255,N,07703.1374,W,1,04,1.44,76.3,M,-33.5,M,,*65
244,2,0.57,0.42,0.06,-7.44,0.44,7.56,0.9926,-0.0022,-0.0134,-0.1204,$GPGGA,140349.800,3851.7254,N,07703.1374,W,1,04,1.44,76.2,M,-33.5,M,,*6A
245,2,-0.17,0.08,-0.44,-6.31,-8.81,3.69,0.9921,-0.0032,-0.0136,-0.1251,$GPGGA,140349.900,3851.7254,N,07703.1374,W,1,04,1.43,76.1,M,-33.5,M,,*6F
246,2,-0.45,-0.54,-0.57,-8.81,-9.00,-7.37,0.9908,-0.0120,-0.0186,-0.1334,$GPGGA,140350.000,3851.7253,N,07703.1374,W,1,04,1.44,76.0,M,-33.5,M,,*6F
247,3,-1.09,-0.12,0.02,14.06,-22.56,-15.00,0.9880,-0.0245,-0.0192,-0.1516,$GPGGA,140350.100,3851.7253,N,07703.1374,W,1,04,1.44,75.9,M,-33.5,M,,*64
248,3,-0.74,-0.73,1.27,-18.56,8.38,-17.19,0.9860,-0.0338,-0.0184,-0.1619,$GPGGA,140350.200,3851.7252,N,07703.1374,W,1,04,1.44,75.9,M,-33.5,M,,*66
249,3,-0.33,-0.33,-0.62,-7.31,9.00,-16.19,0.9828,-0.0349,-0.0245,-0.1797,$GPGGA,140350.300,3851.7251,N,07703.1374,W,1,04,1.44,75.8,M,-33.5,M,,*65
250,3,-0.51,0.22,0.21,-1.87,0.44,-16.37,0.9785,-0.0414,-0.0230,-0.2008,$GPGGA,140350.400,3851.7251,N,07703.1373,W,1,04,1.44,75.7,M,-33.5,M,,*6A
251,3,-0.03,-0.14,0.84,7.12,-2.31,-9.50,0.9757,-0.0447,-0.0208,-0.2135,$GPGGA,140350.500,3851.7250,N,07703.1373,W,1,04,1.44,75.6,M,-33.5,M,,*6B
252,3,0.43,-0.36,0.28,1.37,4.87,-5.75,0.9740,-0.0427,-0.0255,-0.2211,$GPGGA,140350.600,3851.7250,N,07703.1373,W,1,04,1.44,75.5,M,-33.5,M,,*6B
253,3,0.13,-0.34,0.30,7.62,-5.00,10.94,0.9725,-0.0403,-0.0278,-0.2275,$GPGGA,140350.700,3851.7249,N,07703.1373,W,1,04,1.43,75.4,M,-33.5,M,,*64
254,3,-0.73,-0.54,1.05,-16.94,-5.25,-2.50,0.9714,-0.0468,-0.0344,-0.2300,$GPGGA,140350.800,3851.7249,N,07703.1372,W,1,04,1.44,75.3,M,-33.5,M,,*6A
255,3,-0.41,-0.46,-0.51,-1.00,-8.44,7.62,0.9722,-0.0379,-0.0453,-0.2266,$GPGGA,140350.900,3851.7249,N,07703.1372,W,1,04,1.44,75.3,M,-33.5,M,,*6B
256,3,-1.62,-0.29,-0.98,5.56,2.31,2.00,0.9739,-0.0285,-0.0521,-0.2191,$GPGGA,140351.000,3851.7248,N,07703.1372,W,1,04,1.44,75.2,M,-33.5,M,,*63
257,3,-3.75,1.54,-0.56,7.94,-7.56,-17.06,0.9740,-0.0305,-0.0443,-0.2200,$GPGGA,140351.100,3851.7248,N,07703.1372,W,1,04,1.44,75.1,M,-33.5,M,,*61
258,3,0.98,1.36,-2.74,34.81,10.94,-22.25,0.9782,-0.0311,-0.0477,-0.1997,$GPGGA,140351.200,3851.7248,N,07703.1372,W,1,04,1.44,75.1,M,-33.5,M,,*62
259,3,0.23,1.28,1.03,29.87,-0.50,-5.94,0.9755,-0.0329,-0.0257,-0.2162,$GPGGA,140351.300,3851.7247,N,07703.1372,W,1,04,1.44,75.1,M,-33.5,M,,*6C
260,3,0.42,0.79,0.26,-15.50,-3.75,6.56,0.9731,-0.0246,-0.0349,-0.2266,$GPGGA,140351.400,3851.7247,N,07703.1372,W,1,04,1.44,75.0,M,-33.5,M,,*6A
261,3,-0.40,0.72,0.60,-8.19,-13.19,8.88,0.9700,-0.0282,-0.0347,-0.2388,$GPGGA,140351.500,3851.7247,N,07703.1372,W,1,04,1.44,75.0,M,-33.5,M,,*6B
262,3,-0.27,0.17,1.19,-35.19,1.25,2.44,0.9680,-0.0403,-0.0414,-0.2441,$GPGGA,140351.600,3851.7247,N,07703.1372,W,1,04,1.44,75.0,M,-33.5,M,,*68
263,3,-0.35,0.21,-0.14,-6.62,5.87,-3.06,0.9654,-0.0405,-0.0438,-0.2538,$GPGGA,140351.700,3851.7247,N,07703.1371,W,1,04,1.44,75.0,M,-33.5,M,,*6A
264,3,0.71,-0.39,0.43,-22.37,-20.19,17.75,0.9656,-0.0418,-0.0445,-0.2529,$GPGGA,140351.800,3851.7247,N,07703.1371,W,1,04,1.44,75.0,M,-33.5,M,,*65
265,3,-1.14,-0.03,0.19,-13.13,-6.81,-3.75,0.9654,-0.0477,-0.0483,-0.2519,$GPGGA,140351.900,3851.7247,N,07703.1371,W,1,04,1.44,75.0,M,-33.5,M,,*64
266,3,-1.15,0.12,-0.18,-5.00,4.12,-2.69,0.9653,-0.0488,-0.0509,-0.2516,$GPGGA,140352.000,3851.7247,N,07703.1371,W,1,04,1.44,75.0,M,-33.5,M,,*6E
267,3,-0.50,0.22,0.25,-0.06,8.06,-3.62,0.9662,-0.0502,-0.0448,-0.2487,$GPGGA,140352.100,3851.7246,N,07703.1371,W,1,04,1.44,75.0,M,-33.5,M,,*6E
268,3,0.22,-0.01,-0.04,-1.25,-0.44,6.12,0.9664,-0.0508,-0.0425,-0.2483,$GPGGA,140352.200,3851.7246,N,07703.1371,W,1,04,1.44,75.0,M,-33.5,M,,*6D
269,3,0.31,0.26,-0.77,6.06,-1.69,-1.69,0.9670,-0.0472,-0.0449,-0.2465,$GPGGA,140352.300,3851.7246,N,07703.1371,W,1,04,1.44,75.0,M,-33.5,M,,*6C
270,3,0.33,0.10,-0.25,7.19,-2.62,1.06,0.9671,-0.0455,-0.0408,-0.2469,$GPGGA,140352.400,3851.7246,N,07703.1371,W,1,04,1.44,75.0,M,-33.5,M,,*6B
271,3,0.27,0.09,-0.40,-2.62,-2.12,1.69,0.9667,-0.0460,-0.0425,-0.2479,$GPGGA,140352.500,3851.7246,N,07703.1371,W,1,04,1.44,75.0,M,-33.5,M,,*6A
272,3,-0.23,0.38,-0.49,3.44,-2.50,5.44,0.9661,-0.0466,-0.0402,-0.2507,$GPGGA,140352.600,3851.7246,N,07703.1371,W,1,04,1.44,75.0,M,-33.5,M,,*69
273,3,0.04,0.18,0.32,0.13,4.75,-2.81,0.9662,-0.0490,-0.0374,-0.2502,$GPGGA,140352.700,3851.7246,N,07703.1371,W,1,04,1.44,75.0,M,-33.5,M,,*68
274,3,0.20,0.16,0.03,-3.31,3.19,-1.62,0.9664,-0.0494,-0.0399,-0.2490,$GPGGA,140352.800,3851.7246,N,07703.1371,W,1,04,1.44,75.0,M,-33.5,M,,*67
275,3,-0.18,0.21,0.04,-0.13,1.75,-2.87,0.9657,-0.0490,-0.0394,-0.2520,$GPGGA,140352.900,3851.7246,N,07703.1371,W,1,04,1.44,75.0,M,-33.5,M,,*66
276,3,0.05,0.04,-0.05,-1.00,1.37,1.06,0.9659,-0.0490,-0.0404,-0.2511,$GPGGA,140353.000,3851.7246,N,07703.1371,W,1,04,1.44,75.0,M,-33.5,M,,*6E
277,3,-0.19,0.17,0.13,3.00,-6.19,-0.31,0.9657,-0.0491,-0.0400,-0.2518,$GPGGA,140353.100,3851.7246,N,07703.1371,W,1,04,1.44,75.0,M,-33.5,M,,*6F
278,3,-0.27,0.00,0.55,-4.62,-0.81,2.87,0.9655,-0.0497,-0.0388,-0.2526,$GPGGA,140353.200,3851.7246,N,07703.1371,W,1,04,1.44,75.0,M,-33.5,M,,*6C
279,3,-0.21,0.15,-0.31,-1.12,0.81,3.50,0.9656,-0.0480,-0.0391,-0.2527,$GPGGA,140353.300,3851.7245,N,07703.1370,W,1,04,1.44,75.0,M,-33.5,M,,*6F
280,3,0.15,0.13,-0.42,3.75,-2.25,2.00,0.9659,-0.0479,-0.0380,-0.2515,$GPGGA,140353.400,3851.7245,N,07703.1370,W,1,04,1.44,75.0,M,-33.5,M,,*68
281,3,0.02,0.13,0.00,4.75,-1.00,1.81,0.9658,-0.0485,-0.0352,-0.2523,$GPGGA,140353.500,3851.7245,N,07703.1370,W,1,04,1.44,75.0,M,-33.5,M,,*69
282,3,-0.02,0.23,-0.43,4.87,-1.19,0.94,0.9660,-0.0468,-0.0361,-0.2518,$GPGGA,140353.600,3851.7245,N,07703.1370,W,1,04,1.44,75.0,M,-33.5,M,,*6A
283,3,-0.21,0.27,-0.42,9.56,-1.37,2.44,0.9663,-0.0449,-0.0350,-0.2509,$GPGGA,140353.700,3851.7245,N,07703.1370,W,1,04,1.44,75.0,M,-33.5,M,,*6B
284,3,-0.26,0.33,-0.28,8.56,1.81,0.50,0.9670,-0.0415,-0.0329,-0.2494,$GPGGA,140353.800,3851.7245,N,07703.1370,W,1,04,1.44,75.0,M,-33.5,M,,*64
285,3,0.16,0.09,-0.32,2.31,1.56,4.44,0.9682,-0.0386,-0.0314,-0.2453,$GPGGA,140353.900,3851.7245,N,07703.1370,W,1,04,1.44,75.0,M,-33.5,M,,*65
286,3,0.08,0.24,-0.47,4.25,3.06,1.87,0.9686,-0.0350,-0.0309,-0.2443,$GPGGA,140354.000,3851.7245,N,07703.1370,W,1,04,1.44,75.0,M,-33.5,M,,*6B
287,3,0.01,0.22,-0.39,7.12,-2.50,0.13,0.9686,-0.0345,-0.0290,-0.2446,$GPGGA,140354.100,3851.7245,N,07703.1370,W,1,04,1.44,75.0,M,-33.5,M,,*6A
288,3,-0.12,0.15,-0.28,2.25,0.69,-0.06,0.9687,-0.0338,-0.0289,-0.2442,$GPGGA,140354.200,3851.7245,N,07703.1370,W,1,04,1.44,75.0,M,-33.5,M,,*69
289,3,-0.09,0.14,-0.14,3.19,-2.44,1.50,0.9689,-0.0338,-0.0291,-0.2432,$GPGGA,140354.300,3851.7245,N,07703.1370,W,1,04,1.44,75.0,M,-33.5,M,,*68
290,3,-0.18,0.14,0.00,1.12,-1.44,0.37,0.9689,-0.0337,-0.0282,-0.2433,$GPGGA,140354.400,3851.7244,N,07703.1370,W,1,04,1.44,75.0,M,-33.5,M,,*6E
291,3,0.11,0.18,-0.32,3.56,-5.06,4.12,0.9691,-0.0338,-0.0298,-0.2425,$GPGGA,140354.500,3851.7244,N,07703.1370,W,1,04,1.44,75.0,M,-33.5,M,,*6F
292,3,0.22,0.09,-0.25,-6.50,-2.87,-2.44,0.9688,-0.0377,-0.0297,-0.2434,$GPGGA,140354.600,3851.7244,N,07703.1370,W,1,04,1.44,75.0,M,-33.5,M,,*6C
293,3,-1.02,0.07,1.22,-36.00,-4.37,-2.31,0.9658,-0.0565,-0.0253,-0.2519,$GPGGA,140354.700,3851.7244,N,07703.1370,W,1,04,1.44,75.0,M,-33.5,M,,*6D
294,3,-1.92,-0.13,1.24,-145.94,0.44,-10.06,0.9608,-0.1077,-0.0320,-0.2536,$GPGGA,140354.800,3851.7244,N,07703.1370,W,1,04,1.44,75.0,M,-33.5,M,,*62
295,3,0.70,0.39,-1.93,-105.87,-23.00,-0.50,0.9536,-0.1773,-0.0392,-0.2404,$GPGGA,140354.900,3851.7244,N,07703.1370,W,1,04,1.44,75.0,M,-33.5,M,,*63
296,3,1.14,0.46,-1.90,2.75,-49.06,26.00,0.9427,-0.2367,-0.0414,-0.2314,$GPGGA,140355.000,3851.7244,N,07703.1369,W,1,04,1.44,75.0,M,-33.5,M,,*63
297,3,0.14,0.13,0.81,11.44,-15.13,10.06,0.9354,-0.2640,-0.0346,-0.2327,$GPGGA,140355.100,3851.7244,N,07703.1369,W,1,04,1.44,75.0,M,-33.5,M,,*62
298,3,-0.55,0.18,1.40,-18.37,14.19,-2.00,0.9341,-0.2683,-0.0279,-0.2340,$GPGGA,140355.200,3851.7244,N,07703.1369,W,1,04,1.44,75.0,M,-33.5,M,,*61
299,3,0.10,0.26,0.19,-7.25,8.13,9.31,0.9362,-0.2660,-0.0233,-0.2285,$GPGGA,140355.300,3851.7244,N,07703.1369,W,1,04,1.44,75.0,M,-33.5,M,,*60
300,3,-0.16,0.24,1.10,2.69,8.63,4.69,0.9377,-0.2643,-0.0168,-0.2249,$GPGGA,140355.400,3851.7243,N,07703.1369,W,1,04,1.44,75.0,M,-33.5,M,,*60
301,3,0.23,0.18,-0.07,-4.19,1.69,2.12,0.9406,-0.2592,-0.0217,-0.2185,$GPGGA,140355.500,3851.7243,N,07703.1369,W,1,04,1.44,75.0,M,-33.5,M,,*61
302,3,0.04,0.20,0.21,5.69,-4.44,2.25,0.9409,-0.2570,-0.0203,-0.2194,$GPGGA,140355.600,3851.7243,N,07703.1369,W,1,04,1.44,75.0,M,-33.5,M,,*62
303,3,-0.13,0.19,-0.42,8.63,-2.75,2.50,0.9434,-0.2491,-0.0218,-0.2178,$GPGGA,140355.700,3851.7243,N,07703.1369,W,1,04,1.44,75.0,M,-33.5,M,,*63
304,3,0.21,0.42,-1.10,50.75,-25.56,5.25,0.9479,-0.2343,-0.0278,-0.2139,$GPGGA,140355.800,3851.7243,N,07703.1369,W,1,04,1.44,75.0,M,-33.5,M,,*6C
305,3,-0.16,0.20,-0.19,57.94,-10.00,6.50,0.9543,-0.2081,-0.0387,-0.2107,$GPGGA,140355.900,3851.7243,N,07703.1369,W,1,04,1.44,75.0,M,-33.5,M,,*6D
306,3,-0.17,0.30,0.80,41.81,-15.06,12.75,0.9614,-0.1778,-0.0507,-0.2039,$GPGGA,140356.000,3851.7243,N,07703.1369,W,1,04,1.44,75.0,M,-33.5,M,,*67
307,3,-1.12,0.30,-0.41,6.00,2.94,3.12,0.9663,-0.1491,-0.0653,-0.1995,$GPGGA,140356.100,3851.7243,N,07703.1369,W,1,04,1.44,75.0,M,-33.5,M,,*66
308,3,-0.48,0.00,0.62,18.69,-3.37,1.44,0.9679,-0.1435,-0.0712,-0.1937,$GPGGA,140356.200,3851.7243,N,07703.1369,W,1,04,1.44,75.0,M,-33.5,M,,*65
309,3,-0.25,0.30,-0.40,-11.06,12.56,1.81,0.9698,-0.1307,-0.0804,-0.1895,$GPGGA,140356.300,3851.7242,N,07703.1369,W,1,04,1.44,75.0,M,-33.5,M,,*65
310,3,0.01,0.45,-0.94,11.00,-11.50,-1.75,0.9698,-0.1288,-0.0869,-0.1882,$GPGGA,140356.400,3851.7242,N,07703.1369,W,1,04,1.44,75.0,M,-33.5,M,,*62
311,3,0.01,-0.03,0.16,-13.13,-12.63,-4.12,0.9678,-0.1393,-0.0912,-0.1890,$GPGGA,140356.500,3851.7242,N,07703.1369,W,1,04,1.44,75.0,M,-33.5,M,,*63
312,3,-0.37,0.76,-2.69,-64.37,-67.87,-26.50,0.9610,-0.1623,-0.1098,-0.1953,$GPGGA,140356.600,3851.7242,N,07703.1368,W,1,04,1.44,75.0,M,-33.5,M,,*61
313,3,1.08,0.21,-1.44,15.19,-43.19,0.37,0.9495,-0.2151,-0.1082,-0.2015,$GPGGA,140356.700,3851.7242,N,07703.1368,W,1,04,1.44,75.0,M,-33.5,M,,*60
314,3,0.54,0.09,2.24,-19.81,27.56,2.69,0.9354,-0.2594,-0.1177,-0.2096,$GPGGA,140356.800,3851.7242,N,07703.1368,W,1,04,1.44,75.0,M,-33.5,M,,*6F
315,3,-0.35,0.58,-0.64,2.94,21.44,-4.50,0.9365,-0.2470,-0.1230,-0.2161,$GPGGA,140356.900,3851.7242,N,07703.1368,W,1,04,1.44,75.0,M,-33.5,M,,*6E
316,3,0.36,0.48,-0.35,9.13,10.13,6.06,0.9387,-0.2406,-0.1211,-0.2151,$GPGGA,140357.000,3851.7242,N,07703.1368,W,1,04,1.44,75.0,M,-33.5,M,,*66
317,3,0.11,0.40,0.09,8.50,1.25,6.56,0.9404,-0.2355,-0.1196,-0.2143,$GPGGA,140357.100,3851.7242,N,07703.1368,W,1,04,1.44,75.0,M,-33.5,M,,*67
318,3,-0.49,0.32,-0.11,4.50,4.06,-3.69,0.9412,-0.2326,-0.1185,-0.2145,$GPGGA,140357.200,3851.7241,N,07703.1368,W,1,04,1.44,75.0,M,-33.5,M,,*67
319,3,-0.42,0.20,0.85,-2.87,1.06,2.31,0.9417,-0.2322,-0.1150,-0.2146,$GPGGA,140357.300,3851.7241,N,07703.1368,W,1,04,1.44,75.0,M,-33.5,M,,*66
320,3,-0.31,0.10,0.51,-8.69,2.87,0.56,0.9432,-0.2281,-0.1182,-0.2104,$GPGGA,140357.400,3851.7241,N,07703.1368,W,1,04,1.44,75.0,M,-33.5,M,,*61
321,3,-0.46,0.32,0.26,1.25,2.31,-0.25,0.9442,-0.2252,-0.1196,-0.2086,$GPGGA,140357.500,3851.7241,N,07703.1368,W,1,04,1.44,75.0,M,-33.5,M,,*60
322,3,-0.19,0.22,0.43,1.06,-0.81,-0.75,0.9455,-0.2217,-0.1224,-0.2048,$GPGGA,140357.600,3851.7241,N,07703.1368,W,1,04,1.44,75.0,M,-33.5,M,,*63
323,3,-0.14,0.21,0.23,-0.19,1.25,1.25,0.9474,-0.2150,-0.1270,-0.2000,$GPGGA,140357.700,3851.7241,N,07703.1368,W,1,04,1.44,75.0,M,-33.5,M,,*62
324,3,-0.26,0.19,0.11,16.12,-14.56,1.50,0.9492,-0.2074,-0.1318,-0.1966,$GPGGA,140357.800,3851.7241,N,07703.1368,W,1,04,1.44,75.0,M,-33.5,M,,*6D
325,3,0.17,0.28,0.09,33.13,-5.75,0.81,0.9523,-0.1949,-0.1340,-0.1926,$GPGGA,140357.900,3851.7241,N,07703.1368,W,1,04,1.44,75.0,M,-33.5,M,,*6C
326,3,0.23,0.42,-0.54,6.50,4.56,11.06,0.9559,-0.1787,-0.1388,-0.1874,$GPGGA,140358.000,3851.7240,N,07703.1367,W,1,04,1.44,75.0,M,-33.5,M,,*64
327,3,-0.51,0.39,-1.58,22.87,-2.44,2.19,0.9595,-0.1602,-0.1412,-0.1835,$GPGGA,140358.100,3851.7240,N,07703.1367,W,1,04,1.44,75.0,M,-33.5,M,,*65
328,3,-0.16,0.04,0.58,33.69,-1.44,-5.19,0.9615,-0.1583,-0.1329,-0.1812,$GPGGA,140358.200,3851.7240,N,07703.1367,W,1,04,1.44,75.0,M,-33.5,M,,*66
329,3,0.15,0.08,0.56,-5.12,14.31,0.75,0.9635,-0.1456,-0.1299,-0.1833,$GPGGA,140358.300,3851.7240,N,07703.1367,W,1,04,1.44,75.0,M,-33.5,M,,*67
330,3,-0.22,0.48,-0.69,7.44,5.12,-5.06,0.9651,-0.1299,-0.1295,-0.1870,$GPGGA,140358.400,3851.7240,N,07703.1367,W,1,04,1.44,75.0,M,-33.5,M,,*60
331,3,-0.22,0.26,-0.02,25.31,-5.44,-3.31,0.9660,-0.1241,-0.1272,-0.1879,$GPGGA,140358.500,3851.7240,N,07703.1367,W,1,04,1.44,75.0,M,-33.5,M,,*61
332,3,0.02,0.30,-0.18,10.06,0.37,-1.00,0.9673,-0.1146,-0.1268,-0.1870,$GPGGA,140358.600,3851.7239,N,07703.1367,W,1,04,1.44,75.0,M,-33.5,M,,*6C
333,3,0.23,0.30,-0.51,21.69,-2.00,-0.06,0.9684,-0.1082,-0.1260,-0.1862,$GPGGA,140358.700,3851.7239,N,07703.1367,W,1,04,1.44,74.9,M,-33.5,M,,*65
334,3,0.19,0.23,-0.22,17.00,1.75,5.19,0.9692,-0.1030,-0.1254,-0.1851,$GPGGA,140358.800,3851.7238,N,07703.1367,W,1,04,1.44,74.9,M,-33.5,M,,*6B
335,3,0.17,0.17,0.21,14.06,3.37,1.81,0.9700,-0.0961,-0.1267,-0.1838,$GPGGA,140358.900,3851.7237,N,07703.1367,W,1,04,1.44,74.9,M,-33.5,M,,*65
336,3,0.71,0.02,0.85,31.31,16.06,5.87,0.9717,-0.0854,-0.1247,-0.1817,$GPGGA,140359.000,3851.7237,N,07703.1367,W,1,04,1.44,74.9,M,-33.5,M,,*6D
337,3,-0.53,0.15,0.53,20.12,17.00,9.00,0.9739,-0.0607,-0.1193,-0.1831,$GPGGA,140359.100,3851.7236,N,07703.1367,W,1,04,1.44,74.8,M,-33.5,M,,*6C
338,3,-0.15,0.12,0.32,35.94,14.06,-3.62,0.9769,-0.0321,-0.1108,-0.1796,$GPGGA,140359.200,3851.7235,N,07703.1367,W,1,04,1.44,74.8,M,-33.5,M,,*6C
339,3,-0.11,0.02,0.89,1.50,12.00,0.13,0.9783,-0.0083,-0.1035,-0.1796,$GPGGA,140359.300,3851.7235,N,07703.1367,W,1,04,1.44,74.8,M,-33.5,M,,*6D
340,3,-0.71,0.20,0.35,10.25,9.31,7.19,0.9787,0.0104,-0.0988,-0.1797,$GPGGA,140359.400,3851.7234,N,07703.1367,W,1,04,1.44,74.8,M,-33.5,M,,*6B
341,3,-1.05,0.69,1.12,16.56,26.12,-4.62,0.9795,0.0329,-0.0889,-0.1779,$GPGGA,140359.500,3851.7233,N,07703.1367,W,1,04,1.44,74.7,M,-33.5,M,,*62
342,3,-0.93,-0.11,3.41,89.81,83.31,-13.44,0.9809,0.0825,-0.0530,-0.1678,$GPGGA,140359.600,3851.7233,N,07703.1367,W,1,04,1.44,74.7,M,-33.5,M,,*61
343,3,-0.04,0.25,0.06,75.62,47.50,-0.06,0.9703,0.1859,-0.0353,-0.1509,$GPGGA,140359.700,3851.7232,N,07703.1367,W,1,04,1.44,74.7,M,-33.5,M,,*61
344,3,0.48,-0.01,-1.02,76.37,18.12,19.00,0.9572,0.2570,-0.0309,-0.1295,$GPGGA,140359.800,3851.7232,N,07703.1367,W,1,04,1.44,74.7,M,-33.5,M,,*6E
345,3,-0.13,-0.36,1.02,30.12,28.00,38.25,0.9498,0.2899,-0.0263,-0.1147,$GPGGA,140359.900,3851.7231,N,07703.1367,W,1,04,1.44,74.6,M,-33.5,M,,*6D
346,3,1.06,-0.66,0.36,-16.06,35.88,4.06,0.9465,0.3059,-0.0320,-0.0977,$GPGGA,140400.000,3851.7230,N,07703.1367,W,1,04,1.44,74.6,M,-33.5,M,,*6E
347,3,1.05,-0.15,-2.20,-47.56,4.19,8.06,0.9454,0.3088,-0.0425,-0.0944,$GPGGA,140400.100,3851.7229,N,07703.1367,W,1,04,1.44,74.6,M,-33.5,M,,*67
348,3,0.22,0.05,0.45,-28.25,2.12,3.00,0.9548,0.2785,-0.0410,-0.0953,$GPGGA,140400.200,3851.7228,N,07703.1367,W,1,04,1.44,74.5,M,-33.5,M,,*66
349,3,-0.48,-0.15,-1.21,-70.25,1.56,-0.88,0.9602,0.2547,-0.0480,-0.1038,$GPGGA,140400.300,3851.7227,N,07703.1367,W,1,04,1.44,74.5,M,-33.5,M,,*68
350,3,-0.31,0.17,-0.32,-63.81,-11.00,-18.00,0.9693,0.2114,-0.0480,-0.1160,$GPGGA,140400.400,3851.7226,N,07703.1367,W,1,04,1.44,74.4,M,-33.5,M,,*6F
351,3,-0.11,0.44,-0.50,-13.44,-20.62,-4.12,0.9730,0.1905,-0.0476,-0.1213,$GPGGA,140400.500,3851.7225,N,07703.1367,W,1,04,1.44,74.4,M,-33.5,M,,*6D
352,3,-0.43,0.38,-1.64,-23.56,-11.44,-19.81,0.9734,0.1807,-0.0491,-0.1323,$GPGGA,140400.600,3851.7224,N,07703.1367,W,1,04,1.44,74.3,M,-33.5,M,,*68
353,3,-0.96,0.38,-1.22,-39.38,-32.19,-25.44,0.9766,0.1479,-0.0568,-0.1459,$GPGGA,140400.700,3851.7223,N,07703.1367,W,1,04,1.44,74.3,M,-33.5,M,,*6E
354,3,-0.06,0.34,-1.59,-50.00,-29.87,-25.87,0.9789,0.1046,-0.0687,-0.1611,$GPGGA,140400.800,3851.7222,N,07703.1367,W,1,04,1.44,74.3,M,-33.5,M,,*60
355,3,0.86,0.20,-1.93,-12.38,-31.25,-2.81,0.9811,0.0629,-0.0722,-0.1679,$GPGGA,140400.900,3851.7220,N,07703.1367,W,1,04,1.44,74.2,M,-33.5,M,,*62
356,3,-0.03,-0.03,-0.64,-15.75,-7.94,-0.81,0.9816,0.0327,-0.0683,-0.1752,$GPGGA,140401.000,3851.7219,N,07703.1367,W,1,04,1.44,74.2,M,-33.5,M,,*60
357,3,-0.21,-0.43,0.72,-57.25,-1.81,-7.75,0.9807,-0.0050,-0.0704,-0.1826,$GPGGA,140401.100,3851.7218,N,07703.1367,W,1,04,1.44,74.1,M,-33.5,M,,*63
358,3,0.01,-0.58,0.39,-68.50,-3.62,-27.87,0.9774,-0.0388,-0.0746,-0.1938,$GPGGA,140401.200,3851.7217,N,07703.1367,W,1,04,1.44,74.1,M,-33.5,M,,*6F
359,3,-0.17,0.03,-1.68,-1.87,-14.63,-24.94,0.9724,-0.0530,-0.0645,-0.2180,$GPGGA,140401.300,3851.7216,N,07703.1367,W,1,04,1.44,74.1,M,-33.5,M,,*6F
360,3,-0.26,-0.22,1.20,-17.06,5.50,-21.81,0.9669,-0.0692,-0.0490,-0.2409,$GPGGA,140401.400,3851.7215,N,07703.1367,W,1,04,1.44,74.1,M,-33.5,M,,*6B
361,3,-0.85,-0.27,0.41,-3.62,3.81,-25.56,0.9610,-0.0641,-0.0443,-0.2653,$GPGGA,140401.500,3851.7214,N,07703.1367,W,1,04,1.44,74.0,M,-33.5,M,,*6A
362,3,-0.83,-0.52,-0.75,-14.31,15.13,-39.94,0.9544,-0.0545,-0.0533,-0.2885,$GPGGA,140401.600,3851.7213,N,07703.1367,W,1,04,1.44,74.0,M,-33.5,M,,*6E
363,3,-0.22,-0.65,-0.08,-7.31,2.62,-27.44,0.9478,-0.0533,-0.0518,-0.3102,$GPGGA,140401.700,3851.7211,N,07703.1367,W,1,04,1.44,74.0,M,-33.5,M,,*6D
364,3,-0.24,-0.61,-0.40,15.19,-4.75,-27.25,0.9403,-0.0465,-0.0551,-0.3326,$GPGGA,140401.800,3851.7210,N,07703.1367,W,1,04,1.44,73.9,M,-33.5,M,,*6D
365,3,-0.62,0.28,0.88,3.19,-9.13,-11.19,0.9328,-0.0423,-0.0569,-0.3534,$GPGGA,140401.900,3851.7209,N,07703.1367,W,1,04,1.44,73.9,M,-33.5,M,,*64
366,3,-0.59,0.81,0.23,-29.37,4.62,-17.69,0.9261,-0.0406,-0.0690,-0.3688,$GPGGA,140402.000,3851.7208,N,07703.1367,W,1,04,1.44,73.9,M,-33.5,M,,*6F
367,3,-1.42,1.12,-0.53,12.63,-11.19,-37.56,0.9128,-0.0500,-0.0682,-0.3995,$GPGGA,140402.100,3851.7207,N,07703.1367,W,1,04,1.44,73.8,M,-33.5,M,,*60
368,2,-0.32,1.29,-0.90,11.25,-12.19,-40.88,0.8970,-0.0543,-0.0750,-0.4323,$GPGGA,140402.200,3851.7206,N,07703.1367,W,1,04,1.44,73.8,M,-33.5,M,,*62
369,2,-0.35,1.26,-0.52,12.19,-11.75,-33.13,0.8787,-0.0577,-0.0765,-0.4677,$GPGGA,140402.300,3851.7205,N,07703.1367,W,1,04,1.44,73.8,M,-33.5,M,,*60
370,2,-1.07,0.58,0.24,-2.06,-4.81,-33.31,0.8611,-0.0609,-0.0778,-0.4988,$GPGGA,140402.400,3851.7205,N,07703.1367,W,1,04,1.44,73.8,M,-33.5,M,,*67
371,2,-0.13,-0.01,0.25,-13.38,2.37,-39.75,0.8441,-0.0646,-0.0778,-0.5267,$GPGGA,140402.500,3851.7204,N,07703.1367,W,1,04,1.44,73.7,M,-33.5,M,,*68
372,2,0.66,-0.54,0.23,-20.50,-16.25,-38.38,0.8235,-0.0826,-0.0782,-0.5558,$GPGGA,140402.600,3851.7203,N,07703.1366,W,1,04,1.44,73.7,M,-33.5,M,,*6D
373,2,0.09,0.23,2.44,-28.37,10.50,-62.56,0.7926,-0.0978,-0.0677,-0.5980,$GPGGA,140402.700,3851.7202,N,07703.1366,W,1,04,1.44,73.6,M,-33.5,M,,*6C
374,2,-1.33,0.36,1.17,-24.75,-10.69,-31.06,0.7595,-0.1047,-0.0704,-0.6382,$GPGGA,140402.800,3851.7201,N,07703.1366,W,1,04,1.44,73.6,M,-33.5,M,,*60
375,2,-1.45,-0.73,0.64,-9.19,-9.06,-53.75,0.7299,-0.1230,-0.0728,-0.6685,$GPGGA,140402.900,3851.7200,N,07703.1366,W,1,04,1.44,73.6,M,-33.5,M,,*60
376,2,-0.91,-0.64,0.31,-13.00,-0.37,-54.63,0.6921,-0.1286,-0.0795,-0.7058,$GPGGA,140403.000,3851.7199,N,07703.1366,W,1,04,1.44,73.6,M,-33.5,M,,*6B
377,2,-1.51,-0.27,-0.53,-20.56,6.31,-46.19,0.6530,-0.1299,-0.0846,-0.7413,$GPGGA,140403.100,3851.7199,N,07703.1365,W,1,04,1.44,73.5,M,-33.5,M,,*6A
378,2,-0.80,-0.58,0.07,5.06,-2.44,-49.94,0.6220,-0.1309,-0.0796,-0.7679,$GPGGA,140403.200,3851.7198,N,07703.1365,W,1,04,1.44,73.5,M,-33.5,M,,*68
379,2,-0.20,-0.43,0.72,-21.12,9.44,-31.44,0.5966,-0.1314,-0.0757,-0.7881,$GPGGA,140403.300,3851.7197,N,07703.1365,W,1,04,1.44,73.5,M,-33.5,M,,*66
380,3,-0.14,-0.35,0.32,2.25,6.56,-24.44,0.5764,-0.1279,-0.0820,-0.8029,$GPGGA,140403.400,3851.7196,N,07703.1365,W,1,04,1.44,73.5,M,-33.5,M,,*60
381,3,0.29,-0.65,0.17,12.56,2.25,-9.38,0.5676,-0.1223,-0.0906,-0.8091,$GPGGA,140403.500,3851.7196,N,07703.1365,W,1,04,1.44,73.5,M,-33.5,M,,*61
382,3,0.07,-0.47,0.30,-2.75,15.50,5.12,0.5691,-0.1167,-0.0986,-0.8079,$GPGGA,140403.600,3851.7195,N,07703.1365,W,1,04,1.44,73.5,M,-33.5,M,,*61
383,3,-1.13,-0.34,2.38,18.25,-5.25,9.69,0.5715,-0.1076,-0.0905,-0.8085,$GPGGA,140403.700,3851.7194,N,07703.1365,W,1,04,1.44,73.5,M,-33.5,M,,*61
384,3,-1.71,0.43,0.08,10.69,3.06,0.62,0.5743,-0.1006,-0.1138,-0.8044,$GPGGA,140403.800,3851.7193,N,07703.1365,W,1,04,1.44,73.4,M,-33.5,M,,*68
385,3,-1.14,0.59,-1.54,-9.31,0.62,2.12,0.5775,-0.1043,-0.1306,-0.7991,$GPGGA,140403.900,3851.7193,N,07703.1365,W,1,04,1.44,73.4,M,-33.5,M,,*69
386,3,-1.96,0.49,0.18,52.06,-24.50,-2.37,0.5733,-0.0999,-0.1226,-0.8040,$GPGGA,140404.000,3851.7192,N,07703.1365,W,1,04,1.44,73.4,M,-33.5,M,,*66
387,3,-1.17,0.21,1.76,-27.44,23.56,-6.19,0.5732,-0.0948,-0.1270,-0.8040,$GPGGA,140404.100,3851.7191,N,07703.1365,W,1,04,1.44,73.4,M,-33.5,M,,*64
388,3,-1.08,0.32,0.00,-8.56,9.44,-4.81,0.5725,-0.0937,-0.1361,-0.8031,$GPGGA,140404.200,3851.7191,N,07703.1365,W,1,04,1.44,73.4,M,-33.5,M,,*67
389,3,-0.53,0.28,0.48,-10.19,3.44,5.37,0.5756,-0.0984,-0.1320,-0.8010,$GPGGA,140404.300,3851.7190,N,07703.1365,W,1,04,1.44,73.4,M,-33.5,M,,*67
390,3,-0.46,0.61,-0.15,-23.69,11.13,10.44,0.5823,-0.1033,-0.1317,-0.7955,$GPGGA,140404.400,3851.7189,N,07703.1365,W,1,04,1.44,73.4,M,-33.5,M,,*68
391,3,-0.77,1.09,-1.11,11.69,-16.06,26.50,0.5944,-0.1067,-0.1261,-0.7870,$GPGGA,140404.500,3851.7188,N,07703.1365,W,1,04,1.44,73.3,M,-33.5,M,,*6F
392,3,-0.29,0.92,-0.13,-4.69,1.50,38.63,0.6190,-0.1150,-0.1158,-0.7682,$GPGGA,140404.600,3851.7188,N,07703.1365,W,1,04,1.44,73.3,M,-33.5,M,,*6C
393,3,-1.13,0.98,-0.70,14.13,-3.12,50.13,0.6472,-0.1176,-0.1086,-0.7454,$GPGGA,140404.700,3851.7187,N,07703.1365,W,1,04,1.44,73.3,M,-33.5,M,,*62
394,3,-1.78,0.34,-0.28,8.06,-3.12,68.44,0.6866,-0.1188,-0.0956,-0.7109,$GPGGA,140404.800,3851.7186,N,07703.1365,W,1,04,1.44,73.3,M,-33.5,M,,*6C
395,3,-1.36,0.12,0.33,-11.19,8.69,64.94,0.7292,-0.1278,-0.0820,-0.6672,$GPGGA,140404.900,3851.7186,N,07703.1365,W,1,04,1.44,73.3,M,-33.5,M,,*6D
396,3,-1.01,0.86,-0.68,5.94,20.06,60.50,0.7681,-0.1239,-0.0758,-0.6237,$GPGGA,140405.000,3851.7185,N,07703.1365,W,1,04,1.44,73.3,M,-33.5,M,,*66
397,3,-0.15,0.04,-1.12,32.00,-14.88,79.56,0.8052,-0.1163,-0.0628,-0.5781,$GPGGA,140405.100,3851.7184,N,07703.1365,W,1,04,1.44,73.2,M,-33.5,M,,*67
398,3,-2.23,-0.64,0.82,-40.75,-0.50,70.44,0.8313,-0.1295,-0.0430,-0.5388,$GPGGA,140405.200,3851.7184,N,07703.1365,W,1,04,1.44,73.2,M,-33.5,M,,*64
399,3,-1.97,-0.60,0.55,-42.31,30.31,32.13,0.8539,-0.1415,-0.0199,-0.5005,$GPGGA,140405.300,3851.7183,N,07703.1365,W,1,04,1.44,73.2,M,-33.5,M,,*62
400,3,-0.48,-0.10,-0.04,25.31,-13.63,50.31,0.8773,-0.1400,-0.0126,-0.4589,$GPGGA,140405.400,3851.7182,N,07703.1365,W,1,04,1.44,73.2,M,-33.5,M,,*64
401,3,-2.14,-0.04,-0.04,49.38,-3.87,53.44,0.9006,-0.1173,-0.0211,-0.4179,$GPGGA,140405.500,3851.7182,N,07703.1365,W,1,04,1.44,73.2,M,-33.5,M,,*65
402,3,-2.36,0.22,0.46,26.87,29.87,44.31,0.9212,-0.0874,-0.0101,-0.3790,$GPGGA,140405.600,3851.7181,N,07703.1365,W,1,04,1.44,73.2,M,-33.5,M,,*65
403,3,-0.74,-0.07,1.21,38.44,11.25,8.50,0.9403,-0.0535,-0.0005,-0.3362,$GPGGA,140405.700,3851.7181,N,07703.1365,W,1,04,1.44,73.2,M,-33.5,M,,*64
404,3,-1.08,0.46,-0.39,27.75,8.00,2.06,0.9460,-0.0137,-0.0103,-0.3237,$GPGGA,140405.800,3851.7180,N,07703.1365,W,1,04,1.44,73.1,M,-33.5,M,,*69
405,3,0.03,0.21,0.91,17.00,-20.81,23.06,0.9499,-0.0081,-0.0198,-0.3118,$GPGGA,140405.900,3851.7179,N,07703.1365,W,1,04,1.44,73.1,M,-33.5,M,,*6E
406,3,-0.65,-0.34,0.76,86.06,-32.94,14.88,0.9515,0.0209,-0.0507,-0.3029,$GPGGA,140406.000,3851.7179,N,07703.1365,W,1,04,1.44,73.1,M,-33.5,M,,*64
407,3,0.31,0.42,-1.86,22.00,-11.50,19.00,0.9515,0.0681,-0.0972,-0.2838,$GPGGA,140406.100,3851.7178,N,07703.1365,W,1,04,1.44,73.1,M,-33.5,M,,*64
408,3,-0.60,0.17,1.09,2.31,18.69,-20.44,0.9542,0.0590,-0.0869,-0.2802,$GPGGA,140406.200,3851.7177,N,07703.1365,W,1,04,1.44,73.1,M,-33.5,M,,*68
409,3,0.79,0.03,-1.34,16.37,-18.37,13.56,0.9523,0.0758,-0.1036,-0.2766,$GPGGA,140406.300,3851.7177,N,07703.1365,W,1,04,1.44,73.1,M,-33.5,M,,*69
410,3,0.78,-0.35,-0.64,-41.25,1.62,9.00,0.9560,0.0483,-0.0968,-0.2728,$GPGGA,140406.400,3851.7176,N,07703.1365,W,1,04,1.44,73.1,M,-33.5,M,,*6F
411,3,-0.92,-0.50,0.64,-23.31,16.87,1.37,0.9581,0.0049,-0.0672,-0.2783,$GPGGA,140406.500,3851.7175,N,07703.1365,W,1,04,1.44,73.0,M,-33.5,M,,*6C
412,3,-0.04,0.34,0.29,-38.56,18.62,1.75,0.9595,-0.0132,-0.0681,-0.2729,$GPGGA,140406.600,3851.7175,N,07703.1365,W,1,04,1.44,73.0,M,-33.5,M,,*6F
413,3,-0.44,0.35,1.15,-60.50,32.06,-2.44,0.9601,-0.0397,-0.0425,-0.2734,$GPGGA,140406.700,3851.7174,N,07703.1365,W,1,04,1.44,73.0,M,-33.5,M,,*6F
414,3,-0.02,0.15,1.09,-24.19,26.56,7.69,0.9604,-0.0608,-0.0167,-0.2714,$GPGGA,140406.800,3851.7173,N,07703.1365,W,1,04,1.44,73.0,M,-33.5,M,,*67
