0,0,0.01,0.28,0.55,3.06,3.44,-6.75,0.4545,-0.1347,-0.0251,-0.8802,$GPGGA,171352.800,4041.0351,N,07423.2928,W,1,08,0.97,142.3,M,-34.1,M,,*59
1,0,-0.12,0.50,-0.10,0.37,-0.69,-6.19,0.4493,-0.1378,-0.0262,-0.8823,$GPGGA,171352.900,4041.0354,N,07423.2925,W,1,08,0.97,142.3,M,-34.1,M,,*50
2,0,-0.14,0.71,0.33,0.81,-0.88,-5.44,0.4447,-0.1360,-0.0300,-0.8848,$GPGGA,171353.000,4041.0357,N,07423.2923,W,1,08,0.97,142.3,M,-34.1,M,,*5D
3,0,-0.20,0.41,0.16,-0.75,-0.13,-4.81,0.4406,-0.1339,-0.0332,-0.8871,$GPGGA,171353.100,4041.0359,N,07423.2920,W,1,08,0.97,142.3,M,-34.1,M,,*51
4,0,0.05,0.43,0.05,0.50,-0.13,-4.19,0.4370,-0.1327,-0.0352,-0.8889,$GPGGA,171353.200,4041.0361,N,07423.2917,W,1,08,0.97,142.3,M,-34.1,M,,*5D
5,0,0.02,0.30,0.40,-0.56,0.06,-3.44,0.4340,-0.1315,-0.0365,-0.8905,$GPGGA,171353.300,4041.0364,N,07423.2914,W,1,08,0.97,142.3,M,-34.1,M,,*5A
6,0,0.11,0.41,0.25,-0.69,-0.13,-2.75,0.4311,-0.1293,-0.0416,-0.8920,$GPGGA,171353.400,4041.0366,N,07423.2911,W,1,08,0.97,142.3,M,-34.1,M,,*5A
7,0,0.04,0.45,0.05,-0.13,1.25,-2.12,0.4289,-0.1275,-0.0443,-0.8932,$GPGGA,171353.500,4041.0369,N,07423.2908,W,1,08,0.97,142.3,M,-34.1,M,,*5C
8,0,-0.09,0.59,0.18,-1.37,0.75,-1.62,0.4274,-0.1257,-0.0454,-0.8942,$GPGGA,171353.600,4041.0371,N,07423.2905,W,1,08,0.97,142.3,M,-34.1,M,,*5B
9,0,0.08,0.48,-0.51,-0.37,0.94,-1.19,0.4261,-0.1245,-0.0467,-0.8948,$GPGGA,171353.700,4041.0374,N,07423.2902,W,1,08,0.97,142.3,M,-34.1,M,,*58
10,0,-0.11,0.36,0.07,-0.50,-0.50,-1.06,0.4251,-0.1238,-0.0478,-0.8954,$GPGGA,171353.800,4041.0376,N,07423.2898,W,1,08,0.95,142.3,M,-34.1,M,,*55
11,0,-0.28,0.44,0.19,-1.31,0.37,-0.94,0.4241,-0.1229,-0.0485,-0.8959,$GPGGA,171353.900,4041.0379,N,07423.2893,W,1,08,0.95,142.4,M,-34.1,M,,*57
12,0,-0.70,0.42,0.29,0.25,0.81,-0.81,0.4233,-0.1218,-0.0485,-0.8965,$GPGGA,171354.000,4041.0381,N,07423.2889,W,1,08,0.97,142.4,M,-34.1,M,,*57
13,0,-0.84,0.57,0.63,-0.37,1.44,-0.31,0.4230,-0.1196,-0.0480,-0.8969,$GPGGA,171354.100,4041.0384,N,07423.2885,W,1,08,0.97,142.4,M,-34.1,M,,*5F
14,0,-0.80,0.39,0.10,0.37,0.56,-0.31,0.4230,-0.1189,-0.0477,-0.8970,$GPGGA,171354.200,4041.0387,N,07423.2880,W,1,08,0.97,142.4,M,-34.1,M,,*5A
15,0,-0.57,0.17,0.22,-0.31,0.44,-0.37,0.4230,-0.1141,-0.0481,-0.8976,$GPGGA,171354.300,4041.0391,N,07423.2875,W,1,08,0.97,142.4,M,-34.1,M,,*56
16,0,-0.78,0.25,0.73,-0.13,0.25,-0.56,0.4229,-0.1105,-0.0488,-0.8981,$GPGGA,171354.400,4041.0394,N,07423.2870,W,1,08,0.97,142.4,M,-34.1,M,,*51
17,0,-0.66,0.48,0.45,-0.56,0.19,-0.62,0.4227,-0.1086,-0.0485,-0.8984,$GPGGA,171354.500,4041.0398,N,07423.2864,W,1,08,0.97,142.4,M,-34.1,M,,*59
18,0,-0.39,0.31,-0.26,-0.62,-0.31,-0.50,0.4226,-0.1064,-0.0484,-0.8987,$GPGGA,171354.600,4041.0402,N,07423.2859,W,1,08,0.95,142.4,M,-34.1,M,,*52
19,0,-0.15,0.32,-0.21,-0.81,0.06,-0.44,0.4224,-0.1055,-0.0485,-0.8989,$GPGGA,171354.700,4041.0406,N,07423.2853,W,1,08,0.95,142.4,M,-34.1,M,,*5D
20,0,-0.07,0.25,0.24,-0.75,0.62,-0.56,0.4224,-0.1038,-0.0485,-0.8992,$GPGGA,171354.800,4041.0409,N,07423.2847,W,1,08,0.97,142.4,M,-34.1,M,,*5A
21,0,-0.11,0.23,0.08,-0.88,0.75,-0.56,0.4220,-0.1011,-0.0485,-0.8997,$GPGGA,171354.900,4041.0413,N,07423.2841,W,1,08,0.97,142.4,M,-34.1,M,,*56
22,0,0.25,0.29,0.22,-0.25,0.56,-0.50,0.4219,-0.1007,-0.0483,-0.8997,$GPGGA,171355.000,4041.0416,N,07423.2835,W,1,08,0.97,142.5,M,-34.1,M,,*59
23,0,-0.05,0.13,0.32,-0.37,0.25,-0.62,0.4216,-0.1005,-0.0485,-0.8999,$GPGGA,171355.100,4041.0420,N,07423.2828,W,1,08,0.97,142.5,M,-34.1,M,,*51
24,0,-0.10,0.28,-0.40,-0.25,0.19,-0.62,0.4210,-0.0993,-0.0489,-0.9003,$GPGGA,171355.200,4041.0423,N,07423.2821,W,1,08,0.97,142.5,M,-34.1,M,,*58
25,0,-0.04,0.24,-0.34,0.50,0.37,-0.62,0.4205,-0.0984,-0.0490,-0.9006,$GPGGA,171355.300,4041.0426,N,07423.2814,W,1,08,0.97,142.5,M,-34.1,M,,*5A
26,0,-0.04,0.02,0.04,-0.31,0.62,-0.56,0.4202,-0.0974,-0.0488,-0.9009,$GPGGA,171355.400,4041.0430,N,07423.2808,W,1,08,0.97,142.5,M,-34.1,M,,*57
27,0,-0.25,-0.13,-0.35,-0.19,0.81,-0.62,0.4198,-0.0964,-0.0491,-0.9011,$GPGGA,171355.500,4041.0433,N,07423.2802,W,1,08,0.97,142.5,M,-34.1,M,,*5F
28,0,-0.25,0.21,-0.27,-0.56,1.31,-0.75,0.4196,-0.0948,-0.0491,-0.9014,$GPGGA,171355.600,4041.0436,N,07423.2796,W,1,08,0.97,142.5,M,-34.1,M,,*5B
29,0,-0.19,0.11,0.15,-0.19,0.19,-0.44,0.4193,-0.0937,-0.0494,-0.9016,$GPGGA,171355.700,4041.0439,N,07423.2790,W,1,08,0.97,142.5,M,-34.1,M,,*53
30,0,-0.24,0.05,0.10,0.69,-0.88,-0.56,0.4191,-0.0934,-0.0500,-0.9017,$GPGGA,171355.800,4041.0443,N,07423.2784,W,1,08,0.97,142.5,M,-34.1,M,,*54
31,0,-0.06,0.14,0.11,-0.56,-1.37,-0.44,0.4191,-0.0944,-0.0505,-0.9016,$GPGGA,171355.900,4041.0446,N,07423.2777,W,1,08,0.97,142.5,M,-34.1,M,,*5C
32,0,-0.09,0.25,0.24,0.25,0.50,-0.81,0.4189,-0.0935,-0.0507,-0.9018,$GPGGA,171356.000,4041.0449,N,07423.2771,W,1,08,0.97,142.6,M,-34.1,M,,*5C
33,0,-0.30,0.15,-0.14,-1.25,1.75,-0.88,0.4183,-0.0921,-0.0502,-0.9022,$GPGGA,171356.100,4041.0453,N,07423.2764,W,1,08,0.97,142.6,M,-34.1,M,,*52
34,0,-0.12,-0.16,-0.23,-0.19,0.50,-0.94,0.4177,-0.0913,-0.0492,-0.9026,$GPGGA,171356.200,4041.0456,N,07423.2758,W,1,08,0.97,142.6,M,-34.1,M,,*5B
35,0,-0.32,0.22,-0.01,0.00,0.62,-0.81,0.4170,-0.0909,-0.0490,-0.9030,$GPGGA,171356.300,4041.0460,N,07423.2752,W,1,08,0.97,142.6,M,-34.1,M,,*55
36,0,-0.07,0.32,-0.58,0.44,0.50,-0.88,0.4164,-0.0906,-0.0491,-0.9033,$GPGGA,171356.400,4041.0463,N,07423.2745,W,1,08,0.97,142.6,M,-34.1,M,,*57
37,0,-0.24,0.08,0.12,0.44,-0.13,-0.81,0.4159,-0.0900,-0.0496,-0.9036,$GPGGA,171356.500,4041.0467,N,07423.2739,W,1,08,0.97,142.7,M,-34.1,M,,*58
38,0,-0.02,0.03,0.03,-1.12,0.31,-0.69,0.4153,-0.0901,-0.0493,-0.9039,$GPGGA,171356.600,4041.0470,N,07423.2732,W,1,08,0.97,142.7,M,-34.1,M,,*56
39,0,-0.47,0.09,0.31,-0.81,1.00,-0.88,0.4147,-0.0895,-0.0491,-0.9042,$GPGGA,171356.700,4041.0474,N,07423.2725,W,1,08,0.95,142.7,M,-34.1,M,,*57
40,0,-0.25,0.20,0.06,-0.50,1.44,-0.88,0.4140,-0.0882,-0.0488,-0.9047,$GPGGA,171356.800,4041.0478,N,07423.2718,W,1,08,0.95,142.7,M,-34.1,M,,*5A
41,0,-0.29,0.01,0.10,0.19,0.56,-0.62,0.4135,-0.0868,-0.0485,-0.9051,$GPGGA,171356.900,4041.0482,N,07423.2711,W,1,08,0.95,142.8,M,-34.1,M,,*58
42,0,-0.41,-0.01,0.25,0.62,-0.13,-0.62,0.4130,-0.0841,-0.0480,-0.9056,$GPGGA,171357.000,4041.0486,N,07423.2704,W,1,08,0.95,142.8,M,-34.1,M,,*50
43,0,-0.49,0.32,0.47,-0.62,-0.13,-0.69,0.4125,-0.0831,-0.0479,-0.9059,$GPGGA,171357.100,4041.0489,N,07423.2696,W,1,08,0.97,142.8,M,-34.1,M,,*56
44,0,-0.21,-0.04,-0.11,-0.44,0.13,-1.00,0.4118,-0.0797,-0.0477,-0.9066,$GPGGA,171357.200,4041.0493,N,07423.2688,W,1,08,0.97,142.8,M,-34.1,M,,*51
45,0,-0.47,0.16,-0.10,-1.31,0.94,-0.94,0.4110,-0.0773,-0.0468,-0.9071,$GPGGA,171357.300,4041.0496,N,07423.2680,W,1,08,0.97,142.9,M,-34.1,M,,*5C
46,0,-0.29,-0.31,-0.19,-1.12,0.25,-1.00,0.4103,-0.0759,-0.0450,-0.9077,$GPGGA,171357.400,4041.0500,N,07423.2672,W,1,08,0.97,142.9,M,-34.1,M,,*58
47,0,-0.48,0.32,-0.60,-0.75,-0.13,-0.88,0.4096,-0.0751,-0.0441,-0.9081,$GPGGA,171357.500,4041.0504,N,07423.2664,W,1,08,0.97,142.9,M,-34.1,M,,*5A
48,0,-0.42,-0.04,-0.17,0.37,-0.25,-1.06,0.4089,-0.0746,-0.0432,-0.9085,$GPGGA,171357.600,4041.0508,N,07423.2656,W,1,08,0.95,143.0,M,-34.1,M,,*5E
49,0,-0.18,-0.26,-0.04,-1.00,0.56,-1.00,0.4081,-0.0738,-0.0429,-0.9089,$GPGGA,171357.700,4041.0512,N,07423.2648,W,1,08,0.97,143.0,M,-34.1,M,,*59
50,0,-0.38,0.09,-0.30,-0.25,0.31,-0.81,0.4074,-0.0727,-0.0423,-0.9094,$GPGGA,171357.800,4041.0516,N,07423.2639,W,1,08,0.97,143.0,M,-34.1,M,,*54
51,0,-0.05,0.17,0.06,-0.75,-0.44,-1.00,0.4066,-0.0729,-0.0421,-0.9097,$GPGGA,171357.900,4041.0520,N,07423.2631,W,1,08,0.95,143.0,M,-34.1,M,,*5A
52,0,0.46,-0.26,-0.25,-0.13,-1.00,-1.12,0.4058,-0.0736,-0.0424,-0.9100,$GPGGA,171358.000,4041.0524,N,07423.2622,W,1,08,0.95,143.0,M,-34.1,M,,*5A
53,0,0.47,-0.21,0.38,0.06,-0.44,-1.12,0.4050,-0.0748,-0.0430,-0.9103,$GPGGA,171358.100,4041.0528,N,07423.2612,W,1,08,0.97,143.0,M,-34.1,M,,*56
54,0,0.54,0.06,-0.39,-0.13,-0.44,-0.94,0.4041,-0.0759,-0.0433,-0.9105,$GPGGA,171358.200,4041.0533,N,07423.2603,W,1,08,0.97,143.0,M,-34.1,M,,*5F
55,0,-0.04,-0.24,-0.62,-0.13,0.88,-1.06,0.4034,-0.0757,-0.0432,-0.9109,$GPGGA,171358.300,4041.0538,N,07423.2594,W,1,08,0.97,143.0,M,-34.1,M,,*58
56,0,0.00,0.18,0.08,-0.62,0.25,-1.19,0.4025,-0.0756,-0.0431,-0.9113,$GPGGA,171358.400,4041.0543,N,07423.2584,W,1,08,0.97,143.1,M,-34.1,M,,*53
57,0,-0.16,0.19,0.18,-0.69,0.56,-1.00,0.4017,-0.0757,-0.0427,-0.9116,$GPGGA,171358.500,4041.0548,N,07423.2575,W,1,08,0.97,143.1,M,-34.1,M,,*57
58,0,-0.24,-0.13,-0.12,-0.88,-0.06,-1.06,0.4008,-0.0759,-0.0422,-0.9120,$GPGGA,171358.600,4041.0553,N,07423.2566,W,1,08,0.95,143.1,M,-34.1,M,,*5E
59,0,0.09,-0.05,-0.04,-0.94,0.00,-1.25,0.3998,-0.0759,-0.0418,-0.9125,$GPGGA,171358.700,4041.0557,N,07423.2557,W,1,08,0.95,143.1,M,-34.1,M,,*59
60,0,-0.01,-0.25,0.31,0.75,0.25,-1.19,0.3989,-0.0759,-0.0417,-0.9129,$GPGGA,171358.800,4041.0562,N,07423.2549,W,1,08,0.95,143.1,M,-34.1,M,,*5F
61,0,-0.15,0.15,-0.01,0.00,-0.37,-1.25,0.3980,-0.0756,-0.0416,-0.9133,$GPGGA,171358.900,4041.0566,N,07423.2540,W,1,08,0.95,143.1,M,-34.1,M,,*53
62,0,-0.07,0.00,0.01,-0.88,-0.19,-1.12,0.3971,-0.0756,-0.0414,-0.9137,$GPGGA,171359.000,4041.0571,N,07423.2531,W,1,08,0.97,143.1,M,-34.1,M,,*59
63,0,-0.06,-0.03,0.15,-0.25,1.62,-1.19,0.3962,-0.0746,-0.0408,-0.9142,$GPGGA,171359.100,4041.0576,N,07423.2521,W,1,08,0.97,143.1,M,-34.1,M,,*5E
64,0,-0.29,-0.43,0.00,0.06,1.50,-1.50,0.3953,-0.0732,-0.0403,-0.9147,$GPGGA,171359.200,4041.0581,N,07423.2512,W,1,08,0.97,143.1,M,-34.1,M,,*55
65,0,-0.16,-0.26,-0.16,0.00,-0.75,-1.12,0.3943,-0.0732,-0.0405,-0.9152,$GPGGA,171359.300,4041.0586,N,07423.2502,W,1,08,0.97,143.1,M,-34.1,M,,*52
66,0,-0.05,0.22,0.26,2.12,-0.06,-1.00,0.3936,-0.0724,-0.0405,-0.9155,$GPGGA,171359.400,4041.0592,N,07423.2493,W,1,08,0.97,143.1,M,-34.1,M,,*59
67,0,-0.12,-0.25,-0.54,0.19,1.37,-1.00,0.3928,-0.0714,-0.0413,-0.9160,$GPGGA,171359.500,4041.0596,N,07423.2483,W,1,08,0.97,143.2,M,-34.1,M,,*5E
68,0,-0.28,-0.10,-0.73,0.94,1.69,-1.12,0.3920,-0.0698,-0.0419,-0.9164,$GPGGA,171359.600,4041.0601,N,07423.2473,W,1,08,0.95,143.2,M,-34.1,M,,*5D
69,0,-0.53,-0.52,-0.23,1.00,0.69,-1.06,0.3911,-0.0688,-0.0422,-0.9168,$GPGGA,171359.700,4041.0606,N,07423.2464,W,1,08,0.97,143.2,M,-34.1,M,,*5F
70,0,-0.36,-0.16,0.74,1.06,-3.00,-1.50,0.3900,-0.0698,-0.0432,-0.9172,$GPGGA,171359.800,4041.0611,N,07423.2454,W,1,08,0.97,143.2,M,-34.1,M,,*55
71,0,-0.10,0.36,1.47,-0.62,-2.81,-1.31,0.3888,-0.0724,-0.0447,-0.9174,$GPGGA,171359.900,4041.0616,N,07423.2445,W,1,08,0.97,143.3,M,-34.1,M,,*52
72,0,0.00,0.08,-0.08,-0.19,-0.94,-1.12,0.3878,-0.0737,-0.0445,-0.9177,$GPGGA,171400.000,4041.0622,N,07423.2435,W,1,08,0.97,143.3,M,-34.1,M,,*50
73,0,0.06,0.00,0.02,-2.25,-0.56,-1.31,0.3867,-0.0745,-0.0436,-0.9182,$GPGGA,171400.100,4041.0627,N,07423.2426,W,1,08,0.97,143.3,M,-34.1,M,,*56
74,0,0.36,0.13,-0.43,-2.19,-0.13,-1.37,0.3855,-0.0750,-0.0422,-0.9187,$GPGGA,171400.200,4041.0633,N,07423.2416,W,1,08,0.97,143.4,M,-34.1,M,,*54
75,0,-0.06,-0.73,0.34,-0.75,-1.00,-1.00,0.3844,-0.0759,-0.0414,-0.9191,$GPGGA,171400.300,4041.0639,N,07423.2406,W,1,08,0.97,143.4,M,-34.1,M,,*5E
76,0,-0.31,0.36,0.36,-1.50,-1.94,-0.88,0.3835,-0.0774,-0.0416,-0.9194,$GPGGA,171400.400,4041.0645,N,07423.2396,W,1,08,0.97,143.4,M,-34.1,M,,*5C
77,0,0.07,0.13,0.34,-0.13,0.50,-0.81,0.3827,-0.0782,-0.0414,-0.9196,$GPGGA,171400.500,4041.0651,N,07423.2386,W,1,07,1.04,143.4,M,-34.1,M,,*5D
78,0,-0.30,0.05,0.12,-2.75,1.94,-1.00,0.3818,-0.0783,-0.0390,-0.9201,$GPGGA,171400.600,4041.0656,N,07423.2377,W,1,08,0.95,143.5,M,-34.1,M,,*50
79,0,-0.06,0.28,-0.63,-3.37,2.62,-1.12,0.3809,-0.0769,-0.0369,-0.9207,$GPGGA,171400.700,4041.0662,N,07423.2366,W,1,08,0.97,143.5,M,-34.1,M,,*54
80,0,-0.33,-0.18,-0.68,-0.06,0.44,-1.25,0.3799,-0.0760,-0.0350,-0.9213,$GPGGA,171400.800,4041.0668,N,07423.2356,W,1,07,1.02,143.5,M,-34.1,M,,*50
81,0,-0.31,-0.45,0.00,1.12,0.25,-1.00,0.3791,-0.0751,-0.0354,-0.9216,$GPGGA,171400.900,4041.0674,N,07423.2346,W,1,08,0.97,143.5,M,-34.1,M,,*5F
82,0,-0.33,-0.29,0.72,3.75,-1.81,-0.94,0.3785,-0.0749,-0.0379,-0.9218,$GPGGA,171401.000,4041.0680,N,07423.2335,W,1,08,0.97,143.6,M,-34.1,M,,*5B
83,0,-0.26,0.56,0.86,1.69,-2.31,-1.06,0.3779,-0.0753,-0.0399,-0.9219,$GPGGA,171401.100,4041.0686,N,07423.2324,W,1,08,0.97,143.6,M,-34.1,M,,*5C
84,0,-0.52,0.16,0.16,-2.31,-2.19,-1.25,0.3770,-0.0770,-0.0403,-0.9221,$GPGGA,171401.200,4041.0692,N,07423.2314,W,1,08,0.97,143.6,M,-34.1,M,,*59
85,0,-0.54,-0.27,-0.29,-0.88,0.44,-1.56,0.3759,-0.0754,-0.0395,-0.9227,$GPGGA,171401.300,4041.0698,N,07423.2303,W,1,08,0.97,143.6,M,-34.1,M,,*54
86,0,-0.61,-0.38,-0.52,-1.31,0.50,-1.25,0.3747,-0.0755,-0.0381,-0.9233,$GPGGA,171401.400,4041.0704,N,07423.2292,W,1,08,0.97,143.7,M,-34.1,M,,*5F
87,0,-0.63,0.23,0.03,0.19,0.37,-0.88,0.3738,-0.0753,-0.0375,-0.9236,$GPGGA,171401.500,4041.0710,N,07423.2281,W,1,07,1.04,143.7,M,-34.1,M,,*5D
88,0,-0.69,-0.18,0.52,-0.75,-0.25,-1.06,0.3730,-0.0754,-0.0372,-0.9240,$GPGGA,171401.600,4041.0717,N,07423.2269,W,1,08,0.97,143.8,M,-34.1,M,,*54
89,0,-0.94,-0.49,0.55,-1.69,0.31,-1.19,0.3721,-0.0757,-0.0366,-0.9244,$GPGGA,171401.700,4041.0723,N,07423.2258,W,1,08,0.95,143.8,M,-34.1,M,,*52
90,0,-0.94,0.05,-1.39,-2.31,0.94,-1.25,0.3711,-0.0756,-0.0356,-0.9248,$GPGGA,171401.800,4041.0729,N,07423.2247,W,1,08,0.95,143.9,M,-34.1,M,,*58
91,0,-1.10,-0.24,0.20,0.19,1.00,-1.37,0.3702,-0.0746,-0.0350,-0.9253,$GPGGA,171401.900,4041.0735,N,07423.2236,W,1,07,1.02,143.9,M,-34.1,M,,*52
92,0,-0.93,-0.38,0.20,0.19,-0.13,-1.00,0.3693,-0.0743,-0.0347,-0.9257,$GPGGA,171402.000,4041.0742,N,07423.2225,W,1,08,0.97,143.9,M,-34.1,M,,*58
93,0,-0.76,-0.37,0.21,0.62,0.25,-1.06,0.3686,-0.0731,-0.0346,-0.9261,$GPGGA,171402.100,4041.0748,N,07423.2214,W,1,08,0.97,144.0,M,-34.1,M,,*5F
94,0,-0.65,0.42,-0.44,1.44,-0.13,-0.88,0.3678,-0.0718,-0.0350,-0.9265,$GPGGA,171402.200,4041.0754,N,07423.2203,W,1,08,0.97,144.0,M,-34.1,M,,*57
95,0,-0.64,-0.09,0.37,0.50,0.25,-1.06,0.3669,-0.0709,-0.0352,-0.9269,$GPGGA,171402.300,4041.0761,N,07423.2191,W,1,08,0.97,144.1,M,-34.1,M,,*59
96,0,-1.00,-0.30,0.16,-0.37,0.69,-1.31,0.3660,-0.0706,-0.0352,-0.9273,$GPGGA,171402.400,4041.0767,N,07423.2180,W,1,08,0.97,144.1,M,-34.1,M,,*58
97,0,-0.81,-0.14,0.38,-1.12,0.25,-0.94,0.3651,-0.0679,-0.0349,-0.9279,$GPGGA,171402.500,4041.0773,N,07423.2169,W,1,08,0.97,144.1,M,-34.1,M,,*5B
98,0,-0.56,0.60,0.03,0.56,0.06,-0.62,0.3644,-0.0671,-0.0347,-0.9282,$GPGGA,171402.600,4041.0779,N,07423.2157,W,1,08,0.95,144.2,M,-34.1,M,,*5E
99,0,-0.57,0.09,-0.08,-0.13,0.56,-0.25,0.3644,-0.0671,-0.0347,-0.9282,$GPGGA,171402.700,4041.0786,N,07423.2146,W,1,08,0.97,144.2,M,-34.1,M,,*5D
100,0,-0.68,0.15,-0.06,-0.44,0.37,-0.31,0.3644,-0.0670,-0.0345,-0.9282,$GPGGA,171402.800,4041.0792,N,07423.2134,W,1,08,0.97,144.2,M,-34.1,M,,*52
101,0,-0.97,0.24,-0.06,0.62,0.31,-0.56,0.3644,-0.0671,-0.0344,-0.9282,$GPGGA,171402.900,4041.0798,N,07423.2122,W,1,08,0.95,144.3,M,-34.1,M,,*5D
102,0,-0.68,-0.26,-0.18,0.56,0.25,-0.50,0.3643,-0.0627,-0.0338,-0.9285,$GPGGA,171403.000,4041.0805,N,07423.2109,W,1,08,0.95,144.2,M,-34.1,M,,*56
103,0,-0.59,0.01,-0.29,1.50,0.50,-0.31,0.3644,-0.0605,-0.0339,-0.9286,$GPGGA,171403.100,4041.0812,N,07423.2096,W,1,08,0.97,144.2,M,-34.1,M,,*54
104,0,-0.54,0.59,-0.87,1.62,0.44,-0.31,0.3644,-0.0568,-0.0349,-0.9288,$GPGGA,171403.200,4041.0818,N,07423.2083,W,1,08,0.97,144.2,M,-34.1,M,,*59
105,0,-0.52,0.41,-0.42,0.44,-0.06,-0.44,0.3644,-0.0566,-0.0354,-0.9288,$GPGGA,171403.300,4041.0824,N,07423.2072,W,1,08,0.97,144.3,M,-34.1,M,,*58
106,0,-0.45,-0.36,0.25,-2.00,0.19,-0.56,0.3643,-0.0557,-0.0350,-0.9290,$GPGGA,171403.400,4041.0830,N,07423.2061,W,1,08,0.97,144.3,M,-34.1,M,,*58
107,0,-0.50,0.23,-0.07,-1.87,0.31,-0.69,0.3639,-0.0563,-0.0335,-0.9291,$GPGGA,171403.500,4041.0836,N,07423.2049,W,1,08,0.97,144.3,M,-34.1,M,,*55
108,0,-0.35,-0.40,0.28,0.06,-0.06,-0.44,0.3635,-0.0566,-0.0327,-0.9293,$GPGGA,171403.600,4041.0842,N,07423.2038,W,1,08,0.95,144.4,M,-34.1,M,,*56
109,0,-0.47,-0.07,-0.11,0.31,-0.62,-0.37,0.3635,-0.0564,-0.0324,-0.9293,$GPGGA,171403.700,4041.0848,N,07423.2026,W,1,08,0.97,144.4,M,-34.1,M,,*50
110,0,-0.47,-0.07,0.01,0.31,0.19,-0.06,0.3635,-0.0544,-0.0323,-0.9294,$GPGGA,171403.800,4041.0854,N,07423.2014,W,1,08,0.97,144.4,M,-34.1,M,,*53
111,0,-0.44,0.50,-0.69,-0.56,0.69,-0.25,0.3636,-0.0540,-0.0323,-0.9294,$GPGGA,171403.900,4041.0860,N,07423.2003,W,1,08,0.97,144.5,M,-34.1,M,,*52
112,0,-0.49,-0.07,-0.25,-0.13,0.69,-0.44,0.3636,-0.0535,-0.0320,-0.9294,$GPGGA,171404.000,4041.0867,N,07423.1991,W,1,08,0.97,144.5,M,-34.1,M,,*5A
113,0,-0.60,-0.24,-0.38,1.06,-0.31,-0.62,0.3635,-0.0530,-0.0324,-0.9295,$GPGGA,171404.100,4041.0873,N,07423.1979,W,1,08,0.97,144.5,M,-34.1,M,,*58
114,0,-0.39,0.15,-0.56,0.56,0.56,-0.37,0.3635,-0.0527,-0.0333,-0.9295,$GPGGA,171404.200,4041.0879,N,07423.1968,W,1,08,0.97,144.6,M,-34.1,M,,*52
115,0,-0.61,-0.46,-0.35,-2.94,1.19,-0.62,0.3633,-0.0521,-0.0305,-0.9297,$GPGGA,171404.300,4041.0885,N,07423.1956,W,1,08,0.97,144.6,M,-34.2,M,,*5E
116,0,-0.63,0.12,-0.49,-4.19,1.44,-0.37,0.3631,-0.0521,-0.0277,-0.9299,$GPGGA,171404.400,4041.0892,N,07423.1944,W,1,08,0.97,144.6,M,-34.2,M,,*5C
117,0,-0.29,0.84,-0.38,-4.06,0.00,-0.81,0.3628,-0.0518,-0.0265,-0.9301,$GPGGA,171404.500,4041.0898,N,07423.1933,W,1,08,0.97,144.6,M,-34.2,M,,*57
118,0,-0.64,-0.07,-0.28,-1.31,0.44,-0.81,0.3622,-0.0519,-0.0256,-0.9303,$GPGGA,171404.600,4041.0904,N,07423.1921,W,1,08,0.95,144.7,M,-34.2,M,,*50
119,0,-0.44,0.41,-0.31,-1.56,1.00,-0.62,0.3615,-0.0522,-0.0237,-0.9306,$GPGGA,171404.700,4041.0910,N,07423.1910,W,1,08,0.95,144.7,M,-34.2,M,,*56
120,0,-0.60,-0.34,-0.39,-0.06,1.06,-0.75,0.3608,-0.0514,-0.0230,-0.9310,$GPGGA,171404.800,4041.0916,N,07423.1898,W,1,08,0.95,144.7,M,-34.2,M,,*5E
121,0,-0.52,-0.55,0.63,0.88,-1.56,-0.75,0.3602,-0.0518,-0.0226,-0.9312,$GPGGA,171404.900,4041.0923,N,07423.1886,W,1,08,0.97,144.8,M,-34.2,M,,*5B
122,0,-0.52,0.16,0.17,0.00,-0.19,-0.94,0.3596,-0.0523,-0.0231,-0.9314,$GPGGA,171405.000,4041.0929,N,07423.1874,W,1,08,0.97,144.8,M,-34.2,M,,*54
123,0,-0.51,0.44,-0.48,0.06,0.75,-1.06,0.3589,-0.0504,-0.0233,-0.9317,$GPGGA,171405.100,4041.0936,N,07423.1863,W,1,08,0.97,144.8,M,-34.2,M,,*5D
124,0,-0.47,0.07,-0.46,-0.31,1.87,-1.06,0.3582,-0.0490,-0.0230,-0.9321,$GPGGA,171405.200,4041.0943,N,07423.1850,W,1,08,0.97,144.8,M,-34.2,M,,*5C
125,0,-0.47,0.14,-1.00,0.62,1.87,-0.75,0.3575,-0.0471,-0.0225,-0.9325,$GPGGA,171405.300,4041.0949,N,07423.1838,W,1,08,0.97,144.8,M,-34.2,M,,*59
126,0,-0.48,0.40,-0.48,-0.31,0.56,-0.69,0.3568,-0.0462,-0.0221,-0.9327,$GPGGA,171405.400,4041.0956,N,07423.1826,W,1,08,0.97,144.8,M,-34.2,M,,*5F
127,0,-0.69,-0.09,0.16,-0.88,-0.44,-0.75,0.3563,-0.0463,-0.0217,-0.9330,$GPGGA,171405.500,4041.0962,N,07423.1814,W,1,08,0.97,144.8,M,-34.2,M,,*58
128,0,-0.62,0.69,0.25,-0.81,0.50,-0.69,0.3558,-0.0465,-0.0212,-0.9332,$GPGGA,171405.600,4041.0969,N,07423.1801,W,1,08,0.95,144.8,M,-34.2,M,,*56
129,0,-0.30,0.73,-0.46,-2.56,0.88,-0.75,0.3553,-0.0464,-0.0197,-0.9334,$GPGGA,171405.700,4041.0976,N,07423.1789,W,1,08,0.95,144.7,M,-34.2,M,,*59
130,0,-0.52,-0.18,-0.75,-1.75,0.69,-0.50,0.3549,-0.0460,-0.0178,-0.9336,$GPGGA,171405.800,4041.0983,N,07423.1776,W,1,08,0.97,144.7,M,-34.2,M,,*5E
131,0,-0.53,0.84,-0.40,-1.25,0.56,-0.31,0.3549,-0.0462,-0.0166,-0.9337,$GPGGA,171405.900,4041.0990,N,07423.1763,W,1,08,0.97,144.7,M,-34.2,M,,*59
132,0,-0.54,0.69,-0.60,-0.75,0.88,-0.44,0.3548,-0.0460,-0.0156,-0.9337,$GPGGA,171406.000,4041.0998,N,07423.1750,W,1,08,0.97,144.7,M,-34.2,M,,*5B
133,0,-0.53,-0.49,-0.44,-1.25,1.00,-0.25,0.3548,-0.0452,-0.0149,-0.9337,$GPGGA,171406.100,4041.1005,N,07423.1737,W,1,08,0.97,144.7,M,-34.2,M,,*57
134,0,-0.56,0.26,-0.06,0.56,-0.37,-0.31,0.3548,-0.0450,-0.0146,-0.9338,$GPGGA,171406.200,4041.1012,N,07423.1724,W,1,08,0.97,144.6,M,-34.2,M,,*51
135,0,-0.49,-0.34,-0.17,-0.19,-0.69,-0.31,0.3548,-0.0457,-0.0148,-0.9337,$GPGGA,171406.300,4041.1020,N,07423.1711,W,1,08,0.97,144.6,M,-34.2,M,,*57
136,0,-0.25,-0.17,-0.28,-0.37,0.62,-0.50,0.3548,-0.0457,-0.0150,-0.9337,$GPGGA,171406.400,4041.1027,N,07423.1699,W,1,08,0.97,144.6,M,-34.2,M,,*56
137,0,-0.24,0.60,-0.45,-0.31,2.25,-0.37,0.3548,-0.0444,-0.0141,-0.9338,$GPGGA,171406.500,4041.1034,N,07423.1687,W,1,08,0.97,144.6,M,-34.2,M,,*5A
138,0,-0.29,-0.14,-0.75,-1.37,1.44,-0.56,0.3547,-0.0425,-0.0130,-0.9339,$GPGGA,171406.600,4041.1041,N,07423.1674,W,1,08,0.97,144.6,M,-34.2,M,,*57
139,0,-0.29,0.55,-0.31,-0.44,1.00,-0.50,0.3547,-0.0411,-0.0123,-0.9340,$GPGGA,171406.700,4041.1047,N,07423.1662,W,1,08,0.97,144.6,M,-34.2,M,,*57
140,0,-0.52,0.53,-0.34,0.00,-0.06,-0.19,0.3547,-0.0404,-0.0122,-0.9340,$GPGGA,171406.800,4041.1054,N,07423.1651,W,1,08,0.97,144.6,M,-34.2,M,,*5A
141,0,-0.35,0.26,0.34,-1.37,-0.25,0.06,0.3547,-0.0397,-0.0114,-0.9341,$GPGGA,171406.900,4041.1060,N,07423.1639,W,1,08,0.97,144.7,M,-34.2,M,,*53
142,0,-0.34,0.61,-0.09,-0.69,0.06,0.00,0.3546,-0.0377,-0.0122,-0.9341,$GPGGA,171407.000,4041.1067,N,07423.1627,W,1,08,0.97,144.7,M,-34.2,M,,*53
143,0,-0.44,-0.05,-0.35,-1.06,0.88,0.19,0.3546,-0.0376,-0.0118,-0.9342,$GPGGA,171407.100,4041.1073,N,07423.1615,W,1,08,0.97,144.7,M,-34.2,M,,*56
144,0,-0.37,-0.24,-0.38,-0.50,0.56,0.31,0.3546,-0.0356,-0.0128,-0.9343,$GPGGA,171407.200,4041.1079,N,07423.1603,W,1,08,0.97,144.7,M,-34.2,M,,*58
145,0,-0.35,0.45,-0.46,0.62,0.19,0.25,0.3546,-0.0353,-0.0129,-0.9343,$GPGGA,171407.300,4041.1086,N,07423.1592,W,1,08,0.97,144.7,M,-34.2,M,,*52
146,0,-0.28,-0.17,-0.27,-1.31,0.37,0.19,0.3546,-0.0350,-0.0132,-0.9343,$GPGGA,171407.400,4041.1092,N,07423.1580,W,1,08,0.97,144.8,M,-34.2,M,,*5C
147,0,-0.35,0.39,-0.65,-1.31,1.75,0.25,0.3546,-0.0344,-0.0121,-0.9343,$GPGGA,171407.500,4041.1098,N,07423.1568,W,1,08,0.97,144.8,M,-34.2,M,,*51
148,0,-0.20,0.89,-0.87,-2.25,1.81,0.25,0.3545,-0.0324,-0.0110,-0.9344,$GPGGA,171407.600,4041.1105,N,07423.1556,W,1,08,0.95,144.8,M,-34.2,M,,*58
149,0,-0.29,-0.19,-0.04,-2.19,0.06,0.19,0.3544,-0.0323,-0.0093,-0.9344,$GPGGA,171407.700,4041.1111,N,07423.1544,W,1,08,0.95,144.8,M,-34.2,M,,*5F
150,0,-0.34,0.68,0.00,-0.44,-0.37,0.50,0.3544,-0.0327,-0.0084,-0.9345,$GPGGA,171407.800,4041.1118,N,07423.1532,W,1,08,0.95,144.8,M,-34.2,M,,*58
151,0,-0.18,0.35,0.08,-0.75,-0.75,0.44,0.3544,-0.0325,-0.0086,-0.9345,$GPGGA,171407.900,4041.1124,N,07423.1520,W,1,08,0.95,144.9,M,-34.2,M,,*54
152,0,-0.06,0.58,-0.21,-1.25,0.94,0.50,0.3544,-0.0316,-0.0089,-0.9345,$GPGGA,171408.000,4041.1130,N,07423.1508,W,1,08,0.95,144.9,M,-34.2,M,,*5D
153,0,-0.42,0.34,-1.06,-0.06,1.69,0.50,0.3547,-0.0302,-0.0091,-0.9344,$GPGGA,171408.100,4041.1136,N,07423.1496,W,1,08,0.95,144.9,M,-34.2,M,,*5C
154,0,0.06,0.00,-0.38,0.00,1.37,0.50,0.3549,-0.0287,-0.0088,-0.9344,$GPGGA,171408.200,4041.1143,N,07423.1484,W,1,08,0.95,144.9,M,-34.2,M,,*5E
155,0,-0.18,0.48,-0.38,0.88,0.31,0.62,0.3551,-0.0273,-0.0099,-0.9344,$GPGGA,171408.300,4041.1149,N,07423.1472,W,1,08,0.97,145.0,M,-34.2,M,,*56
156,0,-0.22,0.85,-0.12,-0.50,0.31,0.50,0.3552,-0.0272,-0.0105,-0.9343,$GPGGA,171408.400,4041.1155,N,07423.1460,W,1,08,0.97,145.0,M,-34.2,M,,*5F
157,0,-0.10,0.00,-0.02,-0.19,0.31,0.50,0.3553,-0.0266,-0.0112,-0.9343,$GPGGA,171408.500,4041.1162,N,07423.1448,W,1,08,0.95,145.0,M,-34.2,M,,*52
158,0,-0.11,0.84,-0.19,-0.37,0.06,0.44,0.3553,-0.0266,-0.0106,-0.9343,$GPGGA,171408.600,4041.1168,N,07423.1436,W,1,08,0.95,145.0,M,-34.2,M,,*52
159,0,0.17,-0.06,-0.58,-0.13,0.13,0.19,0.3554,-0.0261,-0.0110,-0.9343,$GPGGA,171408.700,4041.1175,N,07423.1424,W,1,08,0.95,145.0,M,-34.2,M,,*5C
160,0,-0.14,0.11,-0.26,-1.37,1.75,0.50,0.3553,-0.0249,-0.0109,-0.9343,$GPGGA,171408.800,4041.1181,N,07423.1412,W,1,08,0.95,145.1,M,-34.2,M,,*5C
161,0,-0.17,0.88,-0.23,-2.06,0.69,0.44,0.3555,-0.0245,-0.0098,-0.9343,$GPGGA,171408.900,4041.1187,N,07423.1401,W,1,08,0.95,145.1,M,-34.2,M,,*59
162,0,-0.12,-0.08,-0.13,-0.75,0.56,0.37,0.3554,-0.0247,-0.0081,-0.9343,$GPGGA,171409.000,4041.1194,N,07423.1389,W,1,08,0.95,145.1,M,-34.2,M,,*54
163,0,-0.11,0.56,-0.93,0.75,0.88,0.31,0.3554,-0.0239,-0.0081,-0.9344,$GPGGA,171409.100,4041.1199,N,07423.1378,W,1,08,0.97,145.1,M,-34.2,M,,*54
164,0,-0.19,0.09,-0.21,0.81,1.44,0.56,0.3555,-0.0229,-0.0076,-0.9343,$GPGGA,171409.200,4041.1205,N,07423.1366,W,1,08,0.97,145.2,M,-34.2,M,,*5D
165,0,-0.28,-0.19,-0.08,1.37,-0.81,0.19,0.3557,-0.0219,-0.0089,-0.9343,$GPGGA,171409.300,4041.1211,N,07423.1355,W,1,08,0.97,145.2,M,-34.2,M,,*59
166,0,-0.18,0.31,-0.19,3.56,-0.94,-0.06,0.3558,-0.0218,-0.0118,-0.9343,$GPGGA,171409.400,4041.1218,N,07423.1343,W,1,08,0.97,145.2,M,-34.2,M,,*50
167,0,-0.16,0.56,-0.60,0.06,3.19,0.44,0.3558,-0.0206,-0.0124,-0.9343,$GPGGA,171409.500,4041.1224,N,07423.1332,W,1,08,0.97,145.2,M,-34.2,M,,*58
168,0,-0.34,0.31,-0.98,-1.75,2.56,-0.06,0.3558,-0.0175,-0.0113,-0.9343,$GPGGA,171409.600,4041.1230,N,07423.1320,W,1,08,0.95,145.3,M,-34.2,M,,*5E
169,0,-0.18,0.31,0.27,-3.00,-1.75,-0.69,0.3555,-0.0184,-0.0095,-0.9344,$GPGGA,171409.700,4041.1236,N,07423.1309,W,1,08,0.95,145.3,M,-34.2,M,,*52
170,0,-0.27,-0.61,0.46,-2.31,0.88,-0.62,0.3549,-0.0195,-0.0072,-0.9347,$GPGGA,171409.800,4041.1242,N,07423.1297,W,1,08,0.95,145.3,M,-34.2,M,,*58
171,0,-0.30,-0.41,-0.66,2.44,4.94,-0.31,0.3549,-0.0163,-0.0067,-0.9348,$GPGGA,171409.900,4041.1248,N,07423.1286,W,1,08,0.95,145.3,M,-34.2,M,,*53
172,0,-0.57,-0.11,-0.15,3.62,-1.44,-0.13,0.3549,-0.0146,-0.0081,-0.9348,$GPGGA,171410.000,4041.1255,N,07423.1274,W,1,08,0.97,145.3,M,-34.2,M,,*51
173,0,0.09,0.24,1.23,0.06,-6.75,-0.44,0.3549,-0.0187,-0.0132,-0.9346,$GPGGA,171410.100,4041.1262,N,07423.1263,W,1,08,0.97,145.3,M,-34.2,M,,*52
174,0,0.09,0.41,0.06,1.00,1.25,-0.25,0.3549,-0.0200,-0.0150,-0.9346,$GPGGA,171410.200,4041.1268,N,07423.1251,W,1,08,0.97,145.4,M,-34.2,M,,*5D
175,0,-0.31,-0.31,-1.14,-0.06,3.81,-0.62,0.3549,-0.0175,-0.0143,-0.9346,$GPGGA,171410.300,4041.1275,N,07423.1239,W,1,08,0.97,145.4,M,-34.2,M,,*5E
176,0,0.00,-0.01,-1.71,-1.31,2.25,-0.62,0.3548,-0.0153,-0.0133,-0.9348,$GPGGA,171410.400,4041.1281,N,07423.1227,W,1,08,0.97,145.4,M,-34.2,M,,*5D
177,0,-0.11,-0.24,-0.46,-0.44,1.12,-0.19,0.3548,-0.0143,-0.0123,-0.9348,$GPGGA,171410.500,4041.1288,N,07423.1216,W,1,08,0.97,145.4,M,-34.2,M,,*57
178,0,-0.04,-0.37,0.07,-0.13,-0.06,-0.13,0.3548,-0.0140,-0.0118,-0.9348,$GPGGA,171410.600,4041.1294,N,07423.1204,W,1,08,0.97,145.4,M,-34.2,M,,*5A
179,0,0.00,0.17,-0.34,-0.06,1.81,-0.13,0.3548,-0.0135,-0.0117,-0.9348,$GPGGA,171410.700,4041.1301,N,07423.1192,W,1,08,0.95,145.4,M,-34.2,M,,*58
180,0,-0.07,-0.10,-0.63,-0.06,2.06,0.31,0.3548,-0.0115,-0.0112,-0.9348,$GPGGA,171410.800,4041.1307,N,07423.1181,W,1,08,0.95,145.5,M,-34.2,M,,*52
181,0,-0.14,0.13,0.43,-0.19,-1.94,-0.13,0.3548,-0.0118,-0.0111,-0.9348,$GPGGA,171410.900,4041.1314,N,07423.1169,W,1,08,0.95,145.5,M,-34.2,M,,*57
182,0,-0.07,0.03,0.38,-1.00,-2.50,-0.31,0.3548,-0.0139,-0.0120,-0.9348,$GPGGA,171411.000,4041.1321,N,07423.1158,W,1,08,0.95,145.5,M,-34.2,M,,*5B
183,0,-0.05,0.62,0.35,-1.12,0.62,0.06,0.3547,-0.0148,-0.0115,-0.9348,$GPGGA,171411.100,4041.1327,N,07423.1146,W,1,08,0.95,145.5,M,-34.2,M,,*53
184,0,0.00,0.27,-0.55,-0.37,0.62,0.37,0.3548,-0.0141,-0.0109,-0.9348,$GPGGA,171411.200,4041.1334,N,07423.1135,W,1,08,0.95,145.6,M,-34.2,M,,*55
185,0,0.02,0.12,0.00,-0.19,0.06,0.13,0.3547,-0.0142,-0.0106,-0.9348,$GPGGA,171411.300,4041.1340,N,07423.1123,W,1,08,0.97,145.6,M,-34.2,M,,*52
186,0,0.01,0.55,-0.45,-0.06,1.69,0.50,0.3547,-0.0133,-0.0106,-0.9348,$GPGGA,171411.400,4041.1347,N,07423.1112,W,1,08,0.97,145.6,M,-34.2,M,,*50
187,0,0.15,-0.18,-0.09,0.37,0.00,0.50,0.3548,-0.0124,-0.0104,-0.9348,$GPGGA,171411.500,4041.1355,N,07423.1100,W,1,08,0.97,145.6,M,-34.2,M,,*51
188,0,-0.13,0.40,-0.11,0.69,-1.00,0.50,0.3548,-0.0126,-0.0112,-0.9348,$GPGGA,171411.600,4041.1362,N,07423.1089,W,1,08,0.97,145.6,M,-34.2,M,,*56
189,0,0.00,0.37,0.00,1.19,-0.50,0.56,0.3549,-0.0132,-0.0121,-0.9348,$GPGGA,171411.700,4041.1369,N,07423.1078,W,1,08,0.95,145.6,M,-34.2,M,,*50
190,0,0.12,0.25,-0.04,0.44,0.75,0.56,0.3550,-0.0119,-0.0134,-0.9347,$GPGGA,171411.800,4041.1377,N,07423.1066,W,1,08,0.95,145.7,M,-34.2,M,,*5E
191,0,-0.29,0.94,-0.37,0.69,0.37,0.37,0.3552,-0.0112,-0.0143,-0.9346,$GPGGA,171411.900,4041.1384,N,07423.1055,W,1,08,0.95,145.7,M,-34.2,M,,*53
192,0,0.01,0.26,-0.15,0.19,-0.69,0.50,0.3553,-0.0105,-0.0156,-0.9346,$GPGGA,171412.000,4041.1391,N,07423.1044,W,1,08,0.95,145.7,M,-34.2,M,,*5D
193,0,-0.37,0.04,-0.09,-0.62,-0.25,0.50,0.3556,-0.0107,-0.0156,-0.9344,$GPGGA,171412.100,4041.1398,N,07423.1032,W,1,08,0.95,145.7,M,-34.2,M,,*54
194,0,-0.02,0.51,-0.47,-0.69,1.44,0.31,0.3558,-0.0101,-0.0156,-0.9344,$GPGGA,171412.200,4041.1405,N,07423.1021,W,1,08,0.95,145.7,M,-34.2,M,,*56
195,0,-0.09,-0.22,-0.32,-1.37,0.81,0.25,0.3558,-0.0092,-0.0154,-0.9344,$GPGGA,171412.300,4041.1412,N,07423.1010,W,1,08,0.95,145.8,M,-34.2,M,,*5C
196,0,-0.04,0.40,0.01,-1.69,-0.56,0.00,0.3558,-0.0094,-0.0143,-0.9344,$GPGGA,171412.400,4041.1419,N,07423.0999,W,1,08,0.97,145.8,M,-34.2,M,,*5B
197,0,0.09,0.10,0.19,-1.56,-0.62,-0.19,0.3558,-0.0101,-0.0136,-0.9344,$GPGGA,171412.500,4041.1427,N,07423.0987,W,1,08,0.97,145.8,M,-34.2,M,,*58
198,0,-0.08,0.10,-0.58,-1.00,1.37,0.00,0.3558,-0.0099,-0.0125,-0.9344,$GPGGA,171412.600,4041.1434,N,07423.0976,W,1,08,0.97,145.8,M,-34.2,M,,*57
199,0,0.08,0.56,-0.72,0.19,1.37,0.13,0.3558,-0.0085,-0.0120,-0.9344,$GPGGA,171412.700,4041.1441,N,07423.0965,W,1,08,0.95,145.8,M,-34.2,M,,*54
200,0,-0.11,-0.20,-0.44,-0.81,1.06,-0.13,0.3558,-0.0075,-0.0114,-0.9344,$GPGGA,171412.800,4041.1448,N,07423.0954,W,1,08,0.95,145.8,M,-34.2,M,,*50
201,0,0.05,0.42,-0.52,-0.75,1.12,0.06,0.3558,-0.0067,-0.0109,-0.9344,$GPGGA,171412.900,4041.1455,N,07423.0943,W,1,08,0.95,145.9,M,-34.2,M,,*5A
202,0,-0.13,0.23,-0.17,-0.88,0.44,0.06,0.3558,-0.0070,-0.0100,-0.9345,$GPGGA,171413.000,4041.1462,N,07423.0932,W,1,08,0.95,145.9,M,-34.2,M,,*50
203,0,0.07,-0.14,0.49,1.25,-1.62,0.25,0.3558,-0.0077,-0.0107,-0.9344,$GPGGA,171413.100,4041.1469,N,07423.0920,W,1,08,0.95,145.9,M,-34.2,M,,*59
204,0,-0.15,0.37,0.30,1.37,-0.81,0.69,0.3560,-0.0085,-0.0122,-0.9344,$GPGGA,171413.200,4041.1476,N,07423.0909,W,1,08,0.97,145.9,M,-34.2,M,,*5D
205,0,0.30,0.53,0.39,-0.06,-0.25,0.75,0.3566,-0.0085,-0.0128,-0.9341,$GPGGA,171413.300,4041.1483,N,07423.0898,W,1,08,0.97,145.9,M,-34.2,M,,*5F
206,0,0.12,0.33,0.06,-0.62,0.00,0.37,0.3567,-0.0088,-0.0121,-0.9341,$GPGGA,171413.400,4041.1491,N,07423.0886,W,1,08,0.97,146.0,M,-34.2,M,,*5E
207,0,-0.13,0.52,0.04,-0.25,0.13,0.25,0.3566,-0.0082,-0.0134,-0.9341,$GPGGA,171413.500,4041.1498,N,07423.0875,W,1,08,0.97,146.0,M,-34.2,M,,*5A
208,0,0.08,-0.09,0.12,-0.37,-2.37,0.56,0.3567,-0.0093,-0.0137,-0.9341,$GPGGA,171413.600,4041.1505,N,07423.0864,W,1,08,0.95,146.0,M,-34.2,M,,*5E
209,0,0.04,0.19,0.12,1.31,-0.25,0.81,0.3572,-0.0103,-0.0143,-0.9338,$GPGGA,171413.700,4041.1513,N,07423.0853,W,1,08,0.95,146.0,M,-34.2,M,,*5C
210,0,-0.05,0.30,-0.74,1.06,1.50,0.69,0.3577,-0.0092,-0.0148,-0.9337,$GPGGA,171413.800,4041.1520,N,07423.0842,W,1,08,0.95,146.0,M,-34.2,M,,*53
211,0,0.03,0.24,-0.06,-1.12,0.06,0.56,0.3578,-0.0082,-0.0154,-0.9337,$GPGGA,171413.900,4041.1528,N,07423.0831,W,1,08,0.95,146.0,M,-34.2,M,,*5E
212,0,-0.41,0.17,0.37,-2.87,-1.50,0.13,0.3578,-0.0095,-0.0139,-0.9337,$GPGGA,171414.000,4041.1535,N,07423.0820,W,1,08,0.95,146.1,M,-34.2,M,,*5D
213,0,0.00,0.38,0.62,-2.87,-2.12,-0.19,0.3577,-0.0120,-0.0122,-0.9337,$GPGGA,171414.100,4041.1544,N,07423.0808,W,1,08,0.97,146.1,M,-34.2,M,,*52
214,0,-0.05,-0.30,0.23,-1.62,-0.94,-0.31,0.3577,-0.0139,-0.0106,-0.9337,$GPGGA,171414.200,4041.1552,N,07423.0797,W,1,08,0.97,146.1,M,-34.2,M,,*5F
215,0,-0.17,0.02,-0.84,0.56,1.50,0.31,0.3577,-0.0139,-0.0105,-0.9337,$GPGGA,171414.300,4041.1559,N,07423.0786,W,1,08,0.97,146.1,M,-34.2,M,,*55
216,0,0.05,0.12,-0.84,2.44,1.94,0.56,0.3578,-0.0119,-0.0112,-0.9337,$GPGGA,171414.400,4041.1567,N,07423.0775,W,1,08,0.97,146.1,M,-34.2,M,,*53
217,0,-0.05,0.42,-0.51,1.25,0.88,0.13,0.3578,-0.0102,-0.0123,-0.9337,$GPGGA,171414.500,4041.1575,N,07423.0763,W,1,08,0.97,146.1,M,-34.2,M,,*56
218,0,-0.17,0.36,-0.05,0.88,-0.44,0.13,0.3578,-0.0096,-0.0139,-0.9337,$GPGGA,171414.600,4041.1582,N,07423.0752,W,1,08,0.97,146.2,M,-34.2,M,,*5C
219,0,-0.06,-0.08,0.27,0.88,-1.62,-0.06,0.3578,-0.0103,-0.0143,-0.9337,$GPGGA,171414.700,4041.1590,N,07423.0741,W,1,08,0.95,146.2,M,-34.2,M,,*5E
220,0,-0.10,0.03,0.64,2.00,-1.81,0.25,0.3578,-0.0112,-0.0161,-0.9336,$GPGGA,171414.800,4041.1597,N,07423.0730,W,1,08,0.95,146.2,M,-34.2,M,,*50
221,0,-0.17,0.10,-0.06,1.62,-0.75,0.06,0.3578,-0.0117,-0.0179,-0.9336,$GPGGA,171414.900,4041.1605,N,07423.0719,W,1,08,0.95,146.2,M,-34.2,M,,*52
222,0,-0.12,-0.12,0.04,0.31,-0.31,-0.06,0.3578,-0.0117,-0.0192,-0.9335,$GPGGA,171415.000,4041.1612,N,07423.0708,W,1,08,0.95,146.2,M,-34.2,M,,*5C
223,0,0.09,0.18,-0.20,1.00,0.62,0.00,0.3578,-0.0113,-0.0201,-0.9335,$GPGGA,171415.100,4041.1620,N,07423.0696,W,1,08,0.95,146.2,M,-34.2,M,,*5A
224,0,0.03,0.24,-0.49,1.62,0.75,0.00,0.3578,-0.0102,-0.0208,-0.9335,$GPGGA,171415.200,4041.1628,N,07423.0686,W,1,08,0.97,146.2,M,-34.2,M,,*52
225,0,0.07,0.26,0.09,1.00,-1.31,0.13,0.3578,-0.0098,-0.0222,-0.9335,$GPGGA,171415.300,4041.1636,N,07423.0675,W,1,08,0.97,146.3,M,-34.2,M,,*51
226,0,0.03,0.45,0.43,0.56,-1.19,0.25,0.3578,-0.0108,-0.0229,-0.9335,$GPGGA,171415.400,4041.1644,N,07423.0664,W,1,08,0.97,146.3,M,-34.2,M,,*53
227,0,-0.18,0.43,-0.05,-0.31,-0.19,-0.19,0.3577,-0.0112,-0.0229,-0.9335,$GPGGA,171415.500,4041.1652,N,07423.0653,W,1,08,0.97,146.3,M,-34.2,M,,*51
228,0,-0.13,-0.43,0.05,-1.94,-0.69,-0.37,0.3577,-0.0112,-0.0230,-0.9335,$GPGGA,171415.600,4041.1660,N,07423.0643,W,1,08,0.95,146.3,M,-34.2,M,,*50
229,0,-0.19,0.00,0.06,-1.81,-1.81,-0.19,0.3577,-0.0127,-0.0220,-0.9335,$GPGGA,171415.700,4041.1667,N,07423.0633,W,1,08,0.95,146.3,M,-34.2,M,,*51
230,0,0.13,-0.18,0.44,-0.69,-1.94,-0.31,0.3576,-0.0145,-0.0220,-0.9335,$GPGGA,171415.800,4041.1675,N,07423.0622,W,1,08,0.95,146.3,M,-34.2,M,,*5D
231,0,-0.03,-0.11,0.48,0.44,-1.06,-0.25,0.3576,-0.0156,-0.0225,-0.9335,$GPGGA,171415.900,4041.1682,N,07423.0612,W,1,08,0.97,146.3,M,-34.2,M,,*55
232,0,0.03,0.40,0.03,0.19,-1.50,-0.19,0.3576,-0.0164,-0.0228,-0.9335,$GPGGA,171416.000,4041.1690,N,07423.0601,W,1,08,0.95,146.3,M,-34.2,M,,*5C
233,0,0.15,0.23,-0.15,0.37,-0.44,-0.44,0.3576,-0.0170,-0.0231,-0.9335,$GPGGA,171416.100,4041.1698,N,07423.0591,W,1,08,0.95,146.4,M,-34.2,M,,*58
234,0,-0.09,-0.24,0.22,0.25,-0.31,-0.31,0.3576,-0.0170,-0.0231,-0.9335,$GPGGA,171416.200,4041.1705,N,07423.0580,W,1,08,0.95,146.3,M,-34.2,M,,*59
235,0,-0.07,0.24,0.38,-0.13,-0.50,-0.25,0.3575,-0.0173,-0.0233,-0.9335,$GPGGA,171416.300,4041.1713,N,07423.0569,W,1,08,0.97,146.4,M,-34.2,M,,*5D
236,0,0.09,0.02,0.34,0.13,-0.75,-0.44,0.3575,-0.0180,-0.0235,-0.9335,$GPGGA,171416.400,4041.1720,N,07423.0559,W,1,08,0.97,146.4,M,-34.2,M,,*59
237,0,0.17,-0.14,0.35,-0.31,-0.81,-0.44,0.3575,-0.0185,-0.0237,-0.9334,$GPGGA,171416.500,4041.1728,N,07423.0549,W,1,08,0.97,146.3,M,-34.2,M,,*56
238,0,-0.11,0.08,0.12,1.62,-1.06,-0.50,0.3574,-0.0192,-0.0242,-0.9335,$GPGGA,171416.600,4041.1736,N,07423.0538,W,1,08,0.95,146.3,M,-34.2,M,,*5E
239,0,0.29,0.43,-0.06,3.00,-0.62,-0.50,0.3574,-0.0189,-0.0269,-0.9334,$GPGGA,171416.700,4041.1743,N,07423.0528,W,1,08,0.95,146.3,M,-34.2,M,,*5C
240,0,-0.09,-0.32,-0.09,1.50,0.25,-0.62,0.3572,-0.0181,-0.0287,-0.9334,$GPGGA,171416.800,4041.1751,N,07423.0518,W,1,08,0.95,146.3,M,-34.2,M,,*53
241,0,0.03,-0.13,-0.20,1.19,0.62,-0.62,0.3571,-0.0177,-0.0296,-0.9334,$GPGGA,171416.900,4041.1759,N,07423.0507,W,1,08,0.97,146.3,M,-34.2,M,,*56
242,0,0.10,0.43,-0.06,0.25,0.31,-0.81,0.3566,-0.0176,-0.0299,-0.9337,$GPGGA,171417.000,4041.1766,N,07423.0497,W,1,08,0.97,146.3,M,-34.2,M,,*5A
243,0,0.30,0.05,-0.21,-0.50,-0.31,-1.06,0.3558,-0.0179,-0.0300,-0.9339,$GPGGA,171417.100,4041.1774,N,07423.0487,W,1,08,0.97,146.3,M,-34.2,M,,*59
244,0,0.33,-0.60,-0.04,-0.50,1.06,-0.81,0.3552,-0.0178,-0.0295,-0.9341,$GPGGA,171417.200,4041.1781,N,07423.0476,W,1,08,0.97,146.3,M,-34.2,M,,*5E
245,0,0.26,0.10,-0.67,-1.62,0.75,-1.00,0.3546,-0.0176,-0.0284,-0.9344,$GPGGA,171417.300,4041.1789,N,07423.0466,W,1,08,0.97,146.3,M,-34.2,M,,*56
246,0,0.29,-0.30,-0.33,-1.50,-0.19,-1.19,0.3537,-0.0180,-0.0275,-0.9348,$GPGGA,171417.400,4041.1797,N,07423.0456,W,1,08,0.97,146.3,M,-34.2,M,,*5D
247,0,0.32,-0.43,0.21,-0.19,0.00,-1.06,0.3527,-0.0189,-0.0264,-0.9352,$GPGGA,171417.500,4041.1805,N,07423.0446,W,1,08,0.97,146.3,M,-34.2,M,,*59
248,0,0.39,0.19,-0.61,-0.56,1.56,-1.06,0.3521,-0.0184,-0.0263,-0.9354,$GPGGA,171417.600,4041.1812,N,07423.0436,W,1,08,0.95,146.3,M,-34.2,M,,*59
249,0,0.26,0.16,-0.40,-0.69,2.19,-0.88,0.3514,-0.0171,-0.0256,-0.9357,$GPGGA,171417.700,4041.1820,N,07423.0425,W,1,08,0.95,146.3,M,-34.2,M,,*5B
250,0,0.30,-0.37,-0.51,-1.50,2.94,-0.94,0.3507,-0.0172,-0.0242,-0.9360,$GPGGA,171417.800,4041.1827,N,07423.0415,W,1,08,0.95,146.3,M,-34.2,M,,*50
251,0,0.13,-0.43,0.09,-2.12,1.19,-1.19,0.3500,-0.0164,-0.0220,-0.9363,$GPGGA,171417.900,4041.1835,N,07423.0405,W,1,08,0.95,146.3,M,-34.2,M,,*53
252,0,0.30,0.25,-0.31,-2.37,-1.62,-1.00,0.3491,-0.0173,-0.0209,-0.9367,$GPGGA,171418.000,4041.1842,N,07423.0395,W,1,08,0.97,146.3,M,-34.2,M,,*59
253,0,0.48,-0.30,0.49,-1.25,0.00,-0.88,0.3483,-0.0190,-0.0200,-0.9370,$GPGGA,171418.100,4041.1849,N,07423.0384,W,1,08,0.97,146.3,M,-34.2,M,,*53
254,0,0.14,0.05,-0.26,-1.06,0.44,-0.94,0.3477,-0.0190,-0.0191,-0.9373,$GPGGA,171418.200,4041.1856,N,07423.0374,W,1,08,0.97,146.3,M,-34.2,M,,*51
255,0,0.21,0.40,-0.03,-1.00,-0.06,-0.62,0.3471,-0.0195,-0.0182,-0.9374,$GPGGA,171418.300,4041.1864,N,07423.0364,W,1,08,0.97,146.3,M,-34.2,M,,*50
256,0,0.31,-0.15,-0.34,-1.25,-0.19,-0.50,0.3469,-0.0209,-0.0186,-0.9375,$GPGGA,171418.400,4041.1871,N,07423.0354,W,1,08,0.97,146.3,M,-34.2,M,,*50
257,0,0.05,-0.10,-0.43,-1.19,1.06,-0.31,0.3469,-0.0213,-0.0179,-0.9375,$GPGGA,171418.500,4041.1878,N,07423.0344,W,1,08,0.97,146.4,M,-34.2,M,,*5E
258,0,0.38,0.15,-0.39,-0.13,1.62,-0.25,0.3469,-0.0205,-0.0172,-0.9376,$GPGGA,171418.600,4041.1886,N,07423.0334,W,1,08,0.97,146.4,M,-34.2,M,,*5B
259,0,0.39,0.38,-0.55,-0.56,0.31,-0.25,0.3469,-0.0205,-0.0167,-0.9376,$GPGGA,171418.700,4041.1893,N,07423.0324,W,1,08,0.97,146.4,M,-34.2,M,,*5F
260,0,0.22,-0.22,0.71,0.06,-0.37,-0.06,0.3469,-0.0207,-0.0166,-0.9376,$GPGGA,171418.800,4041.1900,N,07423.0314,W,1,08,0.95,146.4,M,-34.2,M,,*5A
261,0,0.16,0.69,0.10,0.19,0.06,-0.06,0.3468,-0.0211,-0.0175,-0.9375,$GPGGA,171418.900,4041.1908,N,07423.0304,W,1,08,0.97,146.4,M,-34.2,M,,*50
262,0,0.05,0.36,-0.86,0.62,1.75,0.00,0.3469,-0.0208,-0.0183,-0.9375,$GPGGA,171419.000,4041.1915,N,07423.0294,W,1,08,0.97,146.4,M,-34.2,M,,*5C
263,0,0.03,-0.34,-0.21,1.81,0.50,-0.19,0.3469,-0.0195,-0.0192,-0.9375,$GPGGA,171419.100,4041.1923,N,07423.0284,W,1,08,0.97,146.4,M,-34.2,M,,*59
264,0,0.03,0.43,-0.24,2.87,1.12,-0.06,0.3469,-0.0186,-0.0210,-0.9375,$GPGGA,171419.200,4041.1930,N,07423.0274,W,1,08,0.97,146.4,M,-34.2,M,,*57
265,0,0.23,0.25,-0.67,1.87,2.00,-0.19,0.3470,-0.0172,-0.0229,-0.9374,$GPGGA,171419.300,4041.1938,N,07423.0264,W,1,08,0.97,146.4,M,-34.2,M,,*5F
266,0,0.13,0.05,-0.98,0.00,2.62,-0.37,0.3470,-0.0149,-0.0229,-0.9374,$GPGGA,171419.400,4041.1945,N,07423.0254,W,1,08,0.97,146.4,M,-34.2,M,,*51
267,0,-0.03,0.57,-0.56,-0.81,2.44,-0.44,0.3471,-0.0134,-0.0219,-0.9375,$GPGGA,171419.500,4041.1953,N,07423.0245,W,1,08,0.97,146.4,M,-34.2,M,,*57
268,0,0.10,-0.15,0.10,-1.81,0.06,-0.50,0.3470,-0.0129,-0.0208,-0.9376,$GPGGA,171419.600,4041.1961,N,07423.0235,W,1,08,0.95,146.4,M,-34.2,M,,*50
269,0,0.11,0.36,0.38,-1.37,-1.75,-0.37,0.3470,-0.0145,-0.0201,-0.9376,$GPGGA,171419.700,4041.1968,N,07423.0225,W,1,08,0.95,146.4,M,-34.2,M,,*59
270,0,0.38,0.33,0.40,-0.44,0.31,-0.31,0.3470,-0.0156,-0.0199,-0.9376,$GPGGA,171419.800,4041.1976,N,07423.0215,W,1,08,0.95,146.5,M,-34.2,M,,*5B
271,0,0.37,-0.21,-0.50,-0.62,0.75,-0.31,0.3470,-0.0156,-0.0195,-0.9376,$GPGGA,171419.900,4041.1984,N,07423.0205,W,1,08,0.97,146.5,M,-34.2,M,,*54
272,0,0.37,-0.07,-0.88,-1.31,-0.06,-0.44,0.3469,-0.0156,-0.0187,-0.9376,$GPGGA,171420.000,4041.1991,N,07423.0195,W,1,08,0.97,146.5,M,-34.2,M,,*59
273,0,0.24,0.29,-0.74,-1.06,1.37,-0.37,0.3469,-0.0156,-0.0181,-0.9376,$GPGGA,171420.100,4041.1999,N,07423.0185,W,1,08,0.97,146.5,M,-34.2,M,,*51
274,0,0.32,0.11,-0.40,-0.56,1.69,-0.19,0.3469,-0.0148,-0.0176,-0.9376,$GPGGA,171420.200,4041.2007,N,07423.0175,W,1,08,0.97,146.5,M,-34.2,M,,*50
275,0,0.07,0.29,-0.67,-0.75,0.06,0.00,0.3470,-0.0143,-0.0170,-0.9376,$GPGGA,171420.300,4041.2014,N,07423.0165,W,1,08,0.97,146.5,M,-34.2,M,,*52
276,0,0.16,0.72,-0.26,-2.62,0.06,0.06,0.3469,-0.0148,-0.0157,-0.9376,$GPGGA,171420.400,4041.2022,N,07423.0155,W,1,08,0.97,146.5,M,-34.2,M,,*53
277,0,0.10,0.22,0.24,-3.06,0.50,-0.06,0.3469,-0.0159,-0.0148,-0.9377,$GPGGA,171420.500,4041.2030,N,07423.0145,W,1,08,0.97,146.5,M,-34.2,M,,*50
278,0,-0.03,0.13,-0.71,-3.37,0.88,-0.13,0.3468,-0.0165,-0.0139,-0.9377,$GPGGA,171420.600,4041.2038,N,07423.0134,W,1,08,0.95,146.5,M,-34.2,M,,*5F
279,0,0.14,0.32,-0.64,-1.19,1.25,0.00,0.3468,-0.0160,-0.0121,-0.9377,$GPGGA,171420.700,4041.2046,N,07423.0124,W,1,08,0.95,146.5,M,-34.2,M,,*56
280,0,0.01,-0.46,-0.42,1.00,2.31,0.25,0.3468,-0.0146,-0.0111,-0.9377,$GPGGA,171420.800,4041.2053,N,07423.0113,W,1,08,0.95,146.5,M,-34.2,M,,*59
281,0,0.20,0.44,-1.36,0.44,3.06,-0.13,0.3468,-0.0131,-0.0115,-0.9377,$GPGGA,171420.900,4041.2061,N,07423.0103,W,1,08,0.95,146.5,M,-34.2,M,,*58
282,0,-0.03,0.00,-0.71,0.00,1.69,-0.69,0.3468,-0.0112,-0.0110,-0.9378,$GPGGA,171421.000,4041.2069,N,07423.0092,W,1,08,0.97,146.5,M,-34.2,M,,*53
283,0,0.16,0.09,-0.15,-1.56,0.62,-0.88,0.3463,-0.0103,-0.0101,-0.9380,$GPGGA,171421.100,4041.2077,N,07423.0082,W,1,08,0.97,146.5,M,-34.2,M,,*5C
284,0,0.14,-0.94,0.72,-0.62,-1.37,-0.94,0.3456,-0.0107,-0.0098,-0.9382,$GPGGA,171421.200,4041.2085,N,07423.0071,W,1,08,0.97,146.6,M,-34.2,M,,*5D
285,0,0.03,-0.38,0.47,1.75,-0.94,-0.69,0.3450,-0.0120,-0.0107,-0.9385,$GPGGA,171421.300,4041.2093,N,07423.0061,W,1,08,0.97,146.6,M,-34.2,M,,*5A
286,0,0.11,-0.14,-0.20,2.12,0.25,-0.81,0.3447,-0.0114,-0.0129,-0.9385,$GPGGA,171421.400,4041.2102,N,07423.0050,W,1,08,0.97,146.6,M,-34.2,M,,*56
287,0,-0.03,0.28,0.27,-0.37,-0.31,-0.75,0.3442,-0.0112,-0.0134,-0.9387,$GPGGA,171421.500,4041.2110,N,07423.0039,W,1,08,0.97,146.6,M,-34.2,M,,*5B
288,0,-0.10,0.39,-0.34,-1.69,0.31,-0.88,0.3435,-0.0119,-0.0122,-0.9390,$GPGGA,171421.600,4041.2118,N,07423.0028,W,1,08,0.95,146.5,M,-34.2,M,,*51
289,0,0.43,0.01,-0.77,-2.00,1.44,-0.75,0.3428,-0.0116,-0.0107,-0.9393,$GPGGA,171421.700,4041.2125,N,07423.0017,W,1,08,0.95,146.5,M,-34.2,M,,*52
290,0,0.27,-0.23,-1.17,-1.81,1.75,-0.88,0.3420,-0.0109,-0.0085,-0.9396,$GPGGA,171421.800,4041.2133,N,07423.0006,W,1,08,0.95,146.5,M,-34.2,M,,*5A
291,0,0.03,-0.04,-0.66,-1.75,1.75,-0.75,0.3414,-0.0100,-0.0065,-0.9398,$GPGGA,171421.900,4041.2141,N,07422.9995,W,1,08,0.97,146.5,M,-34.2,M,,*57
292,0,0.42,-0.28,-0.57,0.00,1.06,-0.69,0.3409,-0.0096,-0.0057,-0.9400,$GPGGA,171422.000,4041.2149,N,07422.9985,W,1,08,0.97,146.5,M,-34.2,M,,*54
293,0,0.15,0.13,-0.74,0.62,1.69,-0.62,0.3404,-0.0088,-0.0054,-0.9402,$GPGGA,171422.100,4041.2157,N,07422.9974,W,1,08,0.97,146.6,M,-34.2,M,,*57
294,0,0.17,-0.18,-0.62,-0.56,2.31,-0.37,0.3401,-0.0079,-0.0047,-0.9404,$GPGGA,171422.200,4041.2165,N,07422.9964,W,1,08,0.97,146.6,M,-34.2,M,,*54
295,0,0.23,-0.08,-0.20,-2.44,0.75,-0.81,0.3395,-0.0074,-0.0031,-0.9406,$GPGGA,171422.300,4041.2173,N,07422.9954,W,1,08,0.97,146.6,M,-34.2,M,,*51
296,0,0.26,0.52,-0.64,-3.12,0.50,-1.00,0.3388,-0.0083,-0.0015,-0.9408,$GPGGA,171422.400,4041.2181,N,07422.9943,W,1,08,0.97,146.6,M,-34.2,M,,*5D
297,0,0.27,-0.13,-0.20,-2.87,0.37,-0.88,0.3381,-0.0091,0.0009,-0.9410,$GPGGA,171422.500,4041.2189,N,07422.9933,W,1,08,0.97,146.6,M,-34.2,M,,*53
298,0,0.08,0.30,-0.69,-2.56,1.69,-0.56,0.3375,-0.0090,0.0033,-0.9413,$GPGGA,171422.600,4041.2197,N,07422.9923,W,1,08,0.95,146.6,M,-34.2,M,,*5C
299,0,0.28,0.35,-0.85,-2.06,2.69,-0.44,0.3373,-0.0079,0.0054,-0.9413,$GPGGA,171422.700,4041.2205,N,07422.9912,W,1,08,0.97,146.6,M,-34.2,M,,*55
300,0,0.08,-0.35,-0.20,-1.06,1.69,-0.62,0.3372,-0.0067,0.0074,-0.9414,$GPGGA,171422.800,4041.2213,N,07422.9901,W,1,08,0.95,146.6,M,-34.2,M,,*5D
301,0,0.06,0.10,-0.37,1.31,0.06,-0.56,0.3368,-0.0063,0.0075,-0.9415,$GPGGA,171422.900,4041.2221,N,07422.9891,W,1,08,0.95,146.6,M,-34.2,M,,*55
302,0,0.14,-0.18,0.58,3.25,-2.06,-0.50,0.3365,-0.0065,0.0054,-0.9416,$GPGGA,171423.000,4041.2228,N,07422.9880,W,1,08,0.97,146.6,M,-34.2,M,,*56
303,0,0.06,-0.26,0.31,3.87,-0.69,-0.13,0.3366,-0.0070,0.0025,-0.9416,$GPGGA,171423.100,4041.2236,N,07422.9870,W,1,08,0.97,146.6,M,-34.2,M,,*57
304,0,0.13,0.63,-0.64,0.62,1.69,-0.50,0.3366,-0.0065,0.0010,-0.9417,$GPGGA,171423.200,4041.2244,N,07422.9860,W,1,08,0.97,146.6,M,-34.2,M,,*50
305,0,0.04,-0.12,-0.27,-1.12,1.12,-0.62,0.3362,-0.0058,0.0016,-0.9418,$GPGGA,171423.300,4041.2252,N,07422.9849,W,1,08,0.97,146.6,M,-34.2,M,,*5D
306,0,-0.04,0.03,-0.41,-2.00,1.44,-0.50,0.3361,-0.0054,0.0033,-0.9418,$GPGGA,171423.400,4041.2260,N,07422.9839,W,1,08,0.97,146.6,M,-34.2,M,,*5C
307,0,0.03,0.20,-0.33,-2.94,0.00,-0.56,0.3359,-0.0057,0.0057,-0.9418,$GPGGA,171423.500,4041.2267,N,07422.9829,W,1,08,0.97,146.6,M,-34.2,M,,*5B
308,0,-0.13,-0.23,0.63,-1.31,-1.37,-0.50,0.3359,-0.0068,0.0070,-0.9418,$GPGGA,171423.600,4041.2275,N,07422.9819,W,1,08,0.97,146.6,M,-34.2,M,,*58
309,0,0.06,0.13,0.58,0.81,-2.62,-0.13,0.3359,-0.0087,0.0065,-0.9418,$GPGGA,171423.700,4041.2283,N,07422.9808,W,1,08,0.95,146.6,M,-34.2,M,,*52
310,0,0.02,-0.14,-0.47,0.56,0.44,-0.06,0.3360,-0.0092,0.0054,-0.9418,$GPGGA,171423.800,4041.2291,N,07422.9798,W,1,08,0.97,146.6,M,-34.2,M,,*5A
311,0,0.04,0.21,-0.86,1.37,2.19,-0.13,0.3360,-0.0076,0.0049,-0.9418,$GPGGA,171423.900,4041.2298,N,07422.9788,W,1,08,0.97,146.7,M,-34.2,M,,*52
312,0,0.07,0.12,-0.79,1.06,1.50,-0.50,0.3360,-0.0057,0.0049,-0.9418,$GPGGA,171424.000,4041.2306,N,07422.9778,W,1,08,0.97,146.7,M,-34.2,M,,*55
313,0,0.03,0.15,-0.27,0.13,0.25,-0.50,0.3359,-0.0052,0.0048,-0.9418,$GPGGA,171424.100,4041.2314,N,07422.9768,W,1,08,0.97,146.6,M,-34.2,M,,*57
314,0,0.03,0.52,-0.32,-0.06,0.19,-0.50,0.3359,-0.0052,0.0046,-0.9418,$GPGGA,171424.200,4041.2321,N,07422.9758,W,1,08,0.97,146.6,M,-34.2,M,,*51
315,0,0.07,-0.11,-0.15,0.88,1.19,-0.50,0.3359,-0.0045,0.0047,-0.9419,$GPGGA,171424.300,4041.2329,N,07422.9748,W,1,08,0.97,146.6,M,-34.2,M,,*59
316,0,0.13,0.27,-0.67,0.94,1.56,-0.37,0.3359,-0.0032,0.0045,-0.9419,$GPGGA,171424.400,4041.2336,N,07422.9738,W,1,08,0.97,146.6,M,-34.2,M,,*57
317,0,0.00,0.03,-0.13,0.69,0.19,-0.31,0.3359,-0.0023,0.0039,-0.9419,$GPGGA,171424.500,4041.2343,N,07422.9727,W,1,08,0.97,146.6,M,-34.2,M,,*5A
318,0,0.05,-0.20,0.29,-1.31,-0.81,-0.50,0.3356,-0.0027,0.0042,-0.9420,$GPGGA,171424.600,4041.2351,N,07422.9717,W,1,08,0.95,146.6,M,-34.2,M,,*5B
319,0,0.18,0.48,0.05,-1.31,-0.56,-0.88,0.3350,-0.0042,0.0055,-0.9422,$GPGGA,171424.700,4041.2358,N,07422.9707,W,1,08,0.95,146.6,M,-34.2,M,,*52
320,0,0.29,-0.36,0.25,-3.00,1.81,-1.19,0.3341,-0.0044,0.0073,-0.9425,$GPGGA,171424.800,4041.2366,N,07422.9697,W,1,08,0.95,146.6,M,-34.2,M,,*58
321,0,0.14,0.08,-0.74,-0.62,1.12,-1.00,0.3332,-0.0035,0.0093,-0.9428,$GPGGA,171424.900,4041.2373,N,07422.9687,W,1,08,0.97,146.6,M,-34.2,M,,*5E
322,0,0.08,-0.32,-0.47,-0.50,0.50,-1.12,0.3323,-0.0037,0.0106,-0.9431,$GPGGA,171425.000,4041.2381,N,07422.9677,W,1,08,0.97,146.6,M,-34.2,M,,*54
323,0,0.06,-0.73,-0.11,1.87,1.06,-1.06,0.3315,-0.0036,0.0108,-0.9434,$GPGGA,171425.100,4041.2388,N,07422.9666,W,1,08,0.97,146.5,M,-34.2,M,,*5F
324,0,0.07,0.02,-0.29,1.19,0.13,-0.94,0.3307,-0.0029,0.0099,-0.9437,$GPGGA,171425.200,4041.2396,N,07422.9656,W,1,08,0.97,146.5,M,-34.2,M,,*50
325,0,0.10,-0.66,-0.12,1.50,-0.94,-1.25,0.3298,-0.0028,0.0084,-0.9440,$GPGGA,171425.300,4041.2404,N,07422.9646,W,1,08,0.97,146.5,M,-34.2,M,,*5C
326,0,0.13,-0.22,-0.13,1.50,0.50,-1.25,0.3287,-0.0027,0.0071,-0.9444,$GPGGA,171425.400,4041.2412,N,07422.9636,W,1,08,0.97,146.5,M,-34.2,M,,*5B
327,0,-0.02,0.50,-0.05,0.56,2.06,-1.31,0.3277,-0.0015,0.0072,-0.9448,$GPGGA,171425.500,4041.2420,N,07422.9626,W,1,08,0.97,146.5,M,-34.2,M,,*5A
328,0,-0.07,-0.60,-0.45,-0.37,0.25,-1.56,0.3267,-0.0010,0.0073,-0.9451,$GPGGA,171425.600,4041.2427,N,07422.9615,W,1,08,0.97,146.5,M,-34.2,M,,*5E
329,0,0.05,0.33,0.69,-1.87,-1.31,-1.50,0.3254,-0.0020,0.0071,-0.9456,$GPGGA,171425.700,4041.2435,N,07422.9606,W,1,08,0.95,146.5,M,-34.2,M,,*5C
330,0,0.28,-0.07,-0.25,-1.44,2.75,-1.06,0.3243,-0.0020,0.0089,-0.9459,$GPGGA,171425.800,4041.2442,N,07422.9595,W,1,08,0.95,146.4,M,-34.2,M,,*5B
331,0,-0.07,-0.08,-1.16,-1.62,2.19,-1.75,0.3231,-0.0005,0.0120,-0.9463,$GPGGA,171425.900,4041.2449,N,07422.9586,W,1,08,0.95,146.4,M,-34.2,M,,*53
332,0,0.09,-0.89,0.14,-3.75,-2.12,-2.06,0.3213,-0.0015,0.0142,-0.9468,$GPGGA,171426.000,4041.2457,N,07422.9576,W,1,08,0.97,146.4,M,-34.2,M,,*5B
333,0,0.42,-0.60,0.49,0.25,-1.69,-1.75,0.3198,-0.0032,0.0146,-0.9473,$GPGGA,171426.100,4041.2465,N,07422.9566,W,1,08,0.97,146.3,M,-34.2,M,,*5D
334,0,-0.02,-0.52,-0.02,-0.94,-0.88,-1.31,0.3187,-0.0040,0.0154,-0.9478,$GPGGA,171426.200,4041.2472,N,07422.9556,W,1,08,0.97,146.3,M,-34.2,M,,*5B
335,0,0.18,0.18,-0.42,-1.25,-0.81,-1.50,0.3173,-0.0048,0.0154,-0.9482,$GPGGA,171426.300,4041.2480,N,07422.9546,W,1,08,0.97,146.3,M,-34.2,M,,*56
336,0,0.10,-0.62,-0.01,-1.81,1.75,-1.81,0.3159,-0.0045,0.0170,-0.9486,$GPGGA,171426.400,4041.2488,N,07422.9537,W,1,08,0.97,146.3,M,-34.2,M,,*5F
337,0,0.09,0.34,-0.83,-1.37,1.00,-1.50,0.3145,-0.0037,0.0184,-0.9490,$GPGGA,171426.500,4041.2495,N,07422.9527,W,1,08,0.97,146.3,M,-34.2,M,,*53
338,0,0.20,0.09,-0.35,-0.56,0.19,-1.37,0.3134,-0.0037,0.0190,-0.9494,$GPGGA,171426.600,4041.2503,N,07422.9518,W,1,08,0.97,146.2,M,-34.2,M,,*53
339,0,0.22,0.03,-0.36,0.00,0.31,-1.06,0.3123,-0.0038,0.0192,-0.9498,$GPGGA,171426.700,4041.2510,N,07422.9508,W,1,08,0.97,146.2,M,-34.2,M,,*51
340,0,0.31,0.29,-0.36,0.62,0.94,-1.12,0.3113,-0.0035,0.0190,-0.9501,$GPGGA,171426.800,4041.2518,N,07422.9498,W,1,08,0.97,146.2,M,-34.2,M,,*5E
341,0,0.00,-0.16,-0.01,0.44,-0.31,-1.25,0.3104,-0.0034,0.0186,-0.9504,$GPGGA,171426.900,4041.2526,N,07422.9489,W,1,08,0.95,146.2,M,-34.2,M,,*50
342,0,-0.23,0.07,0.45,1.37,-1.37,-1.12,0.3094,-0.0038,0.0173,-0.9507,$GPGGA,171427.000,4041.2533,N,07422.9479,W,1,08,0.97,146.2,M,-34.2,M,,*51
343,0,0.10,0.19,0.20,0.69,-1.87,-1.12,0.3086,-0.0051,0.0163,-0.9510,$GPGGA,171427.100,4041.2540,N,07422.9469,W,1,08,0.97,146.1,M,-34.2,M,,*56
344,0,0.08,-0.49,0.11,0.50,-0.56,-1.12,0.3077,-0.0057,0.0153,-0.9513,$GPGGA,171427.200,4041.2548,N,07422.9459,W,1,08,0.97,146.1,M,-34.2,M,,*5E
345,0,-0.08,0.22,-0.19,-0.50,0.81,-0.94,0.3069,-0.0056,0.0153,-0.9516,$GPGGA,171427.300,4041.2555,N,07422.9450,W,1,08,0.97,146.1,M,-34.2,M,,*5A
346,0,0.19,0.01,-0.35,0.31,0.62,-1.00,0.3062,-0.0054,0.0153,-0.9518,$GPGGA,171427.400,4041.2562,N,07422.9440,W,1,08,0.97,146.0,M,-34.2,M,,*59
347,0,-0.13,0.13,0.18,0.75,0.44,-0.75,0.3055,-0.0051,0.0148,-0.9521,$GPGGA,171427.500,4041.2569,N,07422.9430,W,1,08,0.97,146.0,M,-34.2,M,,*54
348,0,-0.02,0.66,0.07,1.69,-0.44,-0.56,0.3049,-0.0048,0.0139,-0.9523,$GPGGA,171427.600,4041.2576,N,07422.9420,W,1,08,0.95,146.0,M,-34.2,M,,*5A
349,0,0.01,0.14,-0.37,0.56,-0.81,-0.81,0.3044,-0.0052,0.0134,-0.9525,$GPGGA,171427.700,4041.2584,N,07422.9410,W,1,08,0.95,146.0,M,-34.2,M,,*55
350,0,-0.01,0.25,0.49,-0.37,-0.50,-0.62,0.3040,-0.0054,0.0128,-0.9526,$GPGGA,171427.800,4041.2591,N,07422.9400,W,1,08,0.97,146.0,M,-34.2,M,,*5D
351,0,0.08,0.29,-0.12,2.19,-0.44,-0.81,0.3034,-0.0052,0.0118,-0.9528,$GPGGA,171427.900,4041.2598,N,07422.9390,W,1,08,0.97,145.9,M,-34.2,M,,*51
352,0,-0.19,0.00,0.06,2.44,-0.44,-0.81,0.3027,-0.0048,0.0107,-0.9530,$GPGGA,171428.000,4041.2606,N,07422.9380,W,1,08,0.97,145.9,M,-34.2,M,,*52
353,0,-0.03,0.28,0.48,-0.06,-1.69,-0.81,0.3022,-0.0056,0.0096,-0.9532,$GPGGA,171428.100,4041.2613,N,07422.9370,W,1,08,0.97,145.9,M,-34.2,M,,*58
354,0,0.04,0.07,0.00,-1.12,-0.94,-0.94,0.3018,-0.0070,0.0092,-0.9533,$GPGGA,171428.200,4041.2621,N,07422.9360,W,1,08,0.97,145.9,M,-34.2,M,,*5B
355,0,0.01,-0.05,0.00,0.37,0.19,-1.12,0.3009,-0.0073,0.0096,-0.9536,$GPGGA,171428.300,4041.2628,N,07422.9349,W,1,08,0.97,145.9,M,-34.2,M,,*58
356,0,0.09,0.31,0.13,-2.75,-1.25,-1.25,0.3000,-0.0081,0.0104,-0.9539,$GPGGA,171428.400,4041.2635,N,07422.9339,W,1,08,0.97,145.8,M,-34.2,M,,*55
357,0,0.23,0.43,0.00,-2.44,-0.56,-1.31,0.2991,-0.0095,0.0115,-0.9541,$GPGGA,171428.500,4041.2642,N,07422.9328,W,1,08,0.97,145.8,M,-34.2,M,,*54
358,0,0.21,0.15,-0.01,-0.44,0.69,-0.94,0.2982,-0.0102,0.0131,-0.9543,$GPGGA,171428.600,4041.2650,N,07422.9318,W,1,08,0.95,145.8,M,-34.2,M,,*55
359,0,0.26,0.06,0.28,-0.31,1.25,-0.88,0.2974,-0.0099,0.0139,-0.9546,$GPGGA,171428.700,4041.2657,N,07422.9308,W,1,08,0.95,145.8,M,-34.2,M,,*52
360,0,0.45,-0.11,0.00,1.00,-1.31,-1.00,0.2966,-0.0101,0.0137,-0.9548,$GPGGA,171428.800,4041.2665,N,07422.9298,W,1,08,0.97,145.7,M,-34.2,M,,*59
361,0,0.13,-0.26,0.53,0.56,-0.25,-0.94,0.2959,-0.0109,0.0134,-0.9551,$GPGGA,171428.900,4041.2672,N,07422.9288,W,1,08,0.97,145.7,M,-34.2,M,,*5F
362,0,0.33,0.20,0.00,-1.00,0.19,-0.81,0.2952,-0.0112,0.0135,-0.9553,$GPGGA,171429.000,4041.2680,N,07422.9278,W,1,08,0.97,145.7,M,-34.2,M,,*55
363,0,0.23,-0.38,0.09,-0.50,0.44,-0.88,0.2944,-0.0112,0.0138,-0.9555,$GPGGA,171429.100,4041.2687,N,07422.9269,W,1,08,0.97,145.7,M,-34.2,M,,*53
364,0,-0.16,0.04,-0.60,-0.25,-0.50,-1.00,0.2938,-0.0115,0.0140,-0.9557,$GPGGA,171429.200,4041.2694,N,07422.9259,W,1,08,0.97,145.7,M,-34.2,M,,*51
365,0,0.06,0.48,0.08,0.00,-0.56,-0.81,0.2931,-0.0120,0.0137,-0.9559,$GPGGA,171429.300,4041.2701,N,07422.9249,W,1,08,0.97,145.6,M,-34.2,M,,*5D
366,0,0.06,0.30,0.15,0.75,0.81,-0.44,0.2927,-0.0118,0.0129,-0.9561,$GPGGA,171429.400,4041.2708,N,07422.9239,W,1,08,0.97,145.6,M,-34.2,M,,*54
367,0,-0.05,0.71,-0.05,-0.62,-0.75,-0.81,0.2921,-0.0119,0.0117,-0.9562,$GPGGA,171429.500,4041.2716,N,07422.9229,W,1,08,0.97,145.6,M,-34.2,M,,*5B
368,0,0.13,0.27,0.04,-1.81,-1.56,-1.06,0.2913,-0.0138,0.0114,-0.9565,$GPGGA,171429.600,4041.2723,N,07422.9219,W,1,08,0.95,145.6,M,-34.2,M,,*5F
369,0,0.03,0.39,0.35,-0.56,0.00,-1.06,0.2903,-0.0145,0.0117,-0.9567,$GPGGA,171429.700,4041.2731,N,07422.9209,W,1,08,0.95,145.6,M,-34.2,M,,*5C
370,0,0.07,-0.29,-0.08,0.44,0.00,-1.12,0.2895,-0.0146,0.0118,-0.9570,$GPGGA,171429.800,4041.2738,N,07422.9199,W,1,08,0.95,145.6,M,-34.2,M,,*50
371,0,0.16,-0.64,-0.04,-0.25,-1.62,-0.88,0.2888,-0.0153,0.0114,-0.9572,$GPGGA,171429.900,4041.2746,N,07422.9189,W,1,08,0.95,145.6,M,-34.2,M,,*59
372,0,0.18,0.46,0.08,0.13,-0.75,-1.00,0.2881,-0.0159,0.0109,-0.9574,$GPGGA,171430.000,4041.2753,N,07422.9179,W,1,08,0.97,145.6,M,-34.2,M,,*51
373,0,0.27,-0.02,-0.31,0.88,0.19,-0.88,0.2873,-0.0159,0.0105,-0.9576,$GPGGA,171430.100,4041.2760,N,07422.9169,W,1,08,0.97,145.6,M,-34.2,M,,*51
374,0,0.13,-0.12,-0.66,-0.56,0.62,-1.00,0.2865,-0.0153,0.0104,-0.9579,$GPGGA,171430.200,4041.2768,N,07422.9159,W,1,08,0.97,145.6,M,-34.2,M,,*59
375,0,0.06,0.31,-0.04,0.75,-0.44,-0.94,0.2858,-0.0151,0.0100,-0.9581,$GPGGA,171430.300,4041.2775,N,07422.9149,W,1,08,0.97,145.6,M,-34.2,M,,*55
376,0,0.07,0.44,-0.12,-0.31,-1.37,-1.06,0.2850,-0.0162,0.0093,-0.9583,$GPGGA,171430.400,4041.2782,N,07422.9139,W,1,08,0.97,145.6,M,-34.2,M,,*5D
377,0,0.06,-0.43,-0.08,-0.19,-0.44,-0.94,0.2842,-0.0171,0.0090,-0.9586,$GPGGA,171430.500,4041.2789,N,07422.9129,W,1,08,0.97,145.6,M,-34.2,M,,*56
378,0,0.30,-0.01,-0.01,0.25,0.44,-1.19,0.2834,-0.0171,0.0090,-0.9588,$GPGGA,171430.600,4041.2797,N,07422.9119,W,1,08,0.97,145.6,M,-34.2,M,,*59
379,0,0.16,0.24,-0.41,0.50,1.56,-1.00,0.2825,-0.0163,0.0090,-0.9591,$GPGGA,171430.700,4041.2804,N,07422.9109,W,1,08,0.97,145.5,M,-34.2,M,,*5F
380,0,0.05,-0.20,-0.61,1.25,-0.25,-1.25,0.2816,-0.0157,0.0088,-0.9594,$GPGGA,171430.800,4041.2812,N,07422.9099,W,1,08,0.97,145.5,M,-34.2,M,,*5F
381,0,0.27,-0.10,0.66,2.19,-0.75,-0.94,0.2808,-0.0163,0.0074,-0.9596,$GPGGA,171430.900,4041.2820,N,07422.9090,W,1,08,0.97,145.5,M,-34.2,M,,*56
382,0,0.28,0.34,-0.07,2.50,0.06,-0.62,0.2803,-0.0164,0.0056,-0.9598,$GPGGA,171431.000,4041.2827,N,07422.9080,W,1,08,0.97,145.4,M,-34.2,M,,*59
383,0,0.28,0.36,0.02,0.50,-0.56,-0.69,0.2798,-0.0161,0.0043,-0.9599,$GPGGA,171431.100,4041.2835,N,07422.9070,W,1,08,0.97,145.4,M,-34.2,M,,*54
384,0,0.09,0.14,0.39,-0.50,-1.37,-0.69,0.2793,-0.0176,0.0030,-0.9600,$GPGGA,171431.200,4041.2842,N,07422.9060,W,1,08,0.97,145.4,M,-34.2,M,,*56
385,0,0.19,0.05,-0.13,-1.56,0.75,-0.88,0.2787,-0.0182,0.0040,-0.9602,$GPGGA,171431.300,4041.2850,N,07422.9050,W,1,08,0.97,145.3,M,-34.2,M,,*50
386,0,0.33,0.10,-0.18,-0.37,0.94,-0.50,0.2782,-0.0173,0.0044,-0.9603,$GPGGA,171431.400,4041.2857,N,07422.9040,W,1,08,0.97,145.3,M,-34.2,M,,*51
387,0,0.35,0.16,0.15,1.12,-1.25,-0.50,0.2781,-0.0174,0.0040,-0.9604,$GPGGA,171431.500,4041.2865,N,07422.9030,W,1,08,0.97,145.3,M,-34.2,M,,*56
388,0,0.41,0.45,-0.26,-0.81,-1.62,-0.44,0.2781,-0.0184,0.0035,-0.9604,$GPGGA,171431.600,4041.2873,N,07422.9020,W,1,08,0.95,145.2,M,-34.2,M,,*50
389,0,0.08,0.13,0.26,-0.88,-0.81,-0.50,0.2780,-0.0199,0.0027,-0.9604,$GPGGA,171431.700,4041.2880,N,07422.9011,W,1,08,0.95,145.2,M,-34.2,M,,*5F
390,0,0.10,0.02,0.23,-0.88,0.06,-0.50,0.2779,-0.0205,0.0024,-0.9604,$GPGGA,171431.800,4041.2888,N,07422.9001,W,1,08,0.95,145.2,M,-34.2,M,,*59
391,0,0.09,0.33,0.21,0.31,-0.31,-0.37,0.2779,-0.0206,0.0023,-0.9604,$GPGGA,171431.900,4041.2895,N,07422.8991,W,1,08,0.97,145.1,M,-34.2,M,,*54
392,0,0.23,0.15,-0.04,-0.75,-1.06,-0.37,0.2779,-0.0215,0.0016,-0.9604,$GPGGA,171432.000,4041.2902,N,07422.8981,W,1,08,0.97,145.0,M,-34.2,M,,*51
393,0,0.30,-0.02,-0.24,-0.31,-0.31,-0.62,0.2777,-0.0219,0.0015,-0.9604,$GPGGA,171432.100,4041.2909,N,07422.8972,W,1,08,0.97,144.9,M,-34.2,M,,*5F
394,0,-0.07,0.15,-0.75,-0.94,1.25,-0.62,0.2773,-0.0220,0.0019,-0.9605,$GPGGA,171432.200,4041.2917,N,07422.8962,W,1,08,0.97,144.8,M,-34.2,M,,*53
395,0,-0.08,0.09,0.07,-0.88,0.75,-0.81,0.2767,-0.0219,0.0022,-0.9607,$GPGGA,171432.300,4041.2924,N,07422.8952,W,1,08,0.97,144.7,M,-34.2,M,,*5E
396,0,0.41,0.16,-0.11,-1.19,-0.31,-1.06,0.2760,-0.0228,0.0022,-0.9609,$GPGGA,171432.400,4041.2931,N,07422.8942,W,1,08,0.97,144.6,M,-34.2,M,,*5D
397,0,0.31,0.18,0.16,-1.94,-0.19,-0.88,0.2751,-0.0235,0.0034,-0.9611,$GPGGA,171432.500,4041.2939,N,07422.8933,W,1,08,0.97,144.5,M,-34.2,M,,*51
398,0,0.27,0.55,-0.07,-1.44,0.81,-1.19,0.2742,-0.0239,0.0045,-0.9614,$GPGGA,171432.600,4041.2946,N,07422.8923,W,1,08,0.97,144.4,M,-34.2,M,,*5A
399,0,0.14,-0.44,-0.48,0.31,-1.19,-1.12,0.2733,-0.0244,0.0048,-0.9616,$GPGGA,171432.700,4041.2953,N,07422.8913,W,1,08,0.97,144.4,M,-34.2,M,,*5C
400,0,-0.25,-0.36,0.23,2.62,-0.31,-0.88,0.2724,-0.0251,0.0032,-0.9619,$GPGGA,171432.800,4041.2960,N,07422.8904,W,1,08,0.97,144.4,M,-34.2,M,,*55
401,0,0.32,0.22,-0.18,1.37,1.31,-0.81,0.2717,-0.0247,0.0021,-0.9620,$GPGGA,171432.900,4041.2968,N,07422.8894,W,1,08,0.97,144.3,M,-34.2,M,,*53
402,0,0.04,0.20,-0.23,-0.13,-0.25,-1.12,0.2710,-0.0247,0.0015,-0.9623,$GPGGA,171433.000,4041.2975,N,07422.8885,W,1,08,0.97,144.3,M,-34.2,M,,*57
403,0,0.26,-0.04,0.40,-0.44,-0.25,-1.31,0.2700,-0.0255,0.0018,-0.9625,$GPGGA,171433.100,4041.2982,N,07422.8876,W,1,08,0.97,144.2,M,-34.2,M,,*53
404,0,0.37,0.41,-0.31,-0.75,1.00,-1.25,0.2689,-0.0264,0.0013,-0.9628,$GPGGA,171433.200,4041.2989,N,07422.8866,W,1,08,0.97,144.1,M,-34.2,M,,*59
405,0,0.20,0.01,0.10,0.88,-0.56,-1.12,0.2680,-0.0262,0.0012,-0.9631,$GPGGA,171433.300,4041.2996,N,07422.8857,W,1,08,0.97,144.0,M,-34.2,M,,*55
406,0,0.55,-0.08,-0.13,1.25,-0.81,-0.94,0.2672,-0.0270,0.0004,-0.9633,$GPGGA,171433.400,4041.3003,N,07422.8847,W,1,08,0.97,144.0,M,-34.2,M,,*57
407,0,-0.03,0.01,0.06,1.06,-0.56,-1.12,0.2663,-0.0281,-0.0002,-0.9635,$GPGGA,171433.500,4041.3010,N,07422.8838,W,1,08,0.97,143.9,M,-34.2,M,,*52
408,0,0.16,0.12,0.32,0.06,0.37,-1.44,0.2653,-0.0284,-0.0005,-0.9637,$GPGGA,171433.600,4041.3017,N,07422.8828,W,1,08,0.95,143.9,M,-34.2,M,,*55
409,0,0.23,0.06,-0.19,0.00,0.13,-1.50,0.2640,-0.0284,-0.0005,-0.9641,$GPGGA,171433.700,4041.3024,N,07422.8819,W,1,08,0.95,143.8,M,-34.2,M,,*57
410,0,0.15,-0.15,0.22,-0.94,-0.44,-1.62,0.2628,-0.0291,-0.0002,-0.9644,$GPGGA,171433.800,4041.3031,N,07422.8809,W,1,08,0.95,143.8,M,-34.2,M,,*5D
411,0,0.43,0.28,-0.02,-1.69,2.44,-1.56,0.2615,-0.0286,0.0012,-0.9648,$GPGGA,171433.900,4041.3038,N,07422.8800,W,1,08,0.97,143.7,M,-34.2,M,,*51
412,0,0.27,-0.36,-0.86,-2.06,-1.25,-1.56,0.2602,-0.0287,0.0023,-0.9651,$GPGGA,171434.000,4041.3045,N,07422.8790,W,1,08,0.97,143.6,M,-34.2,M,,*52
413,0,0.30,-0.87,1.05,-1.50,-1.62,-1.81,0.2587,-0.0306,0.0032,-0.9655,$GPGGA,171434.100,4041.3052,N,07422.8780,W,1,08,0.97,143.6,M,-34.2,M,,*54
