0,0,0.26,-0.06,0.14,5.81,3.62,5.56,-0.1234,-0.1512,-0.0389,-0.9800,$GPGGA,170800.700,4042.3173,N,07421.5361,W,1,06,1.31,107.2,M,-34.2,M,,*5B
1,0,0.44,-0.13,0.46,-12.88,-17.94,4.75,-0.1195,-0.1564,-0.0358,-0.9798,$GPGGA,170800.900,4042.3162,N,07421.5370,W,1,06,1.31,107.1,M,-34.2,M,,*56
2,0,0.03,0.12,-0.02,-1.31,-1.44,4.25,-0.1163,-0.1591,-0.0319,-0.9799,$GPGGA,170801.000,4042.3161,N,07421.5373,W,1,06,1.21,107.0,M,-34.2,M,,*5E
3,0,0.16,-0.23,0.12,-0.81,-0.81,3.62,-0.1130,-0.1595,-0.0296,-0.9802,$GPGGA,170801.100,4042.3159,N,07421.5377,W,1,06,1.21,107.0,M,-34.2,M,,*50
4,0,-0.55,-0.30,0.29,1.31,-0.13,3.62,-0.1099,-0.1591,-0.0283,-0.9807,$GPGGA,170801.200,4042.3156,N,07421.5381,W,1,06,1.31,107.0,M,-34.2,M,,*54
5,0,-0.84,-0.09,0.65,1.06,-0.19,3.44,-0.1071,-0.1553,-0.0280,-0.9816,$GPGGA,170801.300,4042.3151,N,07421.5385,W,1,06,1.31,106.9,M,-34.2,M,,*5E
6,0,-0.74,0.02,-0.20,1.37,1.06,3.37,-0.1044,-0.1522,-0.0285,-0.9824,$GPGGA,170801.400,4042.3147,N,07421.5392,W,1,06,1.31,106.9,M,-34.2,M,,*58
7,0,-0.49,0.07,-0.63,0.25,0.37,3.37,-0.1015,-0.1521,-0.0287,-0.9827,$GPGGA,170801.500,4042.3143,N,07421.5398,W,1,06,1.31,106.8,M,-34.2,M,,*56
8,0,-0.68,-0.09,0.59,0.31,-0.62,3.25,-0.0988,-0.1511,-0.0283,-0.9832,$GPGGA,170801.600,4042.3140,N,07421.5402,W,1,06,1.21,106.8,M,-34.2,M,,*53
9,0,-0.63,0.16,0.79,0.37,0.13,3.37,-0.0960,-0.1512,-0.0280,-0.9834,$GPGGA,170801.700,4042.3136,N,07421.5408,W,1,06,1.21,106.8,M,-34.2,M,,*59
10,0,-0.51,-0.14,0.04,-0.13,-0.31,3.37,-0.0931,-0.1513,-0.0276,-0.9837,$GPGGA,170801.800,4042.3132,N,07421.5413,W,1,06,1.21,106.7,M,-34.2,M,,*57
11,0,-0.16,0.46,0.06,-0.25,-0.69,3.00,-0.0906,-0.1496,-0.0272,-0.9842,$GPGGA,170801.900,4042.3128,N,07421.5418,W,1,06,1.21,106.7,M,-34.2,M,,*56
12,0,-0.22,0.26,0.23,-0.81,-0.19,2.75,-0.0883,-0.1496,-0.0258,-0.9844,$GPGGA,170802.000,4042.3124,N,07421.5423,W,1,06,1.21,106.7,M,-34.2,M,,*58
13,0,-0.48,0.29,0.05,-0.13,0.75,2.31,-0.0863,-0.1480,-0.0255,-0.9849,$GPGGA,170802.100,4042.3121,N,07421.5428,W,1,06,1.21,106.6,M,-34.2,M,,*56
14,0,-0.16,0.20,0.10,-0.06,0.62,2.00,-0.0845,-0.1465,-0.0244,-0.9853,$GPGGA,170802.200,4042.3117,N,07421.5433,W,1,06,1.21,106.6,M,-34.2,M,,*5A
15,0,-0.06,-0.08,0.69,-2.25,-3.12,1.62,-0.0831,-0.1464,-0.0233,-0.9855,$GPGGA,170802.300,4042.3113,N,07421.5438,W,1,06,1.21,106.6,M,-34.2,M,,*54
16,0,-0.05,-0.23,0.20,-0.19,-1.19,1.56,-0.0818,-0.1472,-0.0211,-0.9855,$GPGGA,170802.400,4042.3109,N,07421.5444,W,1,06,1.21,106.5,M,-34.2,M,,*50
17,0,-0.06,-0.20,0.41,-0.50,0.13,1.25,-0.0806,-0.1478,-0.0205,-0.9855,$GPGGA,170802.500,4042.3105,N,07421.5449,W,1,06,1.21,106.5,M,-34.2,M,,*50
18,0,-0.52,-0.16,-0.29,-1.37,-0.19,1.19,-0.0795,-0.1479,-0.0198,-0.9856,$GPGGA,170802.600,4042.3102,N,07421.5455,W,1,06,1.21,106.5,M,-34.2,M,,*59
19,0,-0.50,-0.18,0.38,0.13,1.00,1.56,-0.0783,-0.1468,-0.0190,-0.9859,$GPGGA,170802.700,4042.3099,N,07421.5461,W,1,06,1.21,106.4,M,-34.2,M,,*5D
20,0,-0.36,-0.16,0.14,-0.44,1.19,1.56,-0.0770,-0.1456,-0.0185,-0.9861,$GPGGA,170802.800,4042.3096,N,07421.5466,W,1,06,1.21,106.4,M,-34.2,M,,*5A
21,0,-0.37,0.00,0.39,-0.62,0.56,1.25,-0.0759,-0.1443,-0.0179,-0.9865,$GPGGA,170802.900,4042.3092,N,07421.5472,W,1,06,1.21,106.4,M,-34.2,M,,*5A
22,0,-0.21,-0.37,0.51,-0.56,0.37,0.94,-0.0750,-0.1432,-0.0170,-0.9867,$GPGGA,170803.000,4042.3089,N,07421.5477,W,1,06,1.21,106.3,M,-34.2,M,,*5A
23,0,-0.18,-0.17,0.54,0.37,1.19,1.00,-0.0742,-0.1429,-0.0167,-0.9868,$GPGGA,170803.100,4042.3085,N,07421.5483,W,1,06,1.21,106.3,M,-34.2,M,,*5C
24,0,-0.41,-0.36,0.14,1.31,1.94,0.69,-0.0736,-0.1418,-0.0170,-0.9870,$GPGGA,170803.200,4042.3082,N,07421.5489,W,1,06,1.21,106.3,M,-34.2,M,,*52
25,0,-1.32,-0.93,-0.69,1.50,2.19,0.69,-0.0729,-0.1400,-0.0179,-0.9873,$GPGGA,170803.300,4042.3079,N,07421.5495,W,1,06,1.21,106.3,M,-34.2,M,,*5A
26,0,-0.33,-0.51,0.33,3.19,0.06,-0.06,-0.0725,-0.1387,-0.0180,-0.9875,$GPGGA,170803.400,4042.3073,N,07421.5502,W,1,06,1.21,106.2,M,-34.2,M,,*59
27,0,-0.41,-0.49,0.60,1.56,-0.44,-0.56,-0.0721,-0.1373,-0.0181,-0.9877,$GPGGA,170803.500,4042.3065,N,07421.5510,W,1,06,1.21,106.2,M,-34.2,M,,*5C
28,0,-0.47,-0.89,-0.50,2.56,-0.31,-0.75,-0.0724,-0.1374,-0.0190,-0.9877,$GPGGA,170803.600,4042.3058,N,07421.5517,W,1,06,1.21,106.2,M,-34.2,M,,*56
29,0,-0.51,-0.84,0.21,0.50,0.13,-0.56,-0.0724,-0.1359,-0.0175,-0.9879,$GPGGA,170803.700,4042.3051,N,07421.5526,W,1,06,1.21,106.1,M,-34.2,M,,*5F
30,0,-0.39,0.13,-0.42,1.81,-0.06,-0.62,-0.0721,-0.1320,-0.0146,-0.9885,$GPGGA,170803.800,4042.3044,N,07421.5534,W,1,06,1.21,106.1,M,-34.2,M,,*57
31,0,-0.51,-0.59,-0.39,0.94,0.56,-0.69,-0.0724,-0.1320,-0.0150,-0.9885,$GPGGA,170803.900,4042.3036,N,07421.5543,W,1,06,1.21,106.0,M,-34.2,M,,*52
32,0,-0.83,0.00,-0.09,1.37,1.69,-0.56,-0.0725,-0.1309,-0.0159,-0.9886,$GPGGA,170804.000,4042.3027,N,07421.5552,W,1,06,1.31,106.0,M,-34.2,M,,*5D
33,0,-0.60,-0.04,-0.33,2.25,0.44,-0.81,-0.0728,-0.1281,-0.0168,-0.9890,$GPGGA,170804.100,4042.3019,N,07421.5561,W,1,06,1.31,106.0,M,-34.2,M,,*51
34,0,-1.04,-0.39,0.68,0.37,-3.31,-0.50,-0.0732,-0.1278,-0.0168,-0.9890,$GPGGA,170804.200,4042.3011,N,07421.5572,W,1,06,1.21,106.0,M,-34.2,M,,*59
35,0,-0.91,-0.11,1.64,0.31,-2.00,-0.50,-0.0735,-0.1303,-0.0172,-0.9886,$GPGGA,170804.300,4042.3003,N,07421.5581,W,1,06,1.21,105.9,M,-34.2,M,,*5D
36,0,-0.51,0.12,0.33,-0.31,0.50,-0.75,-0.0738,-0.1307,-0.0163,-0.9885,$GPGGA,170804.400,4042.2995,N,07421.5590,W,1,06,1.31,105.9,M,-34.2,M,,*5C
37,0,-1.06,-0.41,-0.76,-1.31,0.81,-0.69,-0.0743,-0.1303,-0.0157,-0.9886,$GPGGA,170804.500,4042.2987,N,07421.5598,W,1,06,1.31,105.9,M,-34.2,M,,*56
38,0,-1.18,-0.28,0.41,-1.56,0.37,-0.50,-0.0748,-0.1288,-0.0143,-0.9887,$GPGGA,170804.600,4042.2982,N,07421.5606,W,1,06,1.21,105.9,M,-34.2,M,,*55
39,0,-0.91,-0.35,0.20,-0.50,-0.06,-0.50,-0.0750,-0.1288,-0.0133,-0.9888,$GPGGA,170804.700,4042.2975,N,07421.5615,W,1,06,1.21,105.8,M,-34.2,M,,*5F
40,0,-0.84,-0.25,0.55,-2.06,0.19,-0.37,-0.0753,-0.1287,-0.0123,-0.9888,$GPGGA,170804.800,4042.2969,N,07421.5623,W,1,06,1.21,105.8,M,-34.2,M,,*58
41,0,-0.70,-0.38,0.63,-1.12,0.00,-0.62,-0.0756,-0.1287,-0.0111,-0.9887,$GPGGA,170804.900,4042.2963,N,07421.5632,W,1,06,1.21,105.8,M,-34.2,M,,*53
42,0,-0.71,0.05,0.27,-2.19,0.56,-0.44,-0.0761,-0.1285,-0.0090,-0.9887,$GPGGA,170805.000,4042.2957,N,07421.5641,W,1,06,1.21,105.8,M,-34.2,M,,*58
43,0,-0.57,-0.52,0.12,-2.56,-0.62,-0.31,-0.0765,-0.1270,-0.0069,-0.9890,$GPGGA,170805.100,4042.2949,N,07421.5649,W,1,06,1.21,105.7,M,-34.2,M,,*51
44,0,-0.73,-0.10,0.02,-2.19,-1.19,-0.56,-0.0768,-0.1259,-0.0042,-0.9891,$GPGGA,170805.200,4042.2942,N,07421.5657,W,1,06,1.21,105.7,M,-34.2,M,,*56
45,0,-0.57,-0.49,-0.02,-1.69,1.50,-0.19,-0.0771,-0.1231,-0.0020,-0.9894,$GPGGA,170805.300,4042.2935,N,07421.5665,W,1,06,1.32,105.7,M,-34.2,M,,*54
46,0,-0.81,-0.08,0.38,1.62,4.06,0.19,-0.0771,-0.1207,-0.0023,-0.9897,$GPGGA,170805.400,4042.2927,N,07421.5675,W,1,06,1.21,105.6,M,-34.2,M,,*52
47,0,-0.63,-0.08,-0.66,1.94,1.25,0.31,-0.0769,-0.1185,-0.0038,-0.9900,$GPGGA,170805.500,4042.2919,N,07421.5685,W,1,06,1.31,105.6,M,-34.2,M,,*50
48,0,-0.80,-0.17,0.19,2.06,-1.06,0.25,-0.0767,-0.1186,-0.0056,-0.9899,$GPGGA,170805.600,4042.2912,N,07421.5693,W,1,06,1.21,105.6,M,-34.2,M,,*5E
49,0,-0.55,-0.02,0.23,0.81,-1.19,-0.06,-0.0766,-0.1135,-0.0070,-0.9905,$GPGGA,170805.700,4042.2904,N,07421.5701,W,1,06,1.21,105.6,M,-34.2,M,,*52
50,0,-0.78,-0.38,1.20,0.25,-0.69,-0.69,-0.0768,-0.1130,-0.0065,-0.9906,$GPGGA,170805.800,4042.2897,N,07421.5710,W,1,06,1.21,105.5,M,-34.2,M,,*55
51,0,-1.12,-0.72,0.06,-0.94,0.13,-0.50,-0.0773,-0.1123,-0.0063,-0.9907,$GPGGA,170805.900,4042.2889,N,07421.5718,W,1,06,1.21,105.5,M,-34.2,M,,*53
52,0,-0.91,0.16,-1.00,0.44,1.06,-0.44,-0.0776,-0.1121,-0.0068,-0.9907,$GPGGA,170806.000,4042.2881,N,07421.5727,W,1,06,1.21,105.5,M,-34.2,M,,*5D
53,0,-0.72,-0.40,-0.31,3.00,0.69,-0.19,-0.0775,-0.1118,-0.0082,-0.9907,$GPGGA,170806.100,4042.2873,N,07421.5735,W,1,06,1.21,105.4,M,-34.2,M,,*53
54,0,-0.90,-0.18,0.58,2.31,0.50,-0.44,-0.0772,-0.1106,-0.0103,-0.9908,$GPGGA,170806.200,4042.2866,N,07421.5744,W,1,06,1.21,105.4,M,-34.2,M,,*52
55,0,-1.45,0.00,0.48,0.00,-0.81,-0.50,-0.0772,-0.1108,-0.0109,-0.9908,$GPGGA,170806.300,4042.2858,N,07421.5753,W,1,06,1.21,105.4,M,-34.2,M,,*58
56,0,-0.80,0.29,0.67,-4.44,-3.44,-0.88,-0.0780,-0.1127,-0.0086,-0.9905,$GPGGA,170806.400,4042.2850,N,07421.5762,W,1,06,1.21,105.4,M,-34.2,M,,*55
57,0,-1.13,-0.56,0.82,-5.69,-2.12,-0.88,-0.0795,-0.1111,-0.0043,-0.9906,$GPGGA,170806.500,4042.2841,N,07421.5771,W,1,06,1.31,105.3,M,-34.2,M,,*50
58,0,-1.05,-0.08,-0.13,-4.06,2.44,-0.62,-0.0804,-0.1097,-0.0001,-0.9907,$GPGGA,170806.600,4042.2834,N,07421.5780,W,1,06,1.21,105.3,M,-34.2,M,,*5E
59,0,-1.61,-0.25,-1.26,-1.62,4.19,-0.50,-0.0807,-0.1060,0.0015,-0.9911,$GPGGA,170806.700,4042.2825,N,07421.5789,W,1,06,1.21,105.3,M,-34.2,M,,*56
60,0,-1.51,-0.51,-0.92,1.06,1.87,-0.31,-0.0806,-0.0998,0.0027,-0.9917,$GPGGA,170806.800,4042.2817,N,07421.5798,W,1,06,1.21,105.3,M,-34.2,M,,*58
61,0,-1.25,-0.38,-0.21,2.37,-0.13,-0.19,-0.0804,-0.0996,0.0002,-0.9918,$GPGGA,170806.900,4042.2810,N,07421.5807,W,1,06,1.21,105.3,M,-34.2,M,,*57
62,0,-1.76,-0.22,0.56,2.81,-0.56,-0.37,-0.0802,-0.1003,-0.0020,-0.9917,$GPGGA,170807.000,4042.2802,N,07421.5817,W,1,06,1.21,105.2,M,-34.2,M,,*5C
63,0,-1.26,0.11,0.96,1.50,-0.37,-0.56,-0.0802,-0.1010,-0.0027,-0.9916,$GPGGA,170807.100,4042.2794,N,07421.5826,W,1,06,1.21,105.2,M,-34.2,M,,*5F
64,0,-1.54,-0.71,-0.05,-1.00,1.31,-0.69,-0.0807,-0.1007,-0.0027,-0.9916,$GPGGA,170807.200,4042.2785,N,07421.5835,W,1,06,1.31,105.2,M,-34.2,M,,*5F
65,0,-1.45,0.22,-0.90,-0.94,1.00,-0.88,-0.0813,-0.0999,-0.0023,-0.9916,$GPGGA,170807.300,4042.2777,N,07421.5844,W,1,06,1.31,105.1,M,-34.2,M,,*56
66,0,-1.45,-0.35,-0.62,-0.81,0.50,-0.81,-0.0817,-0.0975,-0.0017,-0.9919,$GPGGA,170807.400,4042.2769,N,07421.5853,W,1,06,1.31,105.1,M,-34.2,M,,*58
67,0,-1.26,-0.78,0.30,0.25,1.44,-0.44,-0.0820,-0.0927,-0.0011,-0.9923,$GPGGA,170807.500,4042.2760,N,07421.5863,W,1,06,1.32,105.1,M,-34.2,M,,*50
68,0,-1.27,0.13,0.50,1.62,-0.69,-0.44,-0.0820,-0.0901,-0.0010,-0.9926,$GPGGA,170807.600,4042.2753,N,07421.5871,W,1,06,1.21,105.0,M,-34.2,M,,*53
69,0,-1.38,-0.06,1.24,-1.00,-3.62,-0.88,-0.0826,-0.0864,-0.0004,-0.9929,$GPGGA,170807.700,4042.2745,N,07421.5880,W,1,06,1.21,105.0,M,-34.2,M,,*5B
70,0,-1.05,-0.33,0.04,-0.88,-0.13,-0.94,-0.0834,-0.0861,0.0007,-0.9928,$GPGGA,170807.800,4042.2737,N,07421.5889,W,1,06,1.21,105.0,M,-34.2,M,,*58
71,0,-0.89,-0.45,-0.53,-1.37,1.31,-0.81,-0.0842,-0.0853,0.0011,-0.9928,$GPGGA,170807.900,4042.2729,N,07421.5898,W,1,06,1.21,105.0,M,-34.2,M,,*56
72,0,-0.97,-0.17,-0.78,0.50,1.25,-0.88,-0.0849,-0.0746,0.0032,-0.9936,$GPGGA,170808.000,4042.2721,N,07421.5907,W,1,06,1.21,104.9,M,-34.2,M,,*57
73,0,-0.78,-0.77,-0.56,-0.13,0.62,-0.81,-0.0856,-0.0742,0.0028,-0.9936,$GPGGA,170808.100,4042.2712,N,07421.5916,W,1,06,1.21,104.9,M,-34.2,M,,*56
74,0,-0.63,-0.13,0.19,0.88,0.37,-0.81,-0.0861,-0.0723,0.0023,-0.9937,$GPGGA,170808.200,4042.2704,N,07421.5926,W,1,06,1.21,104.9,M,-34.2,M,,*51
75,0,-0.66,0.09,-0.22,0.62,0.37,-0.94,-0.0867,-0.0663,0.0025,-0.9940,$GPGGA,170808.300,4042.2696,N,07421.5935,W,1,06,1.21,104.9,M,-34.2,M,,*58
76,0,-0.72,-0.69,0.03,1.00,-0.50,-0.94,-0.0874,-0.0649,0.0024,-0.9941,$GPGGA,170808.400,4042.2688,N,07421.5944,W,1,06,1.21,104.9,M,-34.2,M,,*56
77,0,-0.62,-0.24,-0.16,0.69,-0.25,-0.94,-0.0881,-0.0632,0.0021,-0.9941,$GPGGA,170808.500,4042.2680,N,07421.5953,W,1,06,1.21,104.9,M,-34.2,M,,*59
78,0,-0.54,-0.01,0.20,1.62,0.37,-0.56,-0.0886,-0.0612,0.0016,-0.9942,$GPGGA,170808.600,4042.2672,N,07421.5962,W,1,06,1.21,104.8,M,-34.2,M,,*54
79,0,-0.59,0.63,-0.16,1.44,0.31,-0.50,-0.0886,-0.0607,0.0006,-0.9942,$GPGGA,170808.700,4042.2664,N,07421.5971,W,1,06,1.21,104.8,M,-34.2,M,,*50
80,0,-0.51,0.20,0.25,0.25,-0.81,-0.50,-0.0887,-0.0602,-0.0001,-0.9943,$GPGGA,170808.800,4042.2656,N,07421.5981,W,1,06,1.21,104.8,M,-34.2,M,,*51
81,0,-0.28,-0.26,0.06,-1.00,-0.25,-0.56,-0.0888,-0.0587,-0.0007,-0.9943,$GPGGA,170808.900,4042.2648,N,07421.5990,W,1,06,1.21,104.8,M,-34.2,M,,*5F
82,0,-0.26,0.11,-0.15,-1.31,0.62,-0.31,-0.0889,-0.0580,-0.0002,-0.9943,$GPGGA,170809.000,4042.2640,N,07421.5999,W,1,06,1.21,104.7,M,-34.2,M,,*59
83,0,-0.36,0.08,0.40,0.50,0.13,-0.31,-0.0889,-0.0579,0.0002,-0.9944,$GPGGA,170809.100,4042.2632,N,07421.6008,W,1,06,1.21,104.7,M,-34.2,M,,*5F
84,0,-0.36,-0.23,-0.01,1.69,1.56,-0.37,-0.0889,-0.0574,-0.0004,-0.9944,$GPGGA,170809.200,4042.2623,N,07421.6017,W,1,06,1.21,104.7,M,-34.2,M,,*52
85,0,-0.17,0.08,-0.85,-0.88,1.37,-0.13,-0.0889,-0.0558,-0.0010,-0.9945,$GPGGA,170809.300,4042.2615,N,07421.6026,W,1,06,1.21,104.7,M,-34.2,M,,*54
86,0,-0.59,-0.36,-0.16,-0.62,-1.50,-0.50,-0.0889,-0.0557,-0.0012,-0.9945,$GPGGA,170809.400,4042.2607,N,07421.6035,W,1,06,1.32,104.7,M,-34.2,M,,*50
87,0,-0.22,0.59,1.03,-2.62,-2.31,-0.88,-0.0893,-0.0577,0.0007,-0.9943,$GPGGA,170809.500,4042.2598,N,07421.6044,W,1,06,1.32,104.7,M,-34.2,M,,*52
88,0,-0.36,-0.33,0.49,-1.50,0.06,-0.69,-0.0902,-0.0585,0.0032,-0.9942,$GPGGA,170809.600,4042.2591,N,07421.6053,W,1,06,1.21,104.6,M,-34.2,M,,*5D
89,0,-0.46,-0.41,0.67,-1.25,-0.06,-0.44,-0.0906,-0.0584,0.0044,-0.9941,$GPGGA,170809.700,4042.2583,N,07421.6061,W,1,06,1.21,104.6,M,-34.2,M,,*5E
90,0,-0.36,-0.12,-0.21,0.62,-0.19,-0.25,-0.0906,-0.0584,0.0044,-0.9941,$GPGGA,170809.800,4042.2575,N,07421.6070,W,1,06,1.21,104.6,M,-34.2,M,,*58
91,0,-0.66,0.61,-0.33,2.00,1.00,-0.44,-0.0905,-0.0576,0.0035,-0.9942,$GPGGA,170809.900,4042.2567,N,07421.6079,W,1,06,1.31,104.6,M,-34.2,M,,*52
92,0,-0.77,-0.49,0.08,1.44,1.94,-0.44,-0.0904,-0.0550,0.0031,-0.9944,$GPGGA,170810.000,4042.2559,N,07421.6088,W,1,06,1.31,104.5,M,-34.2,M,,*53
93,0,-0.28,-0.20,-0.81,4.25,-0.31,-0.37,-0.0903,-0.0544,0.0001,-0.9944,$GPGGA,170810.100,4042.2551,N,07421.6098,W,1,06,1.31,104.5,M,-34.2,M,,*5B
94,0,-0.69,-0.24,-0.89,5.19,-0.25,0.00,-0.0901,-0.0554,-0.0042,-0.9944,$GPGGA,170810.200,4042.2543,N,07421.6107,W,1,06,1.31,104.5,M,-34.2,M,,*5C
95,0,-0.34,-0.48,-0.22,3.50,0.75,0.06,-0.0898,-0.0555,-0.0079,-0.9944,$GPGGA,170810.300,4042.2534,N,07421.6117,W,1,06,1.31,104.5,M,-34.2,M,,*5C
96,0,-0.30,0.32,-0.27,-0.31,-0.37,-0.25,-0.0898,-0.0556,-0.0092,-0.9944,$GPGGA,170810.400,4042.2526,N,07421.6127,W,1,06,1.31,104.5,M,-34.2,M,,*5B
97,0,-0.29,0.60,-0.51,-1.06,0.69,-0.62,-0.0905,-0.0547,-0.0099,-0.9943,$GPGGA,170810.500,4042.2517,N,07421.6137,W,1,06,1.31,104.4,M,-34.2,M,,*58
98,0,-0.24,-0.05,-0.16,-1.31,-0.06,-0.50,-0.0908,-0.0544,-0.0087,-0.9943,$GPGGA,170810.600,4042.2509,N,07421.6146,W,1,06,1.21,104.4,M,-34.2,M,,*53
99,0,-0.53,-0.02,0.33,-1.56,-0.75,-0.25,-0.0909,-0.0538,-0.0075,-0.9944,$GPGGA,170810.700,4042.2501,N,07421.6156,W,1,06,1.21,104.4,M,-34.2,M,,*5B
100,0,-0.37,-0.06,0.23,-0.88,0.13,0.00,-0.0910,-0.0536,-0.0063,-0.9944,$GPGGA,170810.800,4042.2492,N,07421.6165,W,1,06,1.21,104.4,M,-34.2,M,,*5F
101,0,-0.09,0.45,-0.27,-0.19,3.75,-0.25,-0.0909,-0.0518,-0.0070,-0.9945,$GPGGA,170810.900,4042.2484,N,07421.6174,W,1,06,1.21,104.3,M,-34.2,M,,*5E
102,0,-0.39,-0.65,-1.24,1.50,0.62,-0.25,-0.0909,-0.0491,-0.0072,-0.9946,$GPGGA,170811.000,4042.2476,N,07421.6184,W,1,06,1.31,104.3,M,-34.2,M,,*55
103,0,-0.19,-0.01,0.86,0.69,-3.44,-0.25,-0.0909,-0.0511,-0.0082,-0.9945,$GPGGA,170811.100,4042.2467,N,07421.6193,W,1,06,1.31,104.3,M,-34.2,M,,*52
104,0,-0.42,0.34,0.74,0.00,-2.87,-0.31,-0.0909,-0.0542,-0.0079,-0.9943,$GPGGA,170811.200,4042.2459,N,07421.6202,W,1,06,1.31,104.3,M,-34.2,M,,*57
105,0,-0.23,-0.09,0.72,-2.31,-1.19,-0.44,-0.0910,-0.0558,-0.0067,-0.9943,$GPGGA,170811.300,4042.2450,N,07421.6211,W,1,06,1.31,104.2,M,-34.2,M,,*5C
106,0,-0.25,-0.40,-0.38,-3.00,1.44,-0.56,-0.0912,-0.0553,-0.0051,-0.9943,$GPGGA,170811.400,4042.2442,N,07421.6220,W,1,06,1.21,104.2,M,-34.2,M,,*5B
107,0,-0.44,0.32,-0.75,-2.62,1.19,-0.37,-0.0914,-0.0540,-0.0026,-0.9943,$GPGGA,170811.500,4042.2433,N,07421.6229,W,1,06,1.31,104.2,M,-34.2,M,,*54
108,0,-0.50,-0.55,-0.61,-3.81,0.94,-0.69,-0.0917,-0.0526,-0.0004,-0.9944,$GPGGA,170811.600,4042.2425,N,07421.6238,W,1,06,1.21,104.2,M,-34.2,M,,*51
109,0,-0.37,-0.31,0.08,-0.94,1.00,-0.31,-0.0920,-0.0513,0.0012,-0.9944,$GPGGA,170811.700,4042.2416,N,07421.6247,W,1,06,1.21,104.1,M,-34.2,M,,*5B
110,0,-0.55,0.42,-0.42,-0.13,1.06,-0.25,-0.0920,-0.0489,0.0031,-0.9946,$GPGGA,170811.800,4042.2408,N,07421.6256,W,1,06,1.21,104.1,M,-34.2,M,,*5B
111,0,-0.35,0.02,-0.63,1.19,0.94,-0.56,-0.0920,-0.0480,0.0027,-0.9946,$GPGGA,170811.900,4042.2399,N,07421.6265,W,1,06,1.21,104.1,M,-34.2,M,,*55
112,0,-0.51,-0.28,-0.13,1.94,1.12,-0.50,-0.0919,-0.0469,0.0014,-0.9946,$GPGGA,170812.000,4042.2391,N,07421.6274,W,1,06,1.32,104.1,M,-34.2,M,,*55
113,0,-0.43,0.33,-0.52,2.50,0.56,-0.37,-0.0919,-0.0461,-0.0005,-0.9947,$GPGGA,170812.100,4042.2382,N,07421.6283,W,1,06,1.32,104.1,M,-34.2,M,,*5E
114,0,-0.43,-0.18,0.65,1.19,-1.56,-0.75,-0.0922,-0.0470,-0.0017,-0.9946,$GPGGA,170812.200,4042.2374,N,07421.6292,W,1,06,1.31,104.0,M,-34.2,M,,*56
115,0,-0.30,0.21,0.46,-0.88,-0.13,-0.88,-0.0928,-0.0474,-0.0018,-0.9946,$GPGGA,170812.300,4042.2366,N,07421.6302,W,1,06,1.31,104.0,M,-34.2,M,,*5C
116,0,-0.44,0.17,-0.87,-1.69,1.19,-0.88,-0.0934,-0.0464,-0.0010,-0.9946,$GPGGA,170812.400,4042.2358,N,07421.6311,W,1,06,1.31,104.0,M,-34.2,M,,*54
117,0,-0.09,-0.31,-0.54,-1.37,0.75,-0.69,-0.0942,-0.0451,0.0001,-0.9945,$GPGGA,170812.500,4042.2349,N,07421.6320,W,1,06,1.31,104.0,M,-34.2,M,,*57
118,0,-0.44,-0.20,-0.40,-0.37,-0.25,-0.69,-0.0948,-0.0435,0.0007,-0.9946,$GPGGA,170812.600,4042.2340,N,07421.6329,W,1,06,1.21,103.9,M,-34.2,M,,*5B
119,0,-0.44,0.17,0.44,-0.19,-1.56,-0.44,-0.0951,-0.0439,0.0010,-0.9945,$GPGGA,170812.700,4042.2332,N,07421.6338,W,1,06,1.21,103.9,M,-34.2,M,,*5F
120,0,-0.27,-0.15,0.18,-1.44,-1.06,-0.88,-0.0953,-0.0443,0.0019,-0.9944,$GPGGA,170812.800,4042.2324,N,07421.6347,W,1,06,1.21,103.9,M,-34.2,M,,*5F
121,0,-0.30,-0.23,-0.30,0.19,1.87,-0.62,-0.0958,-0.0437,0.0027,-0.9944,$GPGGA,170812.900,4042.2316,N,07421.6356,W,1,06,1.21,103.8,M,-34.2,M,,*5E
122,0,-0.20,-0.18,-1.52,0.00,2.25,-0.62,-0.0964,-0.0414,0.0029,-0.9944,$GPGGA,170813.000,4042.2308,N,07421.6365,W,1,06,1.21,103.8,M,-34.2,M,,*59
123,0,-0.30,-0.69,-0.16,3.75,1.06,-0.62,-0.0966,-0.0398,0.0018,-0.9945,$GPGGA,170813.100,4042.2299,N,07421.6374,W,1,06,1.21,103.8,M,-34.2,M,,*51
124,0,-0.22,-0.09,0.14,3.62,-0.62,-0.50,-0.0966,-0.0395,-0.0005,-0.9945,$GPGGA,170813.200,4042.2291,N,07421.6383,W,1,06,1.31,103.8,M,-34.2,M,,*53
125,0,-0.33,0.34,0.46,0.56,-0.81,-0.31,-0.0966,-0.0402,-0.0023,-0.9945,$GPGGA,170813.300,4042.2283,N,07421.6392,W,1,06,1.31,103.7,M,-34.2,M,,*5E
126,0,-0.24,0.22,0.58,-2.56,-2.12,-0.75,-0.0969,-0.0401,-0.0028,-0.9945,$GPGGA,170813.400,4042.2275,N,07421.6401,W,1,06,1.32,103.7,M,-34.2,M,,*5E
127,0,-0.46,0.31,0.26,-3.62,-1.31,-0.88,-0.0978,-0.0399,-0.0014,-0.9944,$GPGGA,170813.500,4042.2266,N,07421.6410,W,1,05,1.72,103.7,M,-34.2,M,,*5A
128,0,-0.24,-0.09,-0.16,-1.75,0.62,-0.31,-0.0982,-0.0398,0.0008,-0.9944,$GPGGA,170813.600,4042.2258,N,07421.6419,W,1,05,1.67,103.6,M,-34.2,M,,*58
129,0,-0.09,-0.52,-0.64,-1.25,1.37,0.06,-0.0982,-0.0385,0.0020,-0.9944,$GPGGA,170813.700,4042.2250,N,07421.6428,W,1,05,1.67,103.6,M,-34.2,M,,*53
130,0,-0.55,0.22,-0.67,0.56,0.25,0.06,-0.0983,-0.0375,0.0020,-0.9944,$GPGGA,170813.800,4042.2242,N,07421.6437,W,1,05,1.72,103.6,M,-34.2,M,,*55
131,0,-0.13,-0.20,0.24,0.13,-0.88,0.00,-0.0983,-0.0378,0.0017,-0.9944,$GPGGA,170813.900,4042.2234,N,07421.6446,W,1,05,1.72,103.6,M,-34.2,M,,*53
132,0,-0.38,-0.17,0.17,1.69,0.56,-0.06,-0.0982,-0.0380,0.0007,-0.9944,$GPGGA,170814.000,4042.2226,N,07421.6455,W,1,05,1.72,103.5,M,-34.2,M,,*5F
133,0,-0.25,0.23,-0.24,2.75,0.50,0.00,-0.0981,-0.0374,-0.0011,-0.9944,$GPGGA,170814.100,4042.2218,N,07421.6464,W,1,05,1.72,103.5,M,-34.2,M,,*51
134,0,-0.20,-0.49,-0.53,1.87,1.37,0.06,-0.0981,-0.0363,-0.0034,-0.9945,$GPGGA,170814.200,4042.2210,N,07421.6473,W,1,05,1.72,103.5,M,-34.2,M,,*5C
135,0,-0.50,0.01,-0.60,2.19,1.50,0.19,-0.0980,-0.0352,-0.0054,-0.9946,$GPGGA,170814.300,4042.2201,N,07421.6482,W,1,05,1.72,103.4,M,-34.2,M,,*52
136,0,-0.35,0.65,-0.17,2.50,-0.88,-0.19,-0.0979,-0.0348,-0.0077,-0.9946,$GPGGA,170814.400,4042.2193,N,07421.6492,W,1,05,1.72,103.4,M,-34.2,M,,*5C
137,0,-0.22,-0.05,0.69,0.31,-2.50,-0.13,-0.0979,-0.0365,-0.0088,-0.9945,$GPGGA,170814.500,4042.2184,N,07421.6501,W,1,05,1.72,103.4,M,-34.2,M,,*50
138,0,-0.39,0.39,0.67,-1.94,-1.37,0.00,-0.0980,-0.0381,-0.0078,-0.9944,$GPGGA,170814.600,4042.2176,N,07421.6510,W,1,05,1.67,103.3,M,-34.2,M,,*5D
139,0,-0.25,0.48,-0.21,-3.25,0.06,-0.37,-0.0980,-0.0382,-0.0051,-0.9944,$GPGGA,170814.700,4042.2167,N,07421.6520,W,1,05,1.67,103.3,M,-34.2,M,,*5F
140,0,-0.40,-0.31,-0.58,-3.12,1.44,-0.50,-0.0983,-0.0373,-0.0024,-0.9944,$GPGGA,170814.800,4042.2159,N,07421.6530,W,1,05,1.67,103.2,M,-34.2,M,,*5D
141,0,-0.47,0.04,-0.46,-0.62,2.44,0.00,-0.0983,-0.0354,-0.0012,-0.9945,$GPGGA,170814.900,4042.2150,N,07421.6539,W,1,05,1.72,103.2,M,-34.2,M,,*58
142,0,-0.20,-0.16,-0.35,1.56,1.19,0.06,-0.0983,-0.0340,-0.0018,-0.9946,$GPGGA,170815.000,4042.2141,N,07421.6549,W,1,05,1.72,103.1,M,-34.2,M,,*54
143,0,-0.27,0.31,0.31,0.56,-0.69,0.13,-0.0983,-0.0340,-0.0027,-0.9946,$GPGGA,170815.100,4042.2133,N,07421.6558,W,1,05,1.72,103.1,M,-34.2,M,,*50
144,0,-0.18,0.49,0.68,-3.00,-1.56,-0.19,-0.0983,-0.0350,-0.0016,-0.9946,$GPGGA,170815.200,4042.2124,N,07421.6568,W,1,05,1.72,103.0,M,-34.2,M,,*57
145,0,-0.11,0.10,0.15,-3.00,-0.44,-0.56,-0.0984,-0.0353,0.0006,-0.9945,$GPGGA,170815.300,4042.2116,N,07421.6577,W,1,05,1.72,103.0,M,-34.2,M,,*59
146,0,-0.28,-0.14,-0.54,-0.50,1.56,-0.25,-0.0985,-0.0344,0.0020,-0.9946,$GPGGA,170815.400,4042.2108,N,07421.6587,W,1,05,1.72,103.0,M,-34.2,M,,*5E
147,0,-0.32,-0.02,-0.60,0.81,1.31,0.00,-0.0985,-0.0330,0.0021,-0.9946,$GPGGA,170815.500,4042.2099,N,07421.6596,W,1,05,1.72,102.9,M,-34.2,M,,*5E
148,0,-0.25,-0.35,-0.60,0.25,0.19,-0.06,-0.0985,-0.0327,0.0014,-0.9946,$GPGGA,170815.600,4042.2091,N,07421.6605,W,1,05,1.67,102.9,M,-34.2,M,,*58
149,0,-0.14,0.40,0.12,-0.37,-0.88,-0.31,-0.0985,-0.0329,0.0014,-0.9946,$GPGGA,170815.700,4042.2083,N,07421.6614,W,1,05,1.67,102.8,M,-34.2,M,,*5B
150,0,-0.22,0.14,-0.58,-1.56,0.56,-0.75,-0.0988,-0.0330,0.0020,-0.9946,$GPGGA,170815.800,4042.2075,N,07421.6623,W,1,05,1.67,102.8,M,-34.2,M,,*59
151,0,-0.19,-0.87,-0.44,0.44,0.88,-0.81,-0.0992,-0.0323,0.0019,-0.9946,$GPGGA,170815.900,4042.2067,N,07421.6632,W,1,05,1.67,102.8,M,-34.2,M,,*5B
152,0,-0.25,-0.18,-0.16,2.12,-0.13,-0.56,-0.0994,-0.0323,0.0008,-0.9945,$GPGGA,170816.000,4042.2059,N,07421.6641,W,1,05,1.72,102.7,M,-34.2,M,,*53
153,0,-0.11,-0.29,-0.79,2.12,1.25,-0.44,-0.0993,-0.0322,-0.0005,-0.9945,$GPGGA,170816.100,4042.2051,N,07421.6650,W,1,05,1.72,102.7,M,-34.2,M,,*5A
154,0,-0.54,-0.39,-0.28,3.12,1.25,-0.69,-0.0995,-0.0310,-0.0031,-0.9946,$GPGGA,170816.200,4042.2043,N,07421.6659,W,1,05,1.72,102.7,M,-34.2,M,,*53
155,0,-0.33,-0.25,0.72,3.69,-1.44,-0.62,-0.1000,-0.0319,-0.0057,-0.9944,$GPGGA,170816.300,4042.2035,N,07421.6668,W,1,05,1.72,102.6,M,-34.2,M,,*50
156,0,-0.31,-0.08,-0.03,1.00,-2.94,-0.37,-0.1002,-0.0339,-0.0075,-0.9944,$GPGGA,170816.400,4042.2027,N,07421.6678,W,1,05,1.72,102.6,M,-34.2,M,,*55
157,0,-0.55,-0.44,2.41,-0.13,-6.00,-0.94,-0.1006,-0.0385,-0.0068,-0.9941,$GPGGA,170816.500,4042.2019,N,07421.6687,W,1,05,1.72,102.5,M,-34.2,M,,*5A
158,0,-0.12,-0.31,0.27,-3.19,0.00,-0.69,-0.1016,-0.0407,-0.0038,-0.9940,$GPGGA,170816.600,4042.2011,N,07421.6696,W,1,05,1.67,102.5,M,-34.2,M,,*55
159,0,-0.43,0.21,0.02,-0.94,-0.62,-1.06,-0.1026,-0.0406,-0.0030,-0.9939,$GPGGA,170816.700,4042.2003,N,07421.6705,W,1,05,1.67,102.5,M,-34.2,M,,*5C
160,0,-0.27,-0.66,1.16,1.25,0.13,-0.37,-0.1031,-0.0414,-0.0019,-0.9938,$GPGGA,170816.800,4042.1995,N,07421.6714,W,1,05,1.67,102.4,M,-34.2,M,,*57
161,0,-0.70,0.13,-1.05,-2.19,0.37,-0.25,-0.1031,-0.0406,-0.0018,-0.9938,$GPGGA,170816.900,4042.1987,N,07421.6724,W,1,05,1.67,102.4,M,-34.2,M,,*56
162,0,-0.55,-0.31,0.38,0.50,-2.00,-0.88,-0.1035,-0.0417,-0.0021,-0.9938,$GPGGA,170817.000,4042.1978,N,07421.6733,W,1,05,1.67,102.3,M,-34.2,M,,*5F
163,0,-0.16,-0.03,0.00,-2.19,-1.69,-0.56,-0.1040,-0.0433,-0.0012,-0.9937,$GPGGA,170817.100,4042.1969,N,07421.6742,W,1,05,1.72,102.3,M,-34.2,M,,*5C
164,0,-0.07,-0.04,-1.28,-1.25,1.25,-0.75,-0.1044,-0.0430,-0.0006,-0.9936,$GPGGA,170817.200,4042.1961,N,07421.6752,W,1,05,1.72,102.2,M,-34.2,M,,*57
165,0,-0.24,-0.44,-0.77,0.50,2.06,-0.81,-0.1049,-0.0409,0.0001,-0.9937,$GPGGA,170817.300,4042.1952,N,07421.6762,W,1,05,1.72,102.2,M,-34.2,M,,*55
166,0,-0.34,-0.10,-1.04,0.88,1.37,-0.56,-0.1053,-0.0381,0.0003,-0.9937,$GPGGA,170817.400,4042.1943,N,07421.6771,W,1,05,1.72,102.1,M,-34.2,M,,*53
167,0,-0.18,-0.42,-0.06,0.50,-0.44,-0.62,-0.1055,-0.0370,0.0003,-0.9937,$GPGGA,170817.500,4042.1934,N,07421.6780,W,1,05,1.72,102.1,M,-34.2,M,,*5C
168,0,-0.59,-0.54,0.13,0.88,-0.56,-0.88,-0.1058,-0.0368,-0.0007,-0.9937,$GPGGA,170817.600,4042.1926,N,07421.6789,W,1,05,1.67,102.0,M,-34.2,M,,*50
169,0,-0.30,-0.09,0.72,3.31,-0.25,-0.62,-0.1064,-0.0364,-0.0019,-0.9937,$GPGGA,170817.700,4042.1918,N,07421.6798,W,1,05,1.67,102.0,M,-34.2,M,,*5C
170,0,-0.22,-0.34,-0.67,0.75,0.00,-0.50,-0.1068,-0.0365,-0.0032,-0.9936,$GPGGA,170817.800,4042.1909,N,07421.6807,W,1,05,1.67,101.9,M,-34.2,M,,*50
171,0,-0.36,0.05,-0.01,-0.44,-1.19,-0.81,-0.1072,-0.0368,-0.0039,-0.9935,$GPGGA,170817.900,4042.1901,N,07421.6816,W,1,05,1.67,101.9,M,-34.2,M,,*59
172,0,-0.26,0.52,0.38,-2.75,-2.69,-0.94,-0.1080,-0.0385,-0.0024,-0.9934,$GPGGA,170818.000,4042.1893,N,07421.6825,W,1,05,1.72,101.8,M,-34.2,M,,*50
173,0,-0.28,-0.28,0.69,-3.12,-1.19,-0.88,-0.1089,-0.0400,0.0011,-0.9932,$GPGGA,170818.100,4042.1885,N,07421.6834,W,1,05,1.72,101.8,M,-34.2,M,,*56
174,0,-0.16,-0.12,-1.12,-2.56,2.56,-0.62,-0.1097,-0.0390,0.0024,-0.9932,$GPGGA,170818.200,4042.1877,N,07421.6843,W,1,05,1.72,101.8,M,-34.2,M,,*58
175,0,-0.20,0.03,-1.44,2.87,4.19,-0.56,-0.1101,-0.0359,0.0007,-0.9933,$GPGGA,170818.300,4042.1869,N,07421.6852,W,1,05,1.72,101.7,M,-34.2,M,,*59
176,0,-0.16,-0.66,-1.07,4.94,1.37,-0.13,-0.1100,-0.0333,-0.0020,-0.9933,$GPGGA,170818.400,4042.1861,N,07421.6861,W,1,05,1.72,101.7,M,-34.2,M,,*56
177,0,-0.34,0.21,0.34,0.44,-2.56,-0.31,-0.1099,-0.0340,-0.0043,-0.9933,$GPGGA,170818.500,4042.1852,N,07421.6870,W,1,05,1.67,101.7,M,-34.2,M,,*53
178,0,0.15,0.95,0.72,-2.62,-4.19,-0.88,-0.1103,-0.0370,-0.0034,-0.9932,$GPGGA,170818.600,4042.1844,N,07421.6879,W,1,05,1.67,101.6,M,-34.2,M,,*5F
179,0,0.23,0.62,0.24,-2.44,-0.50,-1.25,-0.1113,-0.0388,-0.0011,-0.9930,$GPGGA,170818.700,4042.1836,N,07421.6888,W,1,05,1.67,101.6,M,-34.2,M,,*55
180,0,-0.11,-0.46,-0.21,-0.44,1.81,-0.69,-0.1121,-0.0374,0.0001,-0.9930,$GPGGA,170818.800,4042.1828,N,07421.6897,W,1,05,1.67,101.6,M,-34.2,M,,*5B
181,0,-0.18,0.06,-1.25,-0.31,0.31,-0.44,-0.1121,-0.0364,0.0001,-0.9930,$GPGGA,170818.900,4042.1820,N,07421.6906,W,1,05,1.72,101.6,M,-34.2,M,,*5F
182,0,-0.05,-0.41,0.11,1.06,-1.06,-0.62,-0.1121,-0.0360,-0.0003,-0.9930,$GPGGA,170819.000,4042.1812,N,07421.6915,W,1,05,1.72,101.5,M,-34.2,M,,*57
183,0,0.11,0.00,0.00,-0.69,-0.50,-0.62,-0.1122,-0.0367,-0.0003,-0.9930,$GPGGA,170819.100,4042.1804,N,07421.6924,W,1,05,1.72,101.5,M,-34.2,M,,*53
184,0,-0.20,0.03,0.01,-0.75,0.13,-0.75,-0.1129,-0.0372,0.0001,-0.9929,$GPGGA,170819.200,4042.1796,N,07421.6934,W,1,05,1.72,101.5,M,-34.2,M,,*55
185,0,0.19,-0.49,-0.14,-0.62,0.13,-0.88,-0.1136,-0.0369,0.0001,-0.9929,$GPGGA,170819.300,4042.1788,N,07421.6943,W,1,05,1.67,101.5,M,-34.2,M,,*5F
186,0,-0.26,-0.40,-0.95,-0.75,0.50,-1.00,-0.1144,-0.0364,0.0004,-0.9928,$GPGGA,170819.400,4042.1780,N,07421.6952,W,1,05,1.72,101.4,M,-34.2,M,,*55
187,0,-0.11,0.15,-0.48,-0.94,0.50,-1.12,-0.1151,-0.0356,0.0015,-0.9927,$GPGGA,170819.500,4042.1772,N,07421.6961,W,1,05,1.72,101.4,M,-34.2,M,,*59
188,0,-0.13,-0.49,-0.72,0.13,0.19,-1.25,-0.1162,-0.0351,0.0020,-0.9926,$GPGGA,170819.600,4042.1764,N,07421.6970,W,1,05,1.67,101.4,M,-34.2,M,,*59
189,0,-0.18,-0.39,-0.55,-0.88,1.12,-1.56,-0.1176,-0.0340,0.0038,-0.9925,$GPGGA,170819.700,4042.1756,N,07421.6980,W,1,05,1.67,101.4,M,-34.2,M,,*56
190,0,-0.14,-1.23,-0.35,-0.50,-0.06,-1.81,-0.1191,-0.0333,0.0049,-0.9923,$GPGGA,170819.800,4042.1748,N,07421.6989,W,1,05,1.67,101.3,M,-34.2,M,,*58
191,0,-0.10,-0.19,0.06,1.69,-1.19,-1.94,-0.1207,-0.0341,0.0044,-0.9921,$GPGGA,170819.900,4042.1740,N,07421.6998,W,1,05,1.67,101.3,M,-34.2,M,,*51
192,0,-0.15,-0.08,0.43,2.12,0.31,-1.87,-0.1224,-0.0352,0.0033,-0.9919,$GPGGA,170820.000,4042.1732,N,07421.7008,W,1,06,1.31,101.3,M,-34.2,M,,*56
193,0,-0.09,-0.60,-0.03,1.62,0.94,-2.00,-0.1240,-0.0349,0.0019,-0.9916,$GPGGA,170820.100,4042.1724,N,07421.7017,W,1,06,1.32,101.3,M,-34.2,M,,*5D
194,0,-0.16,-0.19,-0.09,1.31,1.44,-2.75,-0.1260,-0.0338,0.0021,-0.9915,$GPGGA,170820.200,4042.1717,N,07421.7027,W,1,06,1.21,101.2,M,-34.2,M,,*5E
195,0,-0.22,-0.60,-0.21,-0.31,1.19,-3.31,-0.1285,-0.0328,0.0031,-0.9911,$GPGGA,170820.300,4042.1709,N,07421.7036,W,1,06,1.32,101.2,M,-34.2,M,,*52
196,0,0.00,-1.29,0.35,-0.56,-1.56,-3.25,-0.1313,-0.0328,0.0032,-0.9908,$GPGGA,170820.400,4042.1701,N,07421.7045,W,1,06,1.31,101.2,M,-34.2,M,,*5A
197,0,-0.07,-0.88,0.34,-0.37,-1.06,-3.00,-0.1339,-0.0330,0.0048,-0.9904,$GPGGA,170820.500,4042.1693,N,07421.7055,W,1,06,1.32,101.2,M,-34.2,M,,*53
198,0,0.18,-1.22,-0.17,-0.19,-0.50,-3.12,-0.1362,-0.0327,0.0074,-0.9901,$GPGGA,170820.600,4042.1686,N,07421.7064,W,1,06,1.31,101.1,M,-34.2,M,,*56
199,0,-0.03,-0.64,-0.20,0.00,1.06,-2.87,-0.1387,-0.0322,0.0083,-0.9897,$GPGGA,170820.700,4042.1678,N,07421.7074,W,1,06,1.31,101.1,M,-34.2,M,,*57
200,0,-0.23,-0.39,-0.18,0.81,-0.06,-3.00,-0.1412,-0.0319,0.0081,-0.9894,$GPGGA,170820.800,4042.1670,N,07421.7083,W,1,06,1.21,101.1,M,-34.2,M,,*59
201,0,0.06,-0.94,-0.50,0.50,-0.06,-2.94,-0.1436,-0.0303,0.0145,-0.9891,$GPGGA,170820.900,4042.1663,N,07421.7092,W,1,06,1.21,101.1,M,-34.2,M,,*5A
202,0,-0.16,-0.51,0.47,0.75,0.50,-2.62,-0.1460,-0.0301,0.0152,-0.9887,$GPGGA,170821.000,4042.1655,N,07421.7102,W,1,06,1.21,101.0,M,-34.2,M,,*5E
203,0,0.03,0.02,0.16,-0.31,-0.88,-2.75,-0.1483,-0.0305,0.0155,-0.9883,$GPGGA,170821.100,4042.1647,N,07421.7111,W,1,06,1.21,101.0,M,-34.2,M,,*5E
204,0,-0.22,-0.32,0.10,-1.37,-0.88,-2.81,-0.1508,-0.0306,0.0168,-0.9880,$GPGGA,170821.200,4042.1640,N,07421.7121,W,1,06,1.21,101.0,M,-34.2,M,,*59
205,0,-0.32,-0.74,0.12,-1.00,-0.44,-2.87,-0.1533,-0.0305,0.0175,-0.9875,$GPGGA,170821.300,4042.1632,N,07421.7132,W,1,06,1.21,101.0,M,-34.2,M,,*5F
206,0,-0.14,0.07,-0.14,0.00,0.00,-2.69,-0.1556,-0.0300,0.0179,-0.9872,$GPGGA,170821.400,4042.1624,N,07421.7141,W,1,06,1.21,100.9,M,-34.2,M,,*53
207,0,-0.13,-0.70,-0.07,-0.13,0.69,-2.81,-0.1578,-0.0298,0.0182,-0.9868,$GPGGA,170821.500,4042.1616,N,07421.7151,W,1,06,1.21,100.9,M,-34.2,M,,*52
208,0,-0.04,-0.02,-0.34,0.50,0.37,-2.62,-0.1601,-0.0290,0.0186,-0.9865,$GPGGA,170821.600,4042.1609,N,07421.7161,W,1,06,1.21,100.9,M,-34.2,M,,*5C
209,0,0.13,-0.32,-0.13,1.00,-0.13,-2.62,-0.1622,-0.0283,0.0186,-0.9861,$GPGGA,170821.700,4042.1601,N,07421.7170,W,1,06,1.21,100.9,M,-34.2,M,,*55
210,0,-0.13,-0.63,-0.11,2.56,-0.50,-2.31,-0.1641,-0.0283,0.0182,-0.9858,$GPGGA,170821.800,4042.1593,N,07421.7180,W,1,06,1.21,100.8,M,-34.2,M,,*5C
211,0,-0.09,0.16,0.42,2.75,-0.81,-2.12,-0.1659,-0.0287,0.0171,-0.9856,$GPGGA,170821.900,4042.1586,N,07421.7190,W,1,06,1.21,100.8,M,-34.2,M,,*58
212,0,0.08,-0.22,-0.30,-0.19,-2.00,-2.12,-0.1677,-0.0300,0.0167,-0.9852,$GPGGA,170822.000,4042.1578,N,07421.7200,W,1,06,1.21,100.8,M,-34.2,M,,*59
213,0,-0.07,-0.02,-0.16,-1.25,-0.06,-2.31,-0.1696,-0.0305,0.0175,-0.9849,$GPGGA,170822.100,4042.1570,N,07421.7209,W,1,06,1.21,100.8,M,-34.2,M,,*59
214,0,-0.04,-0.02,-0.20,-1.50,1.44,-2.31,-0.1715,-0.0295,0.0183,-0.9846,$GPGGA,170822.200,4042.1563,N,07421.7219,W,1,06,1.21,100.7,M,-34.2,M,,*56
215,0,0.23,-0.31,-0.62,0.00,0.56,-1.87,-0.1733,-0.0283,0.0190,-0.9843,$GPGGA,170822.300,4042.1555,N,07421.7229,W,1,06,1.21,100.7,M,-34.2,M,,*51
216,0,-0.03,-0.40,-0.38,0.75,0.50,-1.69,-0.1749,-0.0275,0.0198,-0.9840,$GPGGA,170822.400,4042.1548,N,07421.7239,W,1,06,1.32,100.7,M,-34.2,M,,*59
217,0,-0.06,0.22,-0.18,1.12,1.06,-1.75,-0.1765,-0.0267,0.0194,-0.9838,$GPGGA,170822.500,4042.1540,N,07421.7249,W,1,06,1.31,100.7,M,-34.2,M,,*54
218,0,0.05,-0.25,0.01,-0.44,1.19,-2.00,-0.1781,-0.0264,0.0192,-0.9835,$GPGGA,170822.600,4042.1533,N,07421.7258,W,1,06,1.21,100.6,M,-34.2,M,,*53
219,0,-0.15,-0.68,-0.08,-0.88,-0.50,-1.75,-0.1797,-0.0263,0.0195,-0.9832,$GPGGA,170822.700,4042.1525,N,07421.7268,W,1,06,1.21,100.6,M,-34.2,M,,*56
220,0,-0.17,0.23,-0.23,-0.81,-0.25,-1.94,-0.1813,-0.0267,0.0198,-0.9828,$GPGGA,170822.800,4042.1518,N,07421.7278,W,1,06,1.21,100.6,M,-34.2,M,,*56
221,0,-0.02,-0.28,-0.50,-0.13,-0.50,-1.62,-0.1827,-0.0268,0.0198,-0.9826,$GPGGA,170822.900,4042.1511,N,07421.7288,W,1,06,1.21,100.6,M,-34.2,M,,*51
222,0,-0.12,0.11,-0.27,0.62,0.25,-0.88,-0.1837,-0.0267,0.0195,-0.9824,$GPGGA,170823.000,4042.1503,N,07421.7298,W,1,06,1.21,100.5,M,-34.2,M,,*58
223,0,0.00,0.32,-0.65,-0.37,0.06,-0.88,-0.1844,-0.0269,0.0186,-0.9823,$GPGGA,170823.100,4042.1496,N,07421.7307,W,1,06,1.21,100.5,M,-34.2,M,,*53
224,0,-0.13,-0.08,-0.04,-1.94,-0.81,-0.81,-0.1852,-0.0275,0.0191,-0.9821,$GPGGA,170823.200,4042.1488,N,07421.7317,W,1,06,1.21,100.5,M,-34.2,M,,*5E
225,0,0.00,0.47,-0.08,-1.75,-0.13,-0.94,-0.1860,-0.0277,0.0203,-0.9819,$GPGGA,170823.300,4042.1481,N,07421.7326,W,1,06,1.21,100.4,M,-34.2,M,,*55
226,0,0.27,0.12,-0.42,-0.50,1.56,-0.75,-0.1867,-0.0269,0.0213,-0.9818,$GPGGA,170823.400,4042.1474,N,07421.7336,W,1,06,1.21,100.4,M,-34.2,M,,*59
227,0,-0.04,-0.04,-0.54,0.88,2.44,-0.56,-0.1871,-0.0253,0.0209,-0.9818,$GPGGA,170823.500,4042.1467,N,07421.7346,W,1,06,1.21,100.4,M,-34.2,M,,*5D
228,0,-0.04,0.76,-0.71,2.94,0.88,-0.37,-0.1870,-0.0244,0.0190,-0.9819,$GPGGA,170823.600,4042.1459,N,07421.7356,W,1,06,1.21,100.4,M,-34.2,M,,*52
229,0,0.13,0.36,-0.01,1.69,-1.12,-0.13,-0.1870,-0.0248,0.0169,-0.9819,$GPGGA,170823.700,4042.1452,N,07421.7366,W,1,06,1.21,100.3,M,-34.2,M,,*5C
230,0,-0.18,0.58,0.25,-0.81,-2.50,-0.37,-0.1870,-0.0264,0.0160,-0.9819,$GPGGA,170823.800,4042.1445,N,07421.7376,W,1,06,1.21,100.3,M,-34.2,M,,*54
231,0,0.12,0.54,0.12,-1.25,-1.75,-0.56,-0.1871,-0.0281,0.0170,-0.9818,$GPGGA,170823.900,4042.1438,N,07421.7385,W,1,06,1.21,100.3,M,-34.2,M,,*53
232,0,0.23,-0.01,0.31,0.06,0.69,-0.56,-0.1874,-0.0285,0.0164,-0.9818,$GPGGA,170824.000,4042.1431,N,07421.7396,W,1,06,1.21,100.3,M,-34.2,M,,*56
233,0,-0.08,0.45,-1.20,1.06,2.50,-0.37,-0.1874,-0.0270,0.0166,-0.9818,$GPGGA,170824.100,4042.1423,N,07421.7406,W,1,06,1.21,100.3,M,-34.2,M,,*5A
234,0,0.10,0.84,-1.15,1.75,1.44,-0.19,-0.1874,-0.0260,0.0146,-0.9818,$GPGGA,170824.200,4042.1416,N,07421.7416,W,1,06,1.21,100.3,M,-34.2,M,,*5E
235,0,0.12,-0.25,-0.53,4.19,1.44,0.06,-0.1874,-0.0256,0.0114,-0.9819,$GPGGA,170824.300,4042.1409,N,07421.7426,W,1,06,1.21,100.2,M,-34.2,M,,*53
236,0,0.24,0.55,-0.49,6.44,1.75,0.19,-0.1873,-0.0248,0.0070,-0.9820,$GPGGA,170824.400,4042.1402,N,07421.7436,W,1,06,1.21,100.2,M,-34.2,M,,*5E
237,0,-0.05,0.30,-0.16,6.37,0.44,0.25,-0.1871,-0.0252,0.0012,-0.9820,$GPGGA,170824.500,4042.1394,N,07421.7446,W,1,06,1.31,100.2,M,-34.2,M,,*51
238,0,-0.65,0.50,1.98,-0.75,-5.31,0.31,-0.1871,-0.0277,-0.0013,-0.9819,$GPGGA,170824.600,4042.1387,N,07421.7456,W,1,06,1.21,100.2,M,-34.2,M,,*50
239,0,-0.31,2.12,4.00,-10.94,-13.81,-0.88,-0.1873,-0.0355,0.0043,-0.9816,$GPGGA,170824.700,4042.1379,N,07421.7466,W,1,06,1.21,100.2,M,-34.2,M,,*53
240,0,0.25,0.60,1.56,-7.62,-7.31,-0.94,-0.1883,-0.0435,0.0151,-0.9810,$GPGGA,170824.800,4042.1372,N,07421.7477,W,1,06,1.21,100.2,M,-34.2,M,,*57
241,0,0.05,-0.06,-1.76,-5.00,9.06,0.44,-0.1888,-0.0406,0.0206,-0.9810,$GPGGA,170824.900,4042.1364,N,07421.7487,W,1,06,1.21,100.2,M,-34.2,M,,*5E
242,0,-0.10,0.67,-3.77,0.06,11.38,1.31,-0.1882,-0.0308,0.0201,-0.9814,$GPGGA,170825.000,4042.1357,N,07421.7497,W,1,06,1.21,100.2,M,-34.2,M,,*57
243,0,-0.16,0.77,-2.31,2.94,1.94,1.12,-0.1874,-0.0255,0.0174,-0.9818,$GPGGA,170825.100,4042.1349,N,07421.7507,W,1,06,1.21,100.2,M,-34.2,M,,*51
244,0,-0.18,0.65,0.78,2.37,-2.94,0.56,-0.1870,-0.0272,0.0157,-0.9819,$GPGGA,170825.200,4042.1341,N,07421.7517,W,1,06,1.32,100.2,M,-34.2,M,,*59
245,0,-0.17,0.97,2.07,0.88,-5.44,0.31,-0.1868,-0.0313,0.0151,-0.9818,$GPGGA,170825.300,4042.1334,N,07421.7527,W,1,06,1.32,100.2,M,-34.2,M,,*59
246,0,0.18,0.50,1.67,-1.56,-2.62,0.50,-0.1868,-0.0348,0.0164,-0.9816,$GPGGA,170825.400,4042.1326,N,07421.7537,W,1,06,1.21,100.2,M,-34.2,M,,*5E
247,0,-0.13,1.13,-0.54,-1.94,0.62,1.25,-0.1859,-0.0345,0.0178,-0.9818,$GPGGA,170825.500,4042.1318,N,07421.7547,W,1,06,1.32,100.2,M,-34.2,M,,*57
248,0,0.12,1.06,-0.83,-1.00,0.00,1.19,-0.1849,-0.0339,0.0194,-0.9820,$GPGGA,170825.600,4042.1310,N,07421.7558,W,1,06,1.21,100.2,M,-34.2,M,,*50
249,0,-0.05,0.51,-0.05,-1.25,-0.56,0.88,-0.1840,-0.0345,0.0190,-0.9821,$GPGGA,170825.700,4042.1303,N,07421.7568,W,1,06,1.21,100.2,M,-34.2,M,,*50
250,0,-0.14,0.32,0.86,1.25,0.25,0.94,-0.1833,-0.0345,0.0189,-0.9823,$GPGGA,170825.800,4042.1295,N,07421.7578,W,1,06,1.21,100.2,M,-34.2,M,,*50
251,0,-0.13,0.81,0.59,0.50,-2.37,1.06,-0.1824,-0.0351,0.0176,-0.9824,$GPGGA,170825.900,4042.1287,N,07421.7588,W,1,06,1.21,100.2,M,-34.2,M,,*5D
252,0,-0.09,0.74,0.84,-1.12,-5.00,0.44,-0.1819,-0.0385,0.0181,-0.9824,$GPGGA,170826.000,4042.1279,N,07421.7598,W,1,06,1.21,100.2,M,-34.2,M,,*57
253,0,-0.18,0.65,1.24,-1.44,-1.87,0.06,-0.1819,-0.0408,0.0198,-0.9822,$GPGGA,170826.100,4042.1271,N,07421.7608,W,1,06,1.21,100.1,M,-34.2,M,,*57
254,0,0.43,0.96,-1.20,-0.69,-0.06,0.37,-0.1820,-0.0409,0.0217,-0.9822,$GPGGA,170826.200,4042.1263,N,07421.7618,W,1,06,1.21,100.1,M,-34.2,M,,*56
255,0,-0.22,-0.04,-0.18,0.75,2.06,0.50,-0.1819,-0.0392,0.0211,-0.9823,$GPGGA,170826.300,4042.1256,N,07421.7627,W,1,06,1.21,100.1,M,-34.2,M,,*5D
256,0,-0.22,1.20,0.08,2.31,-1.25,1.06,-0.1812,-0.0390,0.0203,-0.9825,$GPGGA,170826.400,4042.1248,N,07421.7637,W,1,06,1.21,100.1,M,-34.2,M,,*54
257,0,-0.15,0.37,0.02,-0.25,-1.69,0.69,-0.1805,-0.0411,0.0191,-0.9825,$GPGGA,170826.500,4042.1240,N,07421.7647,W,1,06,1.21,100.1,M,-34.2,M,,*5A
258,0,0.01,0.71,0.88,-2.50,-3.00,0.50,-0.1802,-0.0432,0.0209,-0.9825,$GPGGA,170826.600,4042.1232,N,07421.7657,W,1,06,1.21,100.0,M,-34.2,M,,*5C
259,0,-0.17,1.73,0.25,-5.62,-0.81,0.50,-0.1802,-0.0440,0.0238,-0.9824,$GPGGA,170826.700,4042.1225,N,07421.7667,W,1,06,1.21,100.0,M,-34.2,M,,*58
260,0,-0.14,0.13,0.17,-0.56,-2.31,0.75,-0.1803,-0.0441,0.0274,-0.9822,$GPGGA,170826.800,4042.1217,N,07421.7677,W,1,06,1.21,100.0,M,-34.2,M,,*57
261,0,0.05,0.04,0.46,0.56,1.19,0.50,-0.1799,-0.0443,0.0278,-0.9823,$GPGGA,170826.900,4042.1209,N,07421.7687,W,1,06,1.21,100.0,M,-34.2,M,,*56
262,0,-0.13,0.03,-1.69,1.75,1.06,1.19,-0.1790,-0.0430,0.0266,-0.9825,$GPGGA,170827.000,4042.1201,N,07421.7697,W,1,06,1.21,100.0,M,-34.2,M,,*57
263,0,0.24,0.65,0.00,2.75,-0.31,1.19,-0.1778,-0.0440,0.0236,-0.9828,$GPGGA,170827.100,4042.1193,N,07421.7707,W,1,06,1.21,100.0,M,-34.2,M,,*56
264,0,-0.25,0.84,0.74,1.75,-1.06,1.12,-0.1769,-0.0450,0.0212,-0.9830,$GPGGA,170827.200,4042.1185,N,07421.7716,W,1,06,1.21,100.0,M,-34.2,M,,*52
265,0,0.08,1.06,0.59,-0.56,-0.69,0.88,-0.1761,-0.0460,0.0197,-0.9831,$GPGGA,170827.300,4042.1177,N,07421.7726,W,1,06,1.21,100.0,M,-34.2,M,,*5D
266,0,-0.15,1.20,-0.49,-1.87,-0.81,1.00,-0.1754,-0.0464,0.0207,-0.9832,$GPGGA,170827.400,4042.1169,N,07421.7736,W,1,06,1.21,100.0,M,-34.2,M,,*54
267,0,0.00,0.55,-0.51,-0.56,0.00,0.94,-0.1747,-0.0463,0.0218,-0.9833,$GPGGA,170827.500,4042.1161,N,07421.7746,W,1,06,1.32,99.9,M,-34.2,M,,*60
268,0,-0.27,0.22,-0.98,-0.25,2.19,0.81,-0.1742,-0.0457,0.0217,-0.9834,$GPGGA,170827.600,4042.1153,N,07421.7756,W,1,06,1.21,99.9,M,-34.2,M,,*61
269,0,-0.26,0.34,-1.30,-0.25,2.44,0.62,-0.1736,-0.0435,0.0209,-0.9836,$GPGGA,170827.700,4042.1145,N,07421.7766,W,1,06,1.21,99.9,M,-34.2,M,,*64
270,0,0.12,0.09,-0.74,3.06,0.19,0.44,-0.1735,-0.0427,0.0198,-0.9837,$GPGGA,170827.800,4042.1137,N,07421.7775,W,1,06,1.21,99.9,M,-34.2,M,,*6C
271,0,0.14,0.81,0.48,1.81,-1.62,0.44,-0.1734,-0.0438,0.0182,-0.9837,$GPGGA,170827.900,4042.1129,N,07421.7785,W,1,06,1.21,99.9,M,-34.2,M,,*6D
272,0,0.33,0.86,0.90,1.25,-1.44,0.19,-0.1733,-0.0460,0.0166,-0.9836,$GPGGA,170828.000,4042.1121,N,07421.7796,W,1,06,1.21,99.9,M,-34.2,M,,*61
273,0,0.35,-0.02,0.67,0.69,-0.06,-0.19,-0.1733,-0.0461,0.0164,-0.9836,$GPGGA,170828.100,4042.1113,N,07421.7805,W,1,06,1.21,99.9,M,-34.2,M,,*64
274,0,0.32,0.00,-1.85,-0.62,-0.75,-0.31,-0.1734,-0.0463,0.0165,-0.9836,$GPGGA,170828.200,4042.1105,N,07421.7815,W,1,06,1.21,99.9,M,-34.2,M,,*61
275,0,0.10,0.49,-0.22,-3.00,1.44,-0.75,-0.1736,-0.0449,0.0180,-0.9836,$GPGGA,170828.300,4042.1097,N,07421.7825,W,1,06,1.21,99.9,M,-34.2,M,,*69
276,0,-0.03,-0.09,-1.90,-3.25,-2.25,-0.56,-0.1738,-0.0443,0.0198,-0.9836,$GPGGA,170828.400,4042.1089,N,07421.7834,W,1,06,1.21,99.9,M,-34.2,M,,*61
277,0,0.10,0.02,0.56,-0.81,-0.62,-0.31,-0.1738,-0.0452,0.0209,-0.9835,$GPGGA,170828.500,4042.1082,N,07421.7844,W,1,06,1.32,99.9,M,-34.2,M,,*6E
278,0,0.04,0.91,0.14,-0.50,0.25,-0.13,-0.1738,-0.0457,0.0206,-0.9835,$GPGGA,170828.600,4042.1074,N,07421.7854,W,1,06,1.21,99.9,M,-34.2,M,,*67
279,0,-0.09,-0.26,0.52,-1.00,-0.06,-0.06,-0.1738,-0.0456,0.0210,-0.9835,$GPGGA,170828.700,4042.1066,N,07421.7864,W,1,06,1.21,99.8,M,-34.2,M,,*67
280,0,-0.05,0.64,-0.46,-0.88,1.44,-0.19,-0.1738,-0.0450,0.0220,-0.9835,$GPGGA,170828.800,4042.1058,N,07421.7873,W,1,06,1.21,99.8,M,-34.2,M,,*63
281,0,0.15,0.14,-0.80,-1.06,1.56,-0.44,-0.1739,-0.0436,0.0226,-0.9835,$GPGGA,170828.900,4042.1050,N,07421.7883,W,1,06,1.21,99.8,M,-34.2,M,,*65
282,0,-0.02,-0.56,0.31,0.19,-0.69,-0.50,-0.1740,-0.0434,0.0228,-0.9835,$GPGGA,170829.000,4042.1043,N,07421.7893,W,1,06,1.21,99.8,M,-34.2,M,,*6E
283,0,-0.01,0.09,0.38,2.00,-0.88,-0.25,-0.1739,-0.0446,0.0220,-0.9835,$GPGGA,170829.100,4042.1035,N,07421.7903,W,1,06,1.21,99.8,M,-34.2,M,,*66
284,0,0.13,0.04,-0.71,2.69,1.44,-0.25,-0.1738,-0.0447,0.0199,-0.9836,$GPGGA,170829.200,4042.1027,N,07421.7912,W,1,06,1.21,99.8,M,-34.2,M,,*66
285,0,0.12,0.24,-0.15,1.19,0.81,-0.25,-0.1737,-0.0441,0.0175,-0.9836,$GPGGA,170829.300,4042.1019,N,07421.7922,W,1,06,1.21,99.8,M,-34.2,M,,*69
286,0,-0.03,0.43,-0.28,-0.56,-0.94,-0.56,-0.1737,-0.0446,0.0164,-0.9836,$GPGGA,170829.400,4042.1012,N,07421.7931,W,1,06,1.21,99.8,M,-34.2,M,,*67
287,0,0.30,0.50,0.03,-0.88,-1.06,-0.69,-0.1741,-0.0456,0.0169,-0.9835,$GPGGA,170829.500,4042.1005,N,07421.7940,W,1,06,1.21,99.8,M,-34.2,M,,*66
288,0,0.39,-0.16,-0.40,-1.50,0.50,-0.69,-0.1747,-0.0458,0.0176,-0.9834,$GPGGA,170829.600,4042.0998,N,07421.7950,W,1,06,1.21,99.8,M,-34.2,M,,*68
289,0,0.13,0.18,-0.97,-1.06,2.06,-0.31,-0.1749,-0.0442,0.0176,-0.9835,$GPGGA,170829.700,4042.0990,N,07421.7959,W,1,06,1.21,99.8,M,-34.2,M,,*68
290,0,-0.02,1.02,-0.20,0.13,0.00,-0.25,-0.1749,-0.0429,0.0172,-0.9835,$GPGGA,170829.800,4042.0983,N,07421.7968,W,1,06,1.21,99.7,M,-34.2,M,,*68
291,0,0.04,-0.07,0.12,-0.37,-0.69,-0.50,-0.1750,-0.0433,0.0175,-0.9835,$GPGGA,170829.900,4042.0976,N,07421.7978,W,1,06,1.21,99.7,M,-34.2,M,,*62
292,0,-0.04,0.67,0.69,-0.50,-0.69,-0.44,-0.1753,-0.0442,0.0182,-0.9833,$GPGGA,170830.000,4042.0968,N,07421.7987,W,1,06,1.21,99.7,M,-34.2,M,,*6C
293,0,-0.08,-0.40,-0.25,-0.88,-0.06,-0.69,-0.1758,-0.0443,0.0186,-0.9833,$GPGGA,170830.100,4042.0961,N,07421.7997,W,1,06,1.21,99.7,M,-34.2,M,,*65
294,0,0.00,-0.02,-0.82,-1.19,0.81,-0.62,-0.1761,-0.0441,0.0186,-0.9832,$GPGGA,170830.200,4042.0953,N,07421.8006,W,1,06,1.21,99.7,M,-34.2,M,,*69
295,0,0.02,0.13,-0.56,1.31,1.31,-0.56,-0.1763,-0.0436,0.0181,-0.9832,$GPGGA,170830.300,4042.0946,N,07421.8016,W,1,06,1.21,99.7,M,-34.2,M,,*6D
296,0,0.11,0.04,-0.23,0.94,1.31,-0.62,-0.1768,-0.0432,0.0173,-0.9832,$GPGGA,170830.400,4042.0938,N,07421.8025,W,1,06,1.21,99.7,M,-34.2,M,,*63
297,0,-0.04,0.02,0.21,0.75,-0.50,-0.81,-0.1773,-0.0430,0.0169,-0.9831,$GPGGA,170830.500,4042.0931,N,07421.8035,W,1,06,1.21,99.7,M,-34.2,M,,*6A
298,0,-0.04,0.35,0.59,-0.50,-3.50,-0.88,-0.1780,-0.0450,0.0172,-0.9828,$GPGGA,170830.600,4042.0923,N,07421.8044,W,1,06,1.21,99.7,M,-34.2,M,,*6C
299,0,0.20,0.04,0.80,-1.06,-2.37,-0.81,-0.1788,-0.0472,0.0181,-0.9826,$GPGGA,170830.700,4042.0916,N,07421.8054,W,1,06,1.21,99.6,M,-34.2,M,,*6B
300,0,0.28,0.22,-0.29,-1.50,0.31,-0.75,-0.1795,-0.0475,0.0194,-0.9824,$GPGGA,170830.800,4042.0909,N,07421.8064,W,1,06,1.21,99.6,M,-34.2,M,,*69
301,0,-0.09,-0.41,-1.09,0.13,1.87,-0.69,-0.1803,-0.0464,0.0204,-0.9823,$GPGGA,170830.900,4042.0901,N,07421.8073,W,1,06,1.21,99.6,M,-34.2,M,,*66
302,0,0.33,-0.03,-0.04,0.25,1.37,-1.06,-0.1810,-0.0451,0.0204,-0.9822,$GPGGA,170831.000,4042.0894,N,07421.8083,W,1,06,1.21,99.6,M,-34.2,M,,*6C
303,0,-0.06,-0.48,-0.60,1.44,1.00,-0.81,-0.1818,-0.0446,0.0195,-0.9821,$GPGGA,170831.100,4042.0886,N,07421.8092,W,1,06,1.21,99.6,M,-34.2,M,,*6E
304,0,0.20,-0.06,0.40,1.31,-0.25,-1.25,-0.1826,-0.0447,0.0182,-0.9820,$GPGGA,170831.200,4042.0879,N,07421.8102,W,1,06,1.21,99.6,M,-34.2,M,,*65
305,0,0.21,-0.30,-0.22,0.81,-0.88,-1.37,-0.1835,-0.0450,0.0172,-0.9818,$GPGGA,170831.300,4042.0871,N,07421.8111,W,1,06,1.21,99.6,M,-34.2,M,,*6E
306,0,0.00,0.19,0.14,0.13,0.81,-1.44,-0.1846,-0.0450,0.0168,-0.9816,$GPGGA,170831.400,4042.0864,N,07421.8121,W,1,06,1.21,99.6,M,-34.2,M,,*6E
307,0,0.03,-0.13,-0.64,-0.56,0.69,-1.31,-0.1857,-0.0449,0.0168,-0.9814,$GPGGA,170831.500,4042.0856,N,07421.8131,W,1,06,1.21,99.6,M,-34.2,M,,*6F
308,0,-0.01,-0.15,0.00,1.19,0.37,-1.25,-0.1866,-0.0447,0.0171,-0.9813,$GPGGA,170831.600,4042.0849,N,07421.8140,W,1,06,1.21,99.6,M,-34.2,M,,*64
309,0,-0.19,-0.30,0.54,1.62,0.88,-1.19,-0.1876,-0.0450,0.0168,-0.9811,$GPGGA,170831.700,4042.0842,N,07421.8150,W,1,06,1.21,99.6,M,-34.2,M,,*6F
310,0,-0.10,-0.33,-0.57,2.50,0.56,-1.00,-0.1884,-0.0450,0.0147,-0.9810,$GPGGA,170831.800,4042.0835,N,07421.8161,W,1,06,1.21,99.6,M,-34.2,M,,*62
311,0,0.13,-0.37,-0.16,0.62,1.25,-0.81,-0.1890,-0.0444,0.0131,-0.9809,$GPGGA,170831.900,4042.0828,N,07421.8172,W,1,06,1.21,99.5,M,-34.2,M,,*6E
312,0,-0.21,0.26,-0.29,-1.06,-0.69,-1.19,-0.1899,-0.0443,0.0129,-0.9807,$GPGGA,170832.000,4042.0821,N,07421.8184,W,1,06,1.21,99.5,M,-34.2,M,,*64
313,0,-0.10,0.51,0.24,-1.31,-1.19,-1.44,-0.1912,-0.0452,0.0140,-0.9804,$GPGGA,170832.100,4042.0813,N,07421.8194,W,1,06,1.21,99.5,M,-34.2,M,,*65
314,0,0.24,-0.68,-0.38,-1.06,0.75,-1.25,-0.1923,-0.0452,0.0148,-0.9802,$GPGGA,170832.200,4042.0806,N,07421.8204,W,1,06,1.32,99.5,M,-34.2,M,,*6A
315,0,0.18,0.14,-0.40,0.00,1.75,-1.19,-0.1934,-0.0439,0.0148,-0.9800,$GPGGA,170832.300,4042.0798,N,07421.8214,W,1,06,1.32,99.5,M,-34.2,M,,*62
316,0,0.43,-0.11,-0.48,0.50,0.13,-1.06,-0.1942,-0.0430,0.0141,-0.9799,$GPGGA,170832.400,4042.0790,N,07421.8224,W,1,06,1.21,99.5,M,-34.2,M,,*6C
317,0,0.32,0.01,0.00,-1.81,-0.88,-1.25,-0.1952,-0.0430,0.0146,-0.9797,$GPGGA,170832.500,4042.0783,N,07421.8234,W,1,06,1.21,99.5,M,-34.2,M,,*6E
318,0,0.02,0.49,0.58,-3.00,0.06,-1.56,-0.1964,-0.0431,0.0167,-0.9794,$GPGGA,170832.600,4042.0775,N,07421.8243,W,1,06,1.21,99.5,M,-34.2,M,,*64
319,0,0.27,-0.65,-0.99,-2.31,0.94,-1.31,-0.1977,-0.0421,0.0188,-0.9792,$GPGGA,170832.700,4042.0768,N,07421.8253,W,1,06,1.21,99.5,M,-34.2,M,,*68
320,0,0.08,-0.10,0.13,-1.94,1.00,-0.88,-0.1987,-0.0405,0.0202,-0.9790,$GPGGA,170832.800,4042.0760,N,07421.8263,W,1,06,1.21,99.5,M,-34.2,M,,*6C
321,0,-0.01,0.08,-0.35,0.06,0.31,-0.69,-0.1997,-0.0400,0.0206,-0.9788,$GPGGA,170832.900,4042.0753,N,07421.8273,W,1,06,1.21,99.5,M,-34.2,M,,*6C
322,0,-0.11,-0.44,-0.25,-0.25,-0.50,-1.00,-0.2006,-0.0403,0.0210,-0.9786,$GPGGA,170833.000,4042.0746,N,07421.8283,W,1,06,1.21,99.5,M,-34.2,M,,*6F
323,0,0.21,0.13,-0.11,1.25,1.12,-1.06,-0.2014,-0.0399,0.0205,-0.9785,$GPGGA,170833.100,4042.0739,N,07421.8294,W,1,06,1.21,99.5,M,-34.2,M,,*60
324,0,0.25,-0.24,-0.58,2.19,1.19,-1.06,-0.2021,-0.0396,0.0195,-0.9783,$GPGGA,170833.200,4042.0732,N,07421.8304,W,1,06,1.21,99.5,M,-34.2,M,,*60
325,0,0.22,-0.19,0.21,1.31,-0.25,-0.81,-0.2029,-0.0399,0.0177,-0.9782,$GPGGA,170833.300,4042.0725,N,07421.8314,W,1,06,1.32,99.5,M,-34.2,M,,*64
326,0,0.00,0.57,0.19,0.31,-0.13,-0.94,-0.2037,-0.0402,0.0170,-0.9781,$GPGGA,170833.400,4042.0718,N,07421.8324,W,1,06,1.32,99.5,M,-34.2,M,,*6E
327,0,0.15,0.00,-0.08,-0.06,0.37,-1.12,-0.2045,-0.0402,0.0174,-0.9779,$GPGGA,170833.500,4042.0711,N,07421.8334,W,1,06,1.21,99.5,M,-34.2,M,,*65
328,0,0.10,0.06,-0.58,-1.06,1.31,-1.12,-0.2053,-0.0398,0.0173,-0.9777,$GPGGA,170833.600,4042.0704,N,07421.8344,W,1,06,1.21,99.5,M,-34.2,M,,*65
329,0,0.24,0.23,-1.47,0.88,2.12,-0.50,-0.2059,-0.0380,0.0165,-0.9777,$GPGGA,170833.700,4042.0697,N,07421.8355,W,1,06,1.21,99.5,M,-34.2,M,,*6F
330,0,0.22,0.23,-0.48,1.37,1.12,-0.44,-0.2061,-0.0374,0.0153,-0.9777,$GPGGA,170833.800,4042.0690,N,07421.8364,W,1,06,1.21,99.5,M,-34.2,M,,*65
331,0,0.31,0.24,-0.38,0.81,0.06,-0.44,-0.2061,-0.0373,0.0147,-0.9777,$GPGGA,170833.900,4042.0683,N,07421.8374,W,1,06,1.21,99.5,M,-34.2,M,,*67
332,0,0.32,0.44,0.13,0.50,0.37,-0.31,-0.2061,-0.0373,0.0146,-0.9777,$GPGGA,170834.000,4042.0676,N,07421.8384,W,1,06,1.21,99.5,M,-34.2,M,,*6C
333,0,0.43,0.24,-0.36,-1.50,1.62,-0.31,-0.2062,-0.0366,0.0149,-0.9777,$GPGGA,170834.100,4042.0669,N,07421.8394,W,1,06,1.21,99.5,M,-34.2,M,,*62
334,0,0.18,0.20,-1.05,-1.87,1.75,-0.37,-0.2062,-0.0353,0.0150,-0.9777,$GPGGA,170834.200,4042.0662,N,07421.8404,W,1,06,1.21,99.5,M,-34.2,M,,*64
335,0,0.21,0.22,-0.16,-1.81,-0.37,-0.56,-0.2064,-0.0350,0.0153,-0.9777,$GPGGA,170834.300,4042.0655,N,07421.8414,W,1,06,1.21,99.5,M,-34.2,M,,*60
336,0,0.01,0.02,0.42,-0.25,-1.94,-0.44,-0.2065,-0.0358,0.0162,-0.9777,$GPGGA,170834.400,4042.0648,N,07421.8424,W,1,06,1.21,99.5,M,-34.2,M,,*68
337,0,-0.11,0.27,0.57,1.00,-0.94,0.13,-0.2065,-0.0371,0.0162,-0.9776,$GPGGA,170834.500,4042.0641,N,07421.8434,W,1,06,1.21,99.5,M,-34.2,M,,*61
338,0,0.32,0.15,-0.23,-0.44,-0.62,0.13,-0.2064,-0.0375,0.0158,-0.9776,$GPGGA,170834.600,4042.0634,N,07421.8444,W,1,06,1.21,99.5,M,-34.2,M,,*67
339,0,-0.17,0.35,0.00,-0.62,-1.62,-0.06,-0.2064,-0.0378,0.0161,-0.9776,$GPGGA,170834.700,4042.0627,N,07421.8454,W,1,06,1.21,99.5,M,-34.2,M,,*65
340,0,0.18,0.44,-0.48,0.81,0.75,-0.13,-0.2064,-0.0382,0.0163,-0.9776,$GPGGA,170834.800,4042.0620,N,07421.8464,W,1,06,1.21,99.5,M,-34.2,M,,*6E
341,0,-0.29,-0.20,-1.43,1.62,3.87,0.31,-0.2064,-0.0354,0.0145,-0.9777,$GPGGA,170834.900,4042.0613,N,07421.8474,W,1,06,1.21,99.5,M,-34.2,M,,*6E
342,0,-0.03,0.44,-1.10,3.25,0.81,0.50,-0.2062,-0.0341,0.0121,-0.9778,$GPGGA,170835.000,4042.0606,N,07421.8485,W,1,06,1.21,99.5,M,-34.2,M,,*6C
343,0,0.11,0.30,-0.24,1.25,-0.44,0.25,-0.2061,-0.0349,0.0104,-0.9778,$GPGGA,170835.100,4042.0599,N,07421.8495,W,1,06,1.21,99.5,M,-34.2,M,,*69
344,0,0.02,0.43,0.47,-1.94,-2.50,0.25,-0.2061,-0.0363,0.0104,-0.9778,$GPGGA,170835.200,4042.0592,N,07421.8505,W,1,06,1.21,99.5,M,-34.2,M,,*69
345,0,-0.33,0.77,-0.02,-2.31,-1.06,0.13,-0.2062,-0.0369,0.0128,-0.9777,$GPGGA,170835.300,4042.0585,N,07421.8515,W,1,06,1.21,99.5,M,-34.2,M,,*6F
346,0,-0.12,0.07,-0.54,-2.69,-0.56,0.25,-0.2062,-0.0369,0.0153,-0.9777,$GPGGA,170835.400,4042.0578,N,07421.8525,W,1,06,1.32,99.5,M,-34.2,M,,*6B
347,0,-0.24,0.71,-0.98,-2.62,2.12,0.37,-0.2064,-0.0355,0.0170,-0.9777,$GPGGA,170835.500,4042.0571,N,07421.8535,W,1,06,1.32,99.5,M,-34.2,M,,*62
348,0,-0.07,0.60,-1.26,-2.37,2.37,0.44,-0.2063,-0.0333,0.0181,-0.9777,$GPGGA,170835.600,4042.0564,N,07421.8546,W,1,06,1.21,99.6,M,-34.2,M,,*60
349,0,-0.09,0.18,-0.33,-1.44,0.25,0.37,-0.2064,-0.0323,0.0190,-0.9777,$GPGGA,170835.700,4042.0557,N,07421.8556,W,1,06,1.21,99.6,M,-34.2,M,,*60
350,0,0.00,0.51,0.54,-0.13,-1.37,0.56,-0.2064,-0.0326,0.0195,-0.9777,$GPGGA,170835.800,4042.0550,N,07421.8567,W,1,06,1.21,99.6,M,-34.2,M,,*6A
351,0,-0.01,0.17,0.28,0.25,0.37,0.81,-0.2062,-0.0334,0.0200,-0.9777,$GPGGA,170835.900,4042.0543,N,07421.8577,W,1,06,1.21,99.6,M,-34.2,M,,*68
352,0,-0.10,-0.08,-0.40,-0.62,2.37,0.62,-0.2061,-0.0328,0.0186,-0.9778,$GPGGA,170836.000,4042.0536,N,07421.8587,W,1,06,1.21,99.6,M,-34.2,M,,*6F
353,0,-0.15,0.66,-1.45,-1.62,1.81,0.37,-0.2061,-0.0306,0.0188,-0.9778,$GPGGA,170836.100,4042.0529,N,07421.8597,W,1,06,1.21,99.6,M,-34.2,M,,*61
354,0,-0.11,-0.37,-1.05,-1.81,0.25,0.37,-0.2061,-0.0292,0.0194,-0.9779,$GPGGA,170836.200,4042.0521,N,07421.8607,W,1,06,1.32,99.6,M,-34.2,M,,*62
355,0,-0.10,1.02,0.40,-0.44,-1.25,0.13,-0.2062,-0.0295,0.0202,-0.9778,$GPGGA,170836.300,4042.0515,N,07421.8617,W,1,06,1.32,99.6,M,-34.2,M,,*65
356,0,0.06,0.35,0.75,0.00,-1.62,0.44,-0.2061,-0.0312,0.0208,-0.9778,$GPGGA,170836.400,4042.0507,N,07421.8627,W,1,06,1.32,99.6,M,-34.2,M,,*62
357,0,0.05,0.54,0.55,-0.37,-0.81,0.69,-0.2059,-0.0327,0.0206,-0.9778,$GPGGA,170836.500,4042.0500,N,07421.8636,W,1,06,1.32,99.6,M,-34.2,M,,*64
358,0,0.31,0.87,-0.66,-0.25,0.25,0.37,-0.2057,-0.0330,0.0201,-0.9778,$GPGGA,170836.600,4042.0493,N,07421.8646,W,1,06,1.21,99.6,M,-34.2,M,,*69
359,0,-0.15,0.03,0.01,1.75,2.19,0.62,-0.2055,-0.0317,0.0197,-0.9780,$GPGGA,170836.700,4042.0486,N,07421.8656,W,1,06,1.21,99.6,M,-34.2,M,,*6D
360,0,0.05,0.27,-0.90,0.75,2.06,0.69,-0.2050,-0.0301,0.0191,-0.9781,$GPGGA,170836.800,4042.0479,N,07421.8666,W,1,06,1.21,99.6,M,-34.2,M,,*61
361,0,-0.07,0.50,-0.47,1.44,0.44,0.81,-0.2044,-0.0299,0.0179,-0.9783,$GPGGA,170836.900,4042.0472,N,07421.8676,W,1,06,1.21,99.6,M,-34.2,M,,*6A
362,0,-0.11,0.77,0.28,1.56,0.88,1.12,-0.2036,-0.0301,0.0159,-0.9785,$GPGGA,170837.000,4042.0465,N,07421.8686,W,1,06,1.32,99.6,M,-34.2,M,,*69
363,0,0.13,0.84,-0.36,-0.25,-0.19,1.50,-0.2025,-0.0305,0.0140,-0.9787,$GPGGA,170837.100,4042.0457,N,07421.8695,W,1,06,1.32,99.7,M,-34.2,M,,*6A
364,0,0.15,0.84,-1.09,-1.75,0.81,1.56,-0.2012,-0.0305,0.0135,-0.9790,$GPGGA,170837.200,4042.0450,N,07421.8705,W,1,06,1.32,99.7,M,-34.2,M,,*66
365,0,-0.06,0.97,-0.32,-3.19,0.00,2.00,-0.1998,-0.0306,0.0121,-0.9793,$GPGGA,170837.300,4042.0443,N,07421.8715,W,1,06,1.32,99.7,M,-34.2,M,,*64
366,0,0.12,0.46,0.32,2.62,-2.06,2.19,-0.1981,-0.0313,0.0132,-0.9796,$GPGGA,170837.400,4042.0435,N,07421.8725,W,1,06,1.32,99.7,M,-34.2,M,,*61
367,0,0.06,0.01,-0.12,-3.94,-0.88,2.75,-0.1961,-0.0326,0.0141,-0.9799,$GPGGA,170837.500,4042.0428,N,07421.8735,W,1,06,1.32,99.7,M,-34.2,M,,*6D
368,0,0.31,1.38,0.66,1.81,1.00,2.75,-0.1937,-0.0338,0.0131,-0.9804,$GPGGA,170837.600,4042.0421,N,07421.8744,W,1,06,1.21,99.7,M,-34.2,M,,*63
369,0,0.22,1.06,-0.85,-0.13,-0.62,3.19,-0.1912,-0.0315,0.0127,-0.9810,$GPGGA,170837.700,4042.0414,N,07421.8754,W,1,06,1.21,99.7,M,-34.2,M,,*65
370,0,0.16,1.47,-0.94,-3.00,-0.44,3.87,-0.1885,-0.0327,0.0076,-0.9815,$GPGGA,170837.800,4042.0407,N,07421.8764,W,1,06,1.21,99.7,M,-34.2,M,,*6B
371,0,-0.04,1.77,0.04,-3.37,2.37,3.94,-0.1855,-0.0314,0.0101,-0.9821,$GPGGA,170837.900,4042.0399,N,07421.8774,W,1,06,1.21,99.7,M,-34.2,M,,*6B
372,0,0.02,1.75,-0.72,0.37,1.62,4.12,-0.1825,-0.0298,0.0115,-0.9827,$GPGGA,170838.000,4042.0392,N,07421.8784,W,1,06,1.32,99.7,M,-34.2,M,,*6B
373,0,0.07,0.42,-1.65,1.37,3.19,4.06,-0.1793,-0.0268,0.0118,-0.9833,$GPGGA,170838.100,4042.0385,N,07421.8794,W,1,06,1.32,99.7,M,-34.2,M,,*6D
374,0,0.45,1.60,-1.45,1.37,1.44,3.94,-0.1757,-0.0245,0.0095,-0.9841,$GPGGA,170838.200,4042.0378,N,07421.8803,W,1,06,1.32,99.7,M,-34.2,M,,*6D
375,0,0.06,1.17,0.40,-0.31,-1.19,4.00,-0.1723,-0.0247,0.0079,-0.9847,$GPGGA,170838.300,4042.0371,N,07421.8812,W,1,06,1.32,99.7,M,-34.2,M,,*65
376,0,0.03,1.11,1.58,-2.81,-3.19,3.75,-0.1692,-0.0271,0.0100,-0.9852,$GPGGA,170838.400,4042.0363,N,07421.8821,W,1,06,1.32,99.7,M,-34.2,M,,*61
377,0,0.49,1.00,0.78,-1.62,-1.06,3.56,-0.1662,-0.0283,0.0115,-0.9856,$GPGGA,170838.500,4042.0356,N,07421.8831,W,1,06,1.32,99.8,M,-34.2,M,,*68
378,0,0.38,1.37,-0.96,1.19,0.62,4.31,-0.1628,-0.0273,0.0120,-0.9862,$GPGGA,170838.600,4042.0349,N,07421.8840,W,1,06,1.21,99.8,M,-34.2,M,,*61
379,0,0.03,0.94,-1.08,2.81,1.94,4.31,-0.1592,-0.0268,0.0088,-0.9868,$GPGGA,170838.700,4042.0341,N,07421.8850,W,1,06,1.21,99.8,M,-34.2,M,,*69
380,0,-0.08,1.87,0.41,-1.50,-0.13,3.94,-0.1558,-0.0261,0.0090,-0.9874,$GPGGA,170838.800,4042.0334,N,07421.8859,W,1,06,1.32,99.8,M,-34.2,M,,*6F
381,0,0.00,1.88,-0.10,-1.87,-2.69,3.37,-0.1528,-0.0282,0.0107,-0.9878,$GPGGA,170838.900,4042.0326,N,07421.8868,W,1,06,1.32,99.8,M,-34.2,M,,*6F
382,0,-0.14,0.82,0.48,0.19,1.44,3.31,-0.1500,-0.0289,0.0117,-0.9882,$GPGGA,170839.000,4042.0319,N,07421.8877,W,1,06,1.32,99.8,M,-34.2,M,,*65
383,0,-0.18,1.17,-0.53,1.44,1.44,3.50,-0.1472,-0.0271,0.0109,-0.9886,$GPGGA,170839.100,4042.0311,N,07421.8887,W,1,06,1.32,99.8,M,-34.2,M,,*63
384,0,0.33,1.07,-0.04,1.62,-2.31,2.94,-0.1445,-0.0277,0.0102,-0.9891,$GPGGA,170839.200,4042.0303,N,07421.8896,W,1,06,1.32,99.8,M,-34.2,M,,*63
385,0,0.19,0.74,0.28,-2.87,1.12,2.75,-0.1422,-0.0278,0.0114,-0.9894,$GPGGA,170839.300,4042.0295,N,07421.8905,W,1,06,1.32,99.8,M,-34.2,M,,*67
386,0,0.33,1.06,-1.55,-0.31,2.69,2.50,-0.1400,-0.0261,0.0119,-0.9897,$GPGGA,170839.400,4042.0287,N,07421.8915,W,1,06,1.32,99.8,M,-34.2,M,,*62
387,0,-0.10,0.17,-0.90,0.94,2.94,2.50,-0.1379,-0.0231,0.0114,-0.9901,$GPGGA,170839.500,4042.0278,N,07421.8924,W,1,06,1.32,99.8,M,-34.2,M,,*61
388,0,0.11,0.27,-0.65,1.94,-1.69,2.81,-0.1356,-0.0230,0.0089,-0.9905,$GPGGA,170839.600,4042.0270,N,07421.8933,W,1,06,1.32,99.9,M,-34.2,M,,*6D
389,0,0.20,0.79,0.35,1.44,-0.19,2.50,-0.1333,-0.0233,0.0073,-0.9908,$GPGGA,170839.700,4042.0262,N,07421.8943,W,1,06,1.21,99.9,M,-34.2,M,,*6A
390,0,0.00,0.58,-0.74,0.37,0.13,1.87,-0.1314,-0.0231,0.0060,-0.9910,$GPGGA,170839.800,4042.0254,N,07421.8952,W,1,06,1.21,99.9,M,-34.2,M,,*60
391,0,0.01,0.68,-0.54,-0.06,0.94,1.62,-0.1299,-0.0226,0.0061,-0.9913,$GPGGA,170839.900,4042.0245,N,07421.8961,W,1,06,1.21,99.9,M,-34.2,M,,*61
392,0,0.21,0.23,-0.03,-0.81,1.12,1.37,-0.1287,-0.0223,0.0071,-0.9914,$GPGGA,170840.000,4042.0237,N,07421.8970,W,1,06,1.32,99.9,M,-34.2,M,,*61
393,0,0.03,0.61,-0.63,0.81,2.44,1.37,-0.1275,-0.0218,0.0059,-0.9916,$GPGGA,170840.100,4042.0229,N,07421.8979,W,1,06,1.32,100.0,M,-34.2,M,,*5E
394,0,-0.18,0.44,0.02,1.06,0.19,1.00,-0.1265,-0.0209,0.0052,-0.9918,$GPGGA,170840.200,4042.0221,N,07421.8988,W,1,06,1.32,100.0,M,-34.2,M,,*5B
395,0,-0.08,0.58,0.34,-2.87,-4.31,0.81,-0.1256,-0.0229,0.0066,-0.9918,$GPGGA,170840.300,4042.0212,N,07421.8997,W,1,06,1.32,100.0,M,-34.2,M,,*54
396,0,0.00,0.07,-0.23,-2.00,1.19,0.19,-0.1255,-0.0255,0.0086,-0.9917,$GPGGA,170840.400,4042.0203,N,07421.9005,W,1,06,1.32,100.0,M,-34.2,M,,*50
397,0,0.07,-0.06,-0.23,0.31,3.81,0.37,-0.1255,-0.0230,0.0075,-0.9918,$GPGGA,170840.500,4042.0195,N,07421.9014,W,1,06,1.32,100.0,M,-34.2,M,,*5D
398,0,-0.11,-0.15,-0.90,3.94,-0.37,0.75,-0.1253,-0.0217,0.0056,-0.9919,$GPGGA,170840.600,4042.0187,N,07421.9022,W,1,06,1.21,100.0,M,-34.2,M,,*5A
399,0,-0.08,0.01,0.88,0.13,-3.06,0.62,-0.1247,-0.0234,0.0040,-0.9919,$GPGGA,170840.700,4042.0178,N,07421.9031,W,1,06,1.21,100.0,M,-34.2,M,,*59
400,0,0.20,-0.05,0.66,0.31,-3.31,0.31,-0.1246,-0.0262,0.0045,-0.9918,$GPGGA,170840.800,4042.0169,N,07421.9040,W,1,06,1.21,100.1,M,-34.2,M,,*51
401,0,0.21,0.33,-1.23,-1.94,4.75,0.13,-0.1246,-0.0241,0.0057,-0.9919,$GPGGA,170840.900,4042.0160,N,07421.9049,W,1,06,1.21,100.1,M,-34.2,M,,*50
402,0,-0.15,-0.42,-1.28,-0.31,2.06,0.00,-0.1247,-0.0211,0.0054,-0.9919,$GPGGA,170841.000,4042.0152,N,07421.9058,W,1,06,1.32,100.1,M,-34.2,M,,*5B
403,0,-0.19,0.24,-0.07,0.88,0.06,0.31,-0.1247,-0.0207,0.0049,-0.9919,$GPGGA,170841.100,4042.0143,N,07421.9067,W,1,06,1.32,100.1,M,-34.2,M,,*56
404,0,0.19,0.64,-0.10,1.87,0.44,0.69,-0.1245,-0.0208,0.0038,-0.9920,$GPGGA,170841.200,4042.0134,N,07421.9076,W,1,06,1.32,100.2,M,-34.2,M,,*56
405,0,0.16,0.11,0.39,-0.19,0.94,0.25,-0.1245,-0.0203,0.0030,-0.9920,$GPGGA,170841.300,4042.0125,N,07421.9085,W,1,06,1.32,100.2,M,-34.2,M,,*5B
406,0,-0.12,0.84,-0.20,-1.56,0.00,0.19,-0.1245,-0.0201,0.0029,-0.9920,$GPGGA,170841.400,4042.0116,N,07421.9093,W,1,06,1.32,100.2,M,-34.2,M,,*5B
407,0,0.19,-0.20,0.24,-0.62,-0.69,0.06,-0.1245,-0.0207,0.0041,-0.9920,$GPGGA,170841.500,4042.0108,N,07421.9102,W,1,06,1.32,100.2,M,-34.2,M,,*5C
408,0,0.06,-0.25,-0.28,0.31,0.56,0.19,-0.1245,-0.0209,0.0040,-0.9920,$GPGGA,170841.600,4042.0099,N,07421.9110,W,1,06,1.21,100.3,M,-34.2,M,,*56
409,0,0.04,0.16,-1.17,1.37,2.50,0.37,-0.1245,-0.0195,0.0027,-0.9920,$GPGGA,170841.700,4042.0090,N,07421.9119,W,1,06,1.21,100.3,M,-34.2,M,,*57
410,0,-0.10,0.15,-0.99,1.94,-0.13,0.37,-0.1245,-0.0181,0.0004,-0.9921,$GPGGA,170841.800,4042.0082,N,07421.9127,W,1,06,1.21,100.3,M,-34.2,M,,*56
411,0,0.00,0.15,-0.13,1.50,-1.31,0.31,-0.1245,-0.0182,-0.0013,-0.9921,$GPGGA,170841.900,4042.0073,N,07421.9135,W,1,06,1.32,100.3,M,-34.2,M,,*58
412,0,0.11,-0.20,0.01,1.31,-0.81,0.06,-0.1244,-0.0188,-0.0028,-0.9921,$GPGGA,170842.000,4042.0064,N,07421.9144,W,1,06,1.32,100.3,M,-34.2,M,,*52
