0,2,0.13,0.00,-0.01,1.69,0.88,0.00,-0.7222,-0.0699,0.0293,-0.6875,$GPGGA,170144.800,4041.0343,N,07423.2990,W,1,06,1.21,153.6,M,-34.1,M,,*5A
1,2,0.03,-0.23,-0.02,-4.69,-3.81,-0.06,-0.7222,-0.0696,0.0304,-0.6875,$GPGGA,170144.800,4041.0343,N,07423.2990,W,1,06,1.21,153.6,M,-34.1,M,,*5A
2,2,0.16,0.14,-0.17,-0.06,-0.31,0.00,-0.7224,-0.0690,0.0341,-0.6873,$GPGGA,170145.000,4041.0343,N,07423.2991,W,1,06,1.21,153.6,M,-34.1,M,,*52
3,2,0.15,-0.38,-0.27,-0.06,-0.19,0.00,-0.7224,-0.0692,0.0344,-0.6872,$GPGGA,170145.100,4041.0342,N,07423.2991,W,1,06,1.21,153.6,M,-34.1,M,,*52
4,2,0.34,0.12,0.02,-0.06,-1.25,0.06,-0.7222,-0.0699,0.0355,-0.6872,$GPGGA,170145.200,4041.0342,N,07423.2991,W,1,06,1.21,153.6,M,-34.1,M,,*51
5,2,0.52,0.03,-0.06,0.13,0.00,0.00,-0.7220,-0.0727,0.0383,-0.6870,$GPGGA,170145.300,4041.0342,N,07423.2991,W,1,06,1.21,153.6,M,-34.1,M,,*50
6,2,0.83,-0.01,0.08,-0.31,0.31,-0.06,-0.7216,-0.0752,0.0417,-0.6870,$GPGGA,170145.400,4041.0342,N,07423.2991,W,1,06,1.21,153.6,M,-34.1,M,,*57
7,2,0.40,0.37,0.26,-0.19,0.94,-1.00,-0.7211,-0.0794,0.0462,-0.6867,$GPGGA,170145.500,4041.0342,N,07423.2991,W,1,06,1.21,153.6,M,-34.1,M,,*56
8,2,1.05,-0.06,-0.19,-3.56,-2.62,-0.37,-0.7211,-0.0801,0.0488,-0.6865,$GPGGA,170145.600,4041.0342,N,07423.2991,W,1,06,1.21,153.6,M,-34.1,M,,*55
9,2,1.35,-0.12,-0.42,-3.37,8.13,-0.31,-0.7210,-0.0803,0.0551,-0.6861,$GPGGA,170145.700,4041.0342,N,07423.2991,W,1,06,1.21,153.6,M,-34.1,M,,*54
10,2,1.68,-0.25,0.01,-1.94,1.94,-0.62,-0.7205,-0.0847,0.0623,-0.6855,$GPGGA,170145.800,4041.0342,N,07423.2991,W,1,06,1.21,153.6,M,-34.1,M,,*5B
11,2,1.57,-0.09,0.30,-2.87,-3.12,-0.88,-0.7187,-0.0978,0.0802,-0.6837,$GPGGA,170145.900,4041.0342,N,07423.2991,W,1,06,1.21,153.6,M,-34.1,M,,*5A
12,2,1.52,-0.08,-0.16,3.25,-8.56,-1.56,-0.7176,-0.1078,0.0930,-0.6818,$GPGGA,170146.000,4041.0341,N,07423.2991,W,1,06,1.21,153.6,M,-34.1,M,,*53
13,2,1.27,0.04,0.07,3.94,-0.06,-2.00,-0.7166,-0.1177,0.1030,-0.6797,$GPGGA,170146.100,4041.0341,N,07423.2991,W,1,06,1.21,153.6,M,-34.1,M,,*52
14,2,0.87,-0.01,0.39,0.19,1.94,-2.62,-0.7163,-0.1262,0.1101,-0.6774,$GPGGA,170146.200,4041.0341,N,07423.2991,W,1,06,1.21,153.6,M,-34.1,M,,*51
15,1,0.68,-0.03,0.32,-0.37,1.94,-3.12,-0.7174,-0.1283,0.1135,-0.6752,$GPGGA,170146.300,4041.0341,N,07423.2991,W,1,06,1.21,153.6,M,-34.1,M,,*50
16,0,0.43,-0.44,0.13,-0.31,1.50,-3.69,-0.7191,-0.1280,0.1160,-0.6732,$GPGGA,170146.400,4041.0341,N,07423.2991,W,1,06,1.21,153.6,M,-34.1,M,,*57
17,0,0.34,-0.43,0.17,-1.44,3.06,-4.12,-0.7213,-0.1259,0.1172,-0.6710,$GPGGA,170146.500,4041.0341,N,07423.2991,W,1,06,1.21,153.6,M,-34.1,M,,*56
18,0,-0.01,-0.12,0.35,-0.88,3.81,-4.81,-0.7242,-0.1229,0.1157,-0.6686,$GPGGA,170146.600,4041.0341,N,07423.2991,W,1,06,1.21,153.6,M,-34.1,M,,*55
19,0,0.01,-0.37,0.12,-3.06,3.12,-5.44,-0.7277,-0.1198,0.1149,-0.6655,$GPGGA,170146.700,4041.0341,N,07423.2991,W,1,06,1.21,153.6,M,-34.1,M,,*54
20,0,0.06,-0.24,0.41,-4.31,2.75,-6.06,-0.7316,-0.1147,0.1146,-0.6622,$GPGGA,170146.800,4041.0341,N,07423.2991,W,1,06,1.21,153.6,M,-34.1,M,,*5B
21,0,-0.08,-0.36,0.36,-4.75,3.12,-7.12,-0.7360,-0.1091,0.1149,-0.6582,$GPGGA,170146.900,4041.0340,N,07423.2991,W,1,06,1.21,153.6,M,-34.1,M,,*5B
22,0,-0.23,-0.71,0.10,-3.19,2.81,-8.50,-0.7407,-0.0968,0.1165,-0.6546,$GPGGA,170147.000,4041.0340,N,07423.2991,W,1,06,1.21,153.6,M,-34.1,M,,*53
23,0,-0.72,-1.04,-0.10,-2.87,1.69,-10.06,-0.7459,-0.0844,0.1179,-0.6501,$GPGGA,170147.100,4041.0340,N,07423.2991,W,1,06,1.21,153.6,M,-34.1,M,,*52
24,0,-0.66,-0.83,-0.04,0.25,3.62,-11.00,-0.7578,-0.0759,0.1166,-0.6375,$GPGGA,170147.200,4041.0340,N,07423.2991,W,1,06,1.21,153.6,M,-34.1,M,,*51
25,0,-0.69,-0.68,-0.08,-0.19,4.25,-12.81,-0.7640,-0.0659,0.1112,-0.6321,$GPGGA,170147.300,4041.0340,N,07423.2991,W,1,06,1.21,153.6,M,-34.1,M,,*50
26,0,-0.55,-0.30,-0.12,-2.44,4.12,-14.44,-0.7754,-0.0559,0.1063,-0.6200,$GPGGA,170147.400,4041.0340,N,07423.2991,W,1,06,1.21,153.6,M,-34.1,M,,*57
27,0,-0.38,-0.55,-0.23,-4.06,1.62,-15.69,-0.7907,-0.0483,0.1052,-0.6011,$GPGGA,170147.500,4041.0340,N,07423.2991,W,1,06,1.21,153.6,M,-34.1,M,,*56
28,0,-0.13,-0.61,0.01,-2.94,0.56,-17.12,-0.8068,-0.0397,0.1077,-0.5796,$GPGGA,170147.600,4041.0340,N,07423.2991,W,1,06,1.21,153.6,M,-34.1,M,,*55
29,0,-0.31,-1.28,0.27,-6.81,0.44,-18.75,-0.8240,-0.0331,0.1110,-0.5546,$GPGGA,170147.700,4041.0340,N,07423.2991,W,1,06,1.21,153.6,M,-34.1,M,,*54
30,0,-0.26,-1.38,0.32,-4.56,1.50,-20.12,-0.8416,-0.0289,0.1134,-0.5273,$GPGGA,170147.800,4041.0340,N,07423.2991,W,1,06,1.21,153.6,M,-34.1,M,,*5B
31,0,-0.88,-1.24,-0.23,-0.94,5.06,-21.00,-0.8594,-0.0162,0.1132,-0.4984,$GPGGA,170147.900,4041.0340,N,07423.2991,W,1,06,1.21,153.6,M,-34.1,M,,*5A
32,0,-0.75,-1.15,-0.78,1.25,3.25,-21.75,-0.8745,-0.0159,0.1100,-0.4722,$GPGGA,170148.000,4041.0340,N,07423.2991,W,1,06,1.21,153.6,M,-34.1,M,,*5C
33,0,-0.39,-0.96,-0.31,2.12,1.12,-22.50,-0.8893,-0.0026,0.1105,-0.4437,$GPGGA,170148.100,4041.0340,N,07423.2991,W,1,06,1.21,153.6,M,-34.1,M,,*5D
34,0,0.22,-0.28,0.25,-0.81,1.12,-23.19,-0.9017,-0.0033,0.1100,-0.4181,$GPGGA,170148.200,4041.0340,N,07423.2991,W,1,06,1.21,153.6,M,-34.1,M,,*5E
35,0,0.10,-1.17,0.34,-1.50,2.19,-23.06,-0.9097,-0.0027,0.1102,-0.4004,$GPGGA,170148.300,4041.0340,N,07423.2991,W,1,06,1.21,153.6,M,-34.1,M,,*5F
36,0,-0.02,-1.04,0.19,-2.31,3.56,-23.06,-0.9167,0.0079,0.1129,-0.3833,$GPGGA,170148.400,4041.0340,N,07423.2991,W,1,06,1.21,153.6,M,-34.1,M,,*58
37,0,0.10,-1.37,-0.36,-1.12,2.94,-23.56,-0.9240,0.0116,0.1130,-0.3652,$GPGGA,170148.500,4041.0341,N,07423.2990,W,1,06,1.21,153.6,M,-34.1,M,,*59
38,0,0.27,-1.08,-0.22,0.00,1.75,-23.94,-0.9293,0.0266,0.1220,-0.3475,$GPGGA,170148.600,4041.0343,N,07423.2988,W,1,06,1.21,153.6,M,-34.1,M,,*51
39,0,0.24,-0.78,0.03,-0.13,1.37,-24.12,-0.9343,0.0368,0.1314,-0.3292,$GPGGA,170148.700,4041.0344,N,07423.2987,W,1,06,1.21,153.5,M,-34.1,M,,*5B
40,0,-0.05,-0.47,0.11,0.69,2.31,-24.19,-0.9410,0.0358,0.1312,-0.3100,$GPGGA,170148.800,4041.0346,N,07423.2985,W,1,06,1.21,153.5,M,-34.1,M,,*54
41,0,0.06,-0.71,0.08,0.31,1.37,-23.81,-0.9465,0.0414,0.1318,-0.2916,$GPGGA,170148.900,4041.0347,N,07423.2983,W,1,06,1.21,153.5,M,-34.1,M,,*52
42,0,0.03,-0.61,-0.01,0.81,1.62,-23.25,-0.9519,0.0438,0.1315,-0.2733,$GPGGA,170149.000,4041.0348,N,07423.2983,W,1,06,1.21,153.5,M,-34.1,M,,*55
43,0,-0.23,-0.31,-0.40,0.69,1.06,-22.00,-0.9567,0.0458,0.1321,-0.2555,$GPGGA,170149.100,4041.0349,N,07423.2981,W,1,06,1.21,153.5,M,-34.1,M,,*57
44,0,-0.22,-0.35,0.04,0.31,0.62,-20.12,-0.9608,0.0471,0.1329,-0.2388,$GPGGA,170149.200,4041.0351,N,07423.2980,W,1,06,1.21,153.5,M,-34.1,M,,*5C
45,0,-0.09,-0.35,-0.07,1.25,1.00,-18.62,-0.9645,0.0460,0.1330,-0.2234,$GPGGA,170149.300,4041.0352,N,07423.2979,W,1,06,1.21,153.5,M,-34.1,M,,*58
46,0,-0.23,-0.20,0.26,0.44,1.56,-17.19,-0.9680,0.0443,0.1320,-0.2090,$GPGGA,170149.400,4041.0353,N,07423.2978,W,1,06,1.21,153.5,M,-34.1,M,,*5F
47,0,-0.38,0.03,-0.10,0.62,2.25,-14.56,-0.9711,0.0427,0.1293,-0.1962,$GPGGA,170149.500,4041.0354,N,07423.2977,W,1,06,1.21,153.5,M,-34.1,M,,*56
48,0,-0.37,0.49,0.14,1.00,1.31,-11.38,-0.9770,0.0424,0.1266,-0.1664,$GPGGA,170149.600,4041.0356,N,07423.2975,W,1,06,1.21,153.5,M,-34.1,M,,*55
49,0,-0.24,0.42,-0.19,1.19,0.13,-9.69,-0.9814,0.0406,0.1235,-0.1411,$GPGGA,170149.700,4041.0357,N,07423.2974,W,1,06,1.21,153.5,M,-34.1,M,,*54
50,0,-0.24,0.36,-0.10,-0.94,0.06,-9.00,-0.9841,0.0405,0.1227,-0.1223,$GPGGA,170149.800,4041.0359,N,07423.2972,W,1,06,1.21,153.5,M,-34.1,M,,*53
51,0,-0.34,0.25,-0.09,-0.56,1.00,-8.06,-0.9855,0.0395,0.1216,-0.1115,$GPGGA,170149.900,4041.0361,N,07423.2970,W,1,06,1.21,153.5,M,-34.1,M,,*5B
52,0,-0.38,0.40,-0.07,0.06,1.31,-6.69,-0.9865,0.0381,0.1202,-0.1046,$GPGGA,170150.000,4041.0362,N,07423.2968,W,1,06,1.21,153.5,M,-34.1,M,,*50
53,0,-0.48,0.08,-0.02,1.00,0.44,-6.00,-0.9871,0.0374,0.1199,-0.0999,$GPGGA,170150.100,4041.0363,N,07423.2966,W,1,06,1.21,153.4,M,-34.1,M,,*5F
54,0,-0.41,0.45,-0.19,1.62,0.44,-5.25,-0.9876,0.0350,0.1195,-0.0953,$GPGGA,170150.200,4041.0364,N,07423.2963,W,1,06,1.21,153.4,M,-34.1,M,,*5E
55,0,-0.31,0.42,0.21,0.25,-0.37,-4.62,-0.9881,0.0331,0.1191,-0.0913,$GPGGA,170150.300,4041.0365,N,07423.2960,W,1,06,1.21,153.4,M,-34.1,M,,*5D
56,0,-0.45,0.32,0.19,-0.75,-0.13,-4.50,-0.9887,0.0309,0.1176,-0.0873,$GPGGA,170150.400,4041.0366,N,07423.2958,W,1,06,1.21,153.4,M,-34.1,M,,*52
57,0,-0.61,0.20,0.13,-0.19,0.19,-4.31,-0.9894,0.0295,0.1145,-0.0835,$GPGGA,170150.500,4041.0367,N,07423.2954,W,1,06,1.30,153.4,M,-34.1,M,,*5E
58,0,-0.48,0.40,-0.21,-0.31,0.62,-3.25,-0.9904,0.0277,0.1097,-0.0801,$GPGGA,170150.600,4041.0369,N,07423.2951,W,1,06,1.30,153.4,M,-34.1,M,,*56
59,0,-1.01,0.47,-0.12,0.94,1.12,-2.12,-0.9913,0.0246,0.1033,-0.0778,$GPGGA,170150.700,4041.0370,N,07423.2948,W,1,06,1.21,153.4,M,-34.1,M,,*57
60,0,-0.56,0.49,0.03,0.13,1.00,-1.69,-0.9929,0.0173,0.0895,-0.0760,$GPGGA,170150.800,4041.0371,N,07423.2945,W,1,06,1.21,153.3,M,-34.1,M,,*53
61,0,-0.41,0.36,-0.27,0.75,0.25,-1.37,-0.9934,0.0148,0.0854,-0.0747,$GPGGA,170150.900,4041.0373,N,07423.2942,W,1,06,1.21,153.3,M,-34.1,M,,*57
62,0,-0.10,0.46,-0.10,-0.56,-0.50,-0.69,-0.9935,0.0153,0.0853,-0.0739,$GPGGA,170151.000,4041.0373,N,07423.2937,W,1,06,1.21,153.3,M,-34.1,M,,*5D
63,0,0.08,0.29,-0.21,-0.44,-1.75,-0.62,-0.9935,0.0149,0.0858,-0.0733,$GPGGA,170151.100,4041.0374,N,07423.2932,W,1,06,1.21,153.3,M,-34.1,M,,*5E
64,0,-0.31,0.26,-0.09,0.19,-0.56,-0.56,-0.9936,0.0131,0.0855,-0.0730,$GPGGA,170151.200,4041.0375,N,07423.2928,W,1,06,1.21,153.3,M,-34.1,M,,*57
65,0,-0.19,0.26,-0.20,0.50,0.94,-0.75,-0.9937,0.0112,0.0848,-0.0727,$GPGGA,170151.300,4041.0377,N,07423.2924,W,1,06,1.21,153.3,M,-34.1,M,,*58
66,0,0.18,0.24,-0.16,0.81,0.13,-0.44,-0.9937,0.0102,0.0845,-0.0724,$GPGGA,170151.400,4041.0378,N,07423.2920,W,1,06,1.21,153.3,M,-34.1,M,,*54
67,0,0.16,0.60,0.08,0.50,-1.37,-0.25,-0.9937,0.0097,0.0846,-0.0724,$GPGGA,170151.500,4041.0380,N,07423.2916,W,1,06,1.21,153.3,M,-34.1,M,,*57
68,0,0.50,0.44,-0.10,1.31,-0.31,0.37,-0.9937,0.0078,0.0858,-0.0723,$GPGGA,170151.600,4041.0381,N,07423.2913,W,1,06,1.21,153.3,M,-34.1,M,,*50
69,0,0.59,0.61,-0.29,1.12,0.44,0.88,-0.9935,0.0054,0.0872,-0.0729,$GPGGA,170151.700,4041.0383,N,07423.2909,W,1,06,1.21,153.3,M,-34.1,M,,*58
70,0,0.52,0.62,0.47,0.69,0.56,0.75,-0.9934,0.0042,0.0877,-0.0735,$GPGGA,170151.800,4041.0385,N,07423.2905,W,1,06,1.21,153.3,M,-34.1,M,,*5D
71,0,0.50,0.66,0.30,-0.62,-0.75,0.62,-0.9933,0.0029,0.0884,-0.0740,$GPGGA,170151.900,4041.0387,N,07423.2901,W,1,06,1.21,153.3,M,-34.1,M,,*5A
72,0,0.59,0.39,-0.31,-0.62,-0.31,0.81,-0.9932,0.0023,0.0894,-0.0743,$GPGGA,170152.000,4041.0388,N,07423.2896,W,1,06,1.21,153.3,M,-34.1,M,,*50
73,0,0.53,0.29,0.20,-0.88,0.62,0.69,-0.9929,-0.0008,0.0931,-0.0745,$GPGGA,170152.100,4041.0389,N,07423.2890,W,1,06,1.21,153.2,M,-34.1,M,,*57
74,0,-0.04,0.04,0.19,-0.81,0.75,0.69,-0.9928,-0.0010,0.0934,-0.0750,$GPGGA,170152.200,4041.0391,N,07423.2883,W,1,06,1.21,153.2,M,-34.1,M,,*5F
75,0,0.14,0.25,-0.27,-0.69,0.50,0.56,-0.9928,-0.0009,0.0930,-0.0755,$GPGGA,170152.300,4041.0393,N,07423.2875,W,1,06,1.21,153.2,M,-34.1,M,,*55
76,0,-0.04,0.48,0.30,-0.37,0.62,0.69,-0.9928,-0.0015,0.0928,-0.0760,$GPGGA,170152.400,4041.0395,N,07423.2868,W,1,06,1.21,153.2,M,-34.1,M,,*58
77,0,-0.18,0.19,-0.01,-0.44,0.81,0.88,-0.9928,-0.0012,0.0924,-0.0765,$GPGGA,170152.500,4041.0398,N,07423.2861,W,1,06,1.21,153.2,M,-34.1,M,,*5D
78,0,-0.12,0.36,-0.18,0.50,0.37,0.75,-0.9927,-0.0021,0.0922,-0.0771,$GPGGA,170152.600,4041.0401,N,07423.2856,W,1,06,1.21,153.2,M,-34.1,M,,*5D
79,0,0.03,0.02,-0.31,0.06,0.56,0.56,-0.9927,-0.0035,0.0926,-0.0775,$GPGGA,170152.700,4041.0404,N,07423.2850,W,1,06,1.21,153.2,M,-34.1,M,,*5F
80,0,0.14,0.36,-0.12,-0.81,0.81,0.44,-0.9927,-0.0042,0.0926,-0.0776,$GPGGA,170152.800,4041.0407,N,07423.2844,W,1,06,1.21,153.2,M,-34.1,M,,*56
81,0,0.29,0.16,-0.18,0.06,0.69,0.31,-0.9927,-0.0043,0.0922,-0.0776,$GPGGA,170152.900,4041.0411,N,07423.2838,W,1,06,1.21,153.2,M,-34.1,M,,*5B
82,0,-0.21,0.27,0.19,0.56,1.19,0.31,-0.9928,-0.0044,0.0914,-0.0776,$GPGGA,170153.000,4041.0414,N,07423.2832,W,1,06,1.21,153.2,M,-34.1,M,,*5C
83,0,-0.15,0.08,-0.14,1.31,0.81,0.25,-0.9929,-0.0047,0.0905,-0.0776,$GPGGA,170153.100,4041.0417,N,07423.2826,W,1,06,1.21,153.2,M,-34.1,M,,*5B
84,0,-0.23,-0.04,0.33,0.81,-0.06,0.25,-0.9929,-0.0049,0.0901,-0.0776,$GPGGA,170153.200,4041.0420,N,07423.2821,W,1,06,1.21,153.2,M,-34.1,M,,*5B
85,0,-0.24,0.51,0.14,1.06,-1.00,0.00,-0.9929,-0.0061,0.0901,-0.0776,$GPGGA,170153.300,4041.0423,N,07423.2814,W,1,06,1.21,153.2,M,-34.1,M,,*5F
86,0,-0.22,0.47,0.04,-0.56,0.19,0.06,-0.9929,-0.0067,0.0899,-0.0776,$GPGGA,170153.400,4041.0426,N,07423.2807,W,1,06,1.21,153.2,M,-34.1,M,,*5F
87,0,-0.39,-0.31,-0.18,-0.37,1.56,-0.06,-0.9930,-0.0067,0.0885,-0.0776,$GPGGA,170153.500,4041.0428,N,07423.2801,W,1,06,1.21,153.2,M,-34.1,M,,*56
88,0,-0.50,0.00,-0.31,-0.81,1.00,-0.25,-0.9932,-0.0060,0.0872,-0.0775,$GPGGA,170153.600,4041.0431,N,07423.2795,W,1,06,1.21,153.2,M,-34.1,M,,*5F
89,0,-0.17,-0.01,-0.37,-0.06,0.75,-0.06,-0.9934,-0.0054,0.0844,-0.0776,$GPGGA,170153.700,4041.0433,N,07423.2789,W,1,06,1.21,153.2,M,-34.1,M,,*51
90,0,-0.31,-0.09,0.00,0.31,-0.19,-0.19,-0.9935,-0.0050,0.0825,-0.0777,$GPGGA,170153.800,4041.0436,N,07423.2783,W,1,06,1.21,153.2,M,-34.1,M,,*51
91,0,-0.46,0.01,0.02,1.44,-0.06,-0.44,-0.9937,-0.0056,0.0809,-0.0778,$GPGGA,170153.900,4041.0439,N,07423.2777,W,1,06,1.21,153.1,M,-34.1,M,,*57
92,0,0.00,-0.17,-0.15,1.12,-0.06,0.00,-0.9937,-0.0066,0.0803,-0.0778,$GPGGA,170154.000,4041.0442,N,07423.2771,W,1,06,1.21,153.1,M,-34.1,M,,*53
93,0,-0.10,0.13,-0.08,0.37,0.44,-0.13,-0.9937,-0.0068,0.0800,-0.0778,$GPGGA,170154.100,4041.0445,N,07423.2765,W,1,06,1.21,153.1,M,-34.1,M,,*50
94,0,0.00,0.15,-0.31,-1.06,-0.37,-0.44,-0.9938,-0.0070,0.0787,-0.0778,$GPGGA,170154.200,4041.0448,N,07423.2758,W,1,06,1.21,153.1,M,-34.1,M,,*50
95,0,-0.04,-0.08,-0.12,0.75,-3.06,-0.19,-0.9938,-0.0074,0.0793,-0.0779,$GPGGA,170154.300,4041.0450,N,07423.2752,W,1,06,1.21,153.1,M,-34.1,M,,*52
96,0,-0.18,-0.02,-0.20,0.00,0.00,-0.19,-0.9938,-0.0081,0.0793,-0.0779,$GPGGA,170154.400,4041.0453,N,07423.2746,W,1,06,1.21,153.1,M,-34.1,M,,*53
97,0,-0.41,-0.01,-0.09,0.50,-0.37,0.00,-0.9937,-0.0099,0.0793,-0.0781,$GPGGA,170154.500,4041.0456,N,07423.2741,W,1,06,1.21,153.1,M,-34.1,M,,*50
98,0,-0.51,0.02,0.10,-0.25,-0.62,-0.19,-0.9938,-0.0104,0.0790,-0.0781,$GPGGA,170154.600,4041.0460,N,07423.2734,W,1,06,1.21,153.1,M,-34.1,M,,*54
99,0,-0.30,0.24,0.27,1.37,0.37,-0.13,-0.9938,-0.0110,0.0786,-0.0781,$GPGGA,170154.700,4041.0464,N,07423.2727,W,1,06,1.21,153.0,M,-34.1,M,,*52
100,0,-0.41,-0.48,0.18,-0.25,-0.06,-0.25,-0.9938,-0.0108,0.0784,-0.0781,$GPGGA,170154.800,4041.0469,N,07423.2720,W,1,06,1.21,153.0,M,-34.1,M,,*57
101,0,-0.47,0.07,-0.01,-3.25,0.19,-0.13,-0.9938,-0.0100,0.0782,-0.0781,$GPGGA,170154.900,4041.0473,N,07423.2714,W,1,06,1.21,153.0,M,-34.1,M,,*5A
102,0,-0.64,0.20,0.56,-1.12,0.19,-0.19,-0.9939,-0.0076,0.0779,-0.0779,$GPGGA,170155.000,4041.0477,N,07423.2707,W,1,06,1.21,153.0,M,-34.1,M,,*54
103,1,-0.42,-0.18,0.09,-0.31,0.50,-0.25,-0.9940,-0.0057,0.0770,-0.0777,$GPGGA,170155.100,4041.0482,N,07423.2700,W,1,06,1.21,153.0,M,-34.1,M,,*58
104,0,-0.54,-0.29,-0.70,-0.37,0.56,-0.19,-0.9940,-0.0053,0.0765,-0.0777,$GPGGA,170155.200,4041.0486,N,07423.2692,W,1,06,1.21,153.0,M,-34.1,M,,*55
105,0,-0.45,-0.01,0.01,0.00,0.25,-0.13,-0.9941,-0.0049,0.0750,-0.0776,$GPGGA,170155.300,4041.0490,N,07423.2684,W,1,06,1.21,153.0,M,-34.1,M,,*54
106,0,-0.47,0.00,-0.08,-3.62,-6.37,-0.13,-0.9942,-0.0032,0.0746,-0.0775,$GPGGA,170155.400,4041.0494,N,07423.2677,W,1,06,1.21,152.9,M,-34.1,M,,*53
107,0,-0.55,-0.32,0.19,3.00,-0.31,-0.25,-0.9942,-0.0033,0.0746,-0.0775,$GPGGA,170155.500,4041.0499,N,07423.2670,W,1,06,1.21,152.9,M,-34.1,M,,*58
108,0,-0.43,0.42,-0.14,-0.62,0.88,-0.19,-0.9943,-0.0038,0.0729,-0.0776,$GPGGA,170155.600,4041.0504,N,07423.2663,W,1,06,1.21,152.9,M,-34.1,M,,*5C
109,0,2.07,0.44,-1.75,38.63,-29.44,0.62,-0.9942,-0.0071,0.0735,-0.0780,$GPGGA,170155.700,4041.0509,N,07423.2656,W,1,06,1.21,152.9,M,-34.1,M,,*56
110,0,-0.53,-0.30,0.09,0.37,-1.50,-0.31,-0.9940,-0.0116,0.0754,-0.0783,$GPGGA,170155.800,4041.0514,N,07423.2648,W,1,06,1.21,152.8,M,-34.1,M,,*5B
111,0,-0.02,0.00,-1.60,52.31,-22.00,-0.25,-0.9930,-0.0287,0.0826,-0.0795,$GPGGA,170155.900,4041.0519,N,07423.2641,W,1,06,1.21,152.8,M,-34.1,M,,*5E
112,0,-0.56,0.05,0.01,-4.31,6.19,-0.50,-0.9938,-0.0201,0.0764,-0.0790,$GPGGA,170156.000,4041.0525,N,07423.2633,W,1,06,1.21,152.8,M,-34.1,M,,*5E
113,0,-0.57,-0.22,-0.05,-7.37,2.94,-0.31,-0.9941,-0.0084,0.0741,-0.0779,$GPGGA,170156.100,4041.0536,N,07423.2617,W,1,06,1.21,152.8,M,-34.1,M,,*5B
114,0,-0.69,-0.51,0.52,0.31,2.44,-0.06,-0.9942,-0.0078,0.0739,-0.0779,$GPGGA,170156.200,4041.0545,N,07423.2598,W,1,06,1.21,152.7,M,-34.1,M,,*57
115,0,-0.46,-0.05,-0.17,10.44,-3.50,-0.06,-0.9940,-0.0128,0.0748,-0.0782,$GPGGA,170156.300,4041.0552,N,07423.2579,W,1,06,1.30,152.7,M,-34.1,M,,*5F
116,0,-0.59,0.01,0.13,-1.87,-0.13,-0.13,-0.9941,-0.0161,0.0723,-0.0785,$GPGGA,170156.400,4041.0560,N,07423.2564,W,1,06,1.21,152.7,M,-34.1,M,,*55
117,0,-0.49,-0.10,-0.11,-0.31,-0.19,0.06,-0.9944,-0.0151,0.0697,-0.0784,$GPGGA,170156.500,4041.0567,N,07423.2548,W,1,06,1.21,152.6,M,-34.1,M,,*5C
118,0,-0.39,-0.13,-0.18,0.00,1.50,-0.13,-0.9946,-0.0143,0.0670,-0.0784,$GPGGA,170156.600,4041.0574,N,07423.2534,W,1,06,1.21,152.6,M,-34.1,M,,*56
119,0,-0.42,-0.52,-0.53,1.00,-0.25,-0.19,-0.9947,-0.0142,0.0649,-0.0784,$GPGGA,170156.700,4041.0580,N,07423.2519,W,1,06,1.21,152.6,M,-34.1,M,,*53
120,0,-0.24,0.10,0.12,1.44,-1.00,-0.06,-0.9947,-0.0150,0.0646,-0.0784,$GPGGA,170156.800,4041.0586,N,07423.2505,W,1,06,1.21,152.6,M,-34.1,M,,*57
121,0,-0.41,-0.08,-0.02,2.19,0.19,0.00,-0.9947,-0.0161,0.0649,-0.0786,$GPGGA,170156.900,4041.0592,N,07423.2492,W,1,06,1.29,152.6,M,-34.1,M,,*54
122,0,-0.39,0.30,0.50,1.12,0.50,0.06,-0.9947,-0.0176,0.0638,-0.0787,$GPGGA,170157.000,4041.0598,N,07423.2479,W,1,06,1.30,152.6,M,-34.1,M,,*5B
123,0,0.00,0.07,-0.08,0.75,1.44,-0.31,-0.9948,-0.0192,0.0626,-0.0788,$GPGGA,170157.100,4041.0603,N,07423.2467,W,1,06,1.30,152.6,M,-34.1,M,,*54
124,0,-0.02,-0.05,-0.45,-0.56,0.75,-0.31,-0.9948,-0.0198,0.0618,-0.0789,$GPGGA,170157.200,4041.0609,N,07423.2454,W,1,06,1.30,152.5,M,-34.1,M,,*5E
125,0,-0.24,0.28,0.19,-0.37,-2.50,-0.19,-0.9947,-0.0200,0.0627,-0.0789,$GPGGA,170157.300,4041.0615,N,07423.2442,W,1,06,1.30,152.5,M,-34.1,M,,*55
126,0,-0.05,-0.62,1.24,0.94,-3.56,-0.44,-0.9945,-0.0208,0.0656,-0.0788,$GPGGA,170157.400,4041.0621,N,07423.2431,W,1,06,1.30,152.5,M,-34.1,M,,*51
127,0,-0.44,0.22,0.76,-1.69,0.75,0.00,-0.9944,-0.0204,0.0670,-0.0787,$GPGGA,170157.500,4041.0627,N,07423.2419,W,1,06,1.21,152.5,M,-34.1,M,,*5C
128,0,-0.39,0.06,0.03,-2.00,0.13,-0.19,-0.9944,-0.0199,0.0669,-0.0787,$GPGGA,170157.600,4041.0634,N,07423.2408,W,1,06,1.21,152.5,M,-34.1,M,,*5D
129,0,-0.11,-0.01,-0.14,-1.12,-0.44,-0.19,-0.9945,-0.0189,0.0664,-0.0786,$GPGGA,170157.700,4041.0640,N,07423.2397,W,1,06,1.21,152.5,M,-34.1,M,,*5E
130,0,-0.21,-0.26,0.12,-1.81,0.00,-0.31,-0.9946,-0.0176,0.0663,-0.0784,$GPGGA,170157.800,4041.0646,N,07423.2386,W,1,06,1.21,152.4,M,-34.1,M,,*56
131,0,-0.55,-0.08,0.35,-0.44,-1.37,-0.19,-0.9946,-0.0168,0.0666,-0.0784,$GPGGA,170157.900,4041.0652,N,07423.2374,W,1,06,1.21,152.4,M,-34.1,M,,*5F
132,0,-0.27,-0.42,0.75,-0.37,-2.12,-0.25,-0.9944,-0.0162,0.0680,-0.0784,$GPGGA,170158.000,4041.0658,N,07423.2364,W,1,06,1.30,152.4,M,-34.1,M,,*52
133,0,-0.15,0.32,-0.03,-2.00,-0.44,-0.37,-0.9944,-0.0153,0.0685,-0.0783,$GPGGA,170158.100,4041.0664,N,07423.2353,W,1,06,1.30,152.4,M,-34.1,M,,*58
134,0,-0.43,0.11,-0.53,-1.00,2.00,-0.44,-0.9946,-0.0129,0.0676,-0.0781,$GPGGA,170158.200,4041.0670,N,07423.2342,W,1,06,1.30,152.4,M,-34.1,M,,*5E
135,0,-0.53,-0.39,-1.35,-3.19,1.94,-0.69,-0.9948,-0.0113,0.0655,-0.0780,$GPGGA,170158.300,4041.0676,N,07423.2331,W,1,06,1.30,152.4,M,-34.1,M,,*5D
136,0,-0.53,-0.47,-0.68,3.06,1.00,-0.56,-0.9948,-0.0114,0.0641,-0.0780,$GPGGA,170158.400,4041.0682,N,07423.2321,W,1,06,1.30,152.4,M,-34.1,M,,*50
137,0,-0.52,-0.02,-0.36,2.75,-1.25,-0.25,-0.9948,-0.0122,0.0639,-0.0781,$GPGGA,170158.500,4041.0688,N,07423.2310,W,1,06,1.21,152.3,M,-34.1,M,,*5E
138,0,-0.56,-0.04,0.79,4.06,-2.87,-0.13,-0.9946,-0.0161,0.0656,-0.0783,$GPGGA,170158.600,4041.0694,N,07423.2300,W,1,06,1.21,152.3,M,-34.1,M,,*51
139,0,-0.91,0.00,0.91,2.06,-1.25,-0.50,-0.9946,-0.0186,0.0663,-0.0784,$GPGGA,170158.700,4041.0700,N,07423.2289,W,1,06,1.21,152.3,M,-34.1,M,,*5C
140,0,-0.46,-0.14,-0.08,-0.50,-1.56,-0.69,-0.9946,-0.0191,0.0664,-0.0781,$GPGGA,170158.800,4041.0706,N,07423.2278,W,1,06,1.21,152.3,M,-34.1,M,,*5B
141,0,-0.41,0.14,0.04,-0.88,0.13,-0.81,-0.9946,-0.0185,0.0662,-0.0773,$GPGGA,170158.900,4041.0712,N,07423.2267,W,1,06,1.30,152.3,M,-34.1,M,,*51
142,0,-0.55,-0.87,-0.01,-0.06,0.69,-0.69,-0.9948,-0.0173,0.0646,-0.0767,$GPGGA,170159.000,4041.0718,N,07423.2256,W,1,06,1.30,152.3,M,-34.1,M,,*51
143,0,-0.59,0.24,-0.24,0.44,1.00,-0.56,-0.9949,-0.0171,0.0633,-0.0766,$GPGGA,170159.100,4041.0724,N,07423.2246,W,1,06,1.30,152.3,M,-34.1,M,,*5E
144,0,-0.45,-0.27,-0.66,-0.69,-0.31,-0.62,-0.9952,-0.0159,0.0596,-0.0764,$GPGGA,170159.200,4041.0730,N,07423.2235,W,1,06,1.29,152.3,M,-34.1,M,,*54
145,0,-0.23,-0.38,0.57,-2.12,-0.44,-0.62,-0.9952,-0.0154,0.0601,-0.0757,$GPGGA,170159.300,4041.0737,N,07423.2224,W,1,06,1.30,152.3,M,-34.1,M,,*5A
146,0,-0.02,0.21,0.43,-0.94,0.06,-0.56,-0.9952,-0.0146,0.0602,-0.0752,$GPGGA,170159.400,4041.0743,N,07423.2213,W,1,06,1.30,152.2,M,-34.1,M,,*5B
147,0,-0.06,-0.33,-0.82,0.50,-0.19,-0.88,-0.9953,-0.0141,0.0599,-0.0746,$GPGGA,170159.500,4041.0749,N,07423.2202,W,1,06,1.21,152.2,M,-34.1,M,,*50
148,0,-0.51,-0.61,-0.51,-0.31,-0.25,-0.56,-0.9954,-0.0140,0.0599,-0.0744,$GPGGA,170159.600,4041.0756,N,07423.2191,W,1,06,1.21,152.2,M,-34.1,M,,*54
149,0,-0.22,-0.41,-0.23,1.44,0.94,-0.56,-0.9954,-0.0151,0.0597,-0.0743,$GPGGA,170159.700,4041.0762,N,07423.2180,W,1,06,1.21,152.2,M,-34.1,M,,*52
150,0,-0.17,0.00,-0.29,2.50,-0.19,-0.62,-0.9953,-0.0167,0.0596,-0.0741,$GPGGA,170159.800,4041.0769,N,07423.2169,W,1,06,1.21,152.2,M,-34.1,M,,*51
151,0,0.06,0.01,-0.15,1.19,-1.31,-0.50,-0.9953,-0.0179,0.0601,-0.0740,$GPGGA,170159.900,4041.0782,N,07423.2154,W,1,06,1.21,152.1,M,-34.1,M,,*58
152,0,-0.06,-0.08,0.35,-0.13,0.13,-0.69,-0.9953,-0.0182,0.0603,-0.0737,$GPGGA,170200.000,4041.0790,N,07423.2141,W,1,06,1.30,152.1,M,-34.1,M,,*59
153,0,-0.06,-0.24,0.00,-1.37,0.62,-0.75,-0.9954,-0.0178,0.0599,-0.0733,$GPGGA,170200.100,4041.0798,N,07423.2129,W,1,06,1.30,152.1,M,-34.1,M,,*5E
154,0,-0.20,-0.26,0.09,-1.06,0.50,-0.69,-0.9954,-0.0172,0.0597,-0.0728,$GPGGA,170200.200,4041.0805,N,07423.2118,W,1,06,1.30,152.1,M,-34.1,M,,*54
155,0,-0.42,0.20,-0.22,-0.50,0.56,-0.44,-0.9955,-0.0163,0.0586,-0.0727,$GPGGA,170200.300,4041.0812,N,07423.2106,W,1,06,1.30,152.0,M,-34.1,M,,*5D
156,0,-0.30,-0.04,0.23,-0.75,0.88,-0.19,-0.9955,-0.0156,0.0577,-0.0727,$GPGGA,170200.400,4041.0819,N,07423.2094,W,1,06,1.30,152.0,M,-34.1,M,,*5B
157,0,-0.57,-0.13,-0.80,0.06,0.06,-0.25,-0.9956,-0.0152,0.0574,-0.0727,$GPGGA,170200.500,4041.0826,N,07423.2083,W,1,06,1.21,152.0,M,-34.1,M,,*50
158,0,-0.50,-0.34,-0.04,1.31,-0.69,-0.25,-0.9955,-0.0157,0.0577,-0.0727,$GPGGA,170200.600,4041.0832,N,07423.2072,W,1,06,1.30,151.9,M,-34.1,M,,*52
159,0,-0.02,-0.08,-0.50,1.50,0.13,0.06,-0.9956,-0.0159,0.0572,-0.0728,$GPGGA,170200.700,4041.0839,N,07423.2061,W,1,06,1.30,151.9,M,-34.1,M,,*5A
160,0,-0.18,-0.13,0.03,1.87,0.19,0.25,-0.9956,-0.0173,0.0568,-0.0728,$GPGGA,170200.800,4041.0845,N,07423.2050,W,1,06,1.30,151.9,M,-34.1,M,,*5C
161,0,-0.01,0.34,-0.25,2.19,-0.25,0.37,-0.9955,-0.0187,0.0563,-0.0729,$GPGGA,170200.900,4041.0852,N,07423.2038,W,1,06,1.30,151.9,M,-34.1,M,,*55
162,0,-0.09,0.23,-0.18,0.50,0.37,0.31,-0.9955,-0.0203,0.0558,-0.0729,$GPGGA,170201.000,4041.0858,N,07423.2027,W,1,06,1.30,151.9,M,-34.1,M,,*59
163,0,-0.22,0.21,-0.21,-1.44,0.50,0.37,-0.9956,-0.0200,0.0556,-0.0729,$GPGGA,170201.100,4041.0865,N,07423.2016,W,1,06,1.30,151.8,M,-34.1,M,,*55
164,0,-0.61,0.22,0.10,-2.06,-0.25,0.19,-0.9956,-0.0187,0.0557,-0.0728,$GPGGA,170201.200,4041.0871,N,07423.2004,W,1,06,1.30,151.8,M,-34.1,M,,*50
165,0,-0.52,0.32,0.04,-0.88,-0.62,0.37,-0.9956,-0.0179,0.0560,-0.0728,$GPGGA,170201.300,4041.0878,N,07423.1993,W,1,06,1.30,151.8,M,-34.1,M,,*5C
166,0,-0.26,-0.03,0.03,0.88,-0.25,0.62,-0.9956,-0.0172,0.0560,-0.0728,$GPGGA,170201.400,4041.0884,N,07423.1981,W,1,06,1.30,151.7,M,-34.2,M,,*57
167,0,-0.27,-0.21,0.03,1.12,0.62,0.37,-0.9956,-0.0178,0.0555,-0.0729,$GPGGA,170201.500,4041.0890,N,07423.1970,W,1,06,1.21,151.7,M,-34.2,M,,*5D
168,0,-0.03,0.04,-0.74,0.37,0.31,0.31,-0.9957,-0.0178,0.0554,-0.0729,$GPGGA,170201.600,4041.0897,N,07423.1958,W,1,06,1.21,151.6,M,-34.2,M,,*52
169,0,-0.05,-0.58,-0.38,0.19,0.00,0.13,-0.9957,-0.0181,0.0547,-0.0729,$GPGGA,170201.700,4041.0903,N,07423.1946,W,1,06,1.30,151.6,M,-34.2,M,,*50
170,0,-0.15,-0.14,-0.32,0.25,0.50,0.13,-0.9957,-0.0182,0.0545,-0.0729,$GPGGA,170201.800,4041.0909,N,07423.1935,W,1,06,1.30,151.6,M,-34.2,M,,*51
171,0,-0.28,0.63,0.15,0.37,1.12,0.25,-0.9957,-0.0183,0.0541,-0.0729,$GPGGA,170201.900,4041.0915,N,07423.1923,W,1,06,1.30,151.5,M,-34.2,M,,*59
172,0,0.06,0.01,0.34,0.94,0.19,0.31,-0.9957,-0.0185,0.0531,-0.0730,$GPGGA,170202.000,4041.0921,N,07423.1911,W,1,06,1.30,151.5,M,-34.2,M,,*55
173,0,0.00,0.25,0.07,-10.69,2.44,0.37,-0.9958,-0.0151,0.0524,-0.0729,$GPGGA,170202.100,4041.0927,N,07423.1899,W,1,06,1.30,151.5,M,-34.2,M,,*53
174,0,0.01,-0.15,-0.28,-2.06,-0.19,-0.19,-0.9960,-0.0110,0.0518,-0.0727,$GPGGA,170202.200,4041.0933,N,07423.1887,W,1,06,1.30,151.4,M,-34.2,M,,*5B
175,0,0.00,-0.01,0.58,-3.75,0.69,-0.06,-0.9960,-0.0088,0.0518,-0.0726,$GPGGA,170202.300,4041.0939,N,07423.1876,W,1,06,1.30,151.4,M,-34.2,M,,*5E
176,0,-0.16,-0.26,-0.04,-1.75,1.12,0.13,-0.9960,-0.0059,0.0508,-0.0724,$GPGGA,170202.400,4041.0946,N,07423.1864,W,1,06,1.30,151.3,M,-34.2,M,,*55
177,0,-0.40,0.00,0.33,-0.31,-0.81,0.31,-0.9962,-0.0034,0.0490,-0.0724,$GPGGA,170202.500,4041.0952,N,07423.1852,W,1,06,1.21,151.3,M,-34.2,M,,*54
178,0,-0.32,0.40,0.30,-0.62,-0.50,0.37,-0.9961,-0.0037,0.0496,-0.0726,$GPGGA,170202.600,4041.0958,N,07423.1840,W,1,06,1.21,151.3,M,-34.2,M,,*5E
179,0,-0.13,-0.10,0.07,-0.50,0.50,0.00,-0.9961,-0.0037,0.0497,-0.0726,$GPGGA,170202.700,4041.0964,N,07423.1829,W,1,06,1.30,151.2,M,-34.2,M,,*5E
180,0,-0.33,0.00,-0.39,0.06,1.56,0.06,-0.9962,-0.0035,0.0486,-0.0726,$GPGGA,170202.800,4041.0971,N,07423.1817,W,1,06,1.30,151.2,M,-34.2,M,,*58
181,0,-0.40,0.03,-0.45,0.88,2.06,0.06,-0.9963,-0.0033,0.0464,-0.0726,$GPGGA,170202.900,4041.0977,N,07423.1805,W,1,06,1.30,151.1,M,-34.2,M,,*5F
182,0,-0.49,0.47,-0.30,0.31,1.31,0.25,-0.9963,-0.0034,0.0452,-0.0728,$GPGGA,170203.000,4041.0984,N,07423.1793,W,1,06,1.30,151.1,M,-34.2,M,,*5B
183,0,-0.37,-0.01,0.00,0.50,0.19,-0.06,-0.9963,-0.0034,0.0446,-0.0728,$GPGGA,170203.100,4041.0990,N,07423.1781,W,1,06,1.29,151.1,M,-34.2,M,,*54
184,0,-0.49,0.08,0.30,-2.00,0.44,-0.19,-0.9964,-0.0029,0.0433,-0.0728,$GPGGA,170203.200,4041.0996,N,07423.1769,W,1,06,1.30,151.1,M,-34.2,M,,*5F
185,0,-0.37,0.05,0.02,-2.00,0.44,-0.19,-0.9965,-0.0017,0.0420,-0.0727,$GPGGA,170203.300,4041.1002,N,07423.1757,W,1,06,1.30,151.0,M,-34.2,M,,*57
186,0,-0.64,0.59,-0.17,-1.87,0.94,-0.13,-0.9965,0.0002,0.0406,-0.0726,$GPGGA,170203.400,4041.1008,N,07423.1745,W,1,06,1.30,150.9,M,-34.2,M,,*51
187,0,-0.40,-0.12,-0.42,-1.37,-0.19,-0.06,-0.9965,0.0017,0.0407,-0.0726,$GPGGA,170203.500,4041.1015,N,07423.1733,W,1,06,1.21,150.9,M,-34.2,M,,*5D
188,0,-0.46,-0.16,-0.22,-1.69,0.44,0.13,-0.9966,0.0032,0.0388,-0.0725,$GPGGA,170203.600,4041.1021,N,07423.1721,W,1,06,1.30,150.9,M,-34.2,M,,*5A
189,0,-0.79,0.07,0.12,-0.25,0.94,0.13,-0.9967,0.0040,0.0366,-0.0725,$GPGGA,170203.700,4041.1027,N,07423.1709,W,1,06,1.30,150.8,M,-34.2,M,,*56
190,0,-1.02,-0.11,0.45,0.94,-0.25,0.06,-0.9968,0.0041,0.0342,-0.0726,$GPGGA,170203.800,4041.1034,N,07423.1697,W,1,06,1.29,150.8,M,-34.2,M,,*55
191,0,-0.69,0.43,0.00,0.62,-0.94,0.50,-0.9968,0.0038,0.0349,-0.0726,$GPGGA,170203.900,4041.1040,N,07423.1686,W,1,06,1.30,150.8,M,-34.2,M,,*5F
192,0,-0.61,0.31,0.16,-0.13,0.81,0.81,-0.9967,0.0037,0.0349,-0.0729,$GPGGA,170204.000,4041.1047,N,07423.1674,W,1,06,1.30,150.8,M,-34.2,M,,*5B
193,0,-0.47,0.97,-0.39,0.00,1.87,1.25,-0.9967,0.0040,0.0336,-0.0738,$GPGGA,170204.100,4041.1053,N,07423.1662,W,1,06,1.30,150.7,M,-34.2,M,,*57
194,0,-0.46,0.51,-0.26,-0.25,1.25,1.31,-0.9968,0.0020,0.0292,-0.0749,$GPGGA,170204.200,4041.1059,N,07423.1651,W,1,06,1.30,150.7,M,-34.2,M,,*5E
195,0,-0.22,0.52,-0.67,-0.37,0.69,1.56,-0.9967,0.0010,0.0272,-0.0761,$GPGGA,170204.300,4041.1066,N,07423.1639,W,1,06,1.30,150.7,M,-34.2,M,,*5D
196,0,-0.29,0.48,-0.06,-0.62,-0.75,1.44,-0.9967,0.0000,0.0255,-0.0772,$GPGGA,170204.400,4041.1072,N,07423.1627,W,1,06,1.30,150.7,M,-34.2,M,,*50
197,0,-0.46,0.86,0.46,-1.25,-0.37,1.25,-0.9966,0.0013,0.0259,-0.0782,$GPGGA,170204.500,4041.1079,N,07423.1616,W,1,06,1.21,150.6,M,-34.2,M,,*59
198,0,-0.18,0.23,0.10,-0.62,-0.06,1.19,-0.9965,0.0011,0.0248,-0.0792,$GPGGA,170204.600,4041.1085,N,07423.1604,W,1,06,1.21,150.6,M,-34.2,M,,*5A
199,0,-0.17,0.47,-1.07,-0.69,1.00,1.31,-0.9965,0.0013,0.0242,-0.0802,$GPGGA,170204.700,4041.1092,N,07423.1592,W,1,06,1.30,150.6,M,-34.2,M,,*51
200,0,0.01,0.27,-0.41,-0.37,0.19,1.25,-0.9964,0.0012,0.0235,-0.0813,$GPGGA,170204.800,4041.1098,N,07423.1581,W,1,06,1.30,150.6,M,-34.2,M,,*56
201,0,-0.23,0.34,-0.30,-0.25,0.06,1.12,-0.9963,0.0008,0.0233,-0.0823,$GPGGA,170204.900,4041.1104,N,07423.1569,W,1,06,1.30,150.6,M,-34.2,M,,*55
202,0,0.13,0.29,-0.41,-0.69,0.44,1.25,-0.9963,0.0003,0.0227,-0.0834,$GPGGA,170205.000,4041.1111,N,07423.1558,W,1,06,1.30,150.6,M,-34.2,M,,*5B
203,0,-0.28,0.61,-0.96,-0.94,2.25,1.31,-0.9962,0.0008,0.0212,-0.0844,$GPGGA,170205.100,4041.1118,N,07423.1546,W,1,06,1.30,150.5,M,-34.2,M,,*5F
204,0,0.00,0.47,-0.47,0.37,0.75,0.94,-0.9962,0.0011,0.0195,-0.0853,$GPGGA,170205.200,4041.1124,N,07423.1534,W,1,06,1.30,150.5,M,-34.2,M,,*56
205,0,-0.29,0.21,0.29,-0.62,-0.06,1.19,-0.9961,0.0017,0.0195,-0.0862,$GPGGA,170205.300,4041.1131,N,07423.1522,W,1,06,1.30,150.5,M,-34.2,M,,*54
206,0,-0.16,-0.09,0.37,-0.50,-1.12,1.31,-0.9960,0.0012,0.0192,-0.0873,$GPGGA,170205.400,4041.1137,N,07423.1510,W,1,06,1.30,150.5,M,-34.2,M,,*54
207,0,-0.47,-0.11,0.36,0.06,0.06,1.37,-0.9959,0.0006,0.0184,-0.0884,$GPGGA,170205.500,4041.1144,N,07423.1499,W,1,06,1.21,150.4,M,-34.2,M,,*50
208,0,-0.23,0.40,-0.59,1.62,1.19,1.19,-0.9958,0.0003,0.0174,-0.0894,$GPGGA,170205.600,4041.1150,N,07423.1487,W,1,06,1.21,150.4,M,-34.2,M,,*59
209,0,-0.35,0.06,-0.25,0.19,2.12,1.19,-0.9958,-0.0004,0.0159,-0.0905,$GPGGA,170205.700,4041.1157,N,07423.1475,W,1,06,1.30,150.4,M,-34.2,M,,*52
210,0,-0.23,-0.03,-0.40,1.25,0.50,1.12,-0.9957,-0.0011,0.0142,-0.0915,$GPGGA,170205.800,4041.1163,N,07423.1464,W,1,06,1.21,150.4,M,-34.2,M,,*5A
211,0,-0.50,0.42,0.32,0.31,0.00,1.19,-0.9956,-0.0016,0.0138,-0.0925,$GPGGA,170205.900,4041.1170,N,07423.1452,W,1,06,1.21,150.4,M,-34.2,M,,*5C
212,0,-0.44,0.16,-0.40,0.50,0.44,1.00,-0.9955,-0.0018,0.0137,-0.0934,$GPGGA,170206.000,4041.1176,N,07423.1440,W,1,06,1.30,150.4,M,-34.2,M,,*53
213,0,-0.59,0.16,0.29,-0.94,0.19,1.31,-0.9954,-0.0018,0.0130,-0.0945,$GPGGA,170206.100,4041.1183,N,07423.1428,W,1,06,1.30,150.4,M,-34.2,M,,*56
214,0,-0.37,0.02,-0.39,-0.06,0.13,1.06,-0.9954,-0.0018,0.0128,-0.0955,$GPGGA,170206.200,4041.1190,N,07423.1416,W,1,06,1.30,150.4,M,-34.2,M,,*5A
215,0,-0.64,0.07,0.04,-1.25,1.00,1.25,-0.9952,-0.0018,0.0123,-0.0964,$GPGGA,170206.300,4041.1197,N,07423.1404,W,1,06,1.30,150.3,M,-34.2,M,,*58
216,0,-0.22,0.11,-0.79,-1.12,0.81,1.12,-0.9952,-0.0008,0.0109,-0.0975,$GPGGA,170206.400,4041.1204,N,07423.1393,W,1,06,1.30,150.3,M,-34.2,M,,*5F
217,0,-0.30,0.22,-0.64,-1.44,0.50,0.81,-0.9951,0.0009,0.0106,-0.0983,$GPGGA,170206.500,4041.1211,N,07423.1381,W,1,06,1.21,150.3,M,-34.2,M,,*59
218,0,-0.17,-0.06,-0.44,0.31,0.62,0.75,-0.9951,0.0013,0.0098,-0.0991,$GPGGA,170206.600,4041.1217,N,07423.1369,W,1,06,1.21,150.3,M,-34.2,M,,*5A
219,0,-0.58,-0.61,0.21,0.56,1.31,1.06,-0.9949,0.0015,0.0087,-0.1000,$GPGGA,170206.700,4041.1224,N,07423.1358,W,1,06,1.30,150.2,M,-34.2,M,,*58
220,0,-0.64,0.13,-0.10,2.06,-0.69,0.81,-0.9949,-0.0003,0.0084,-0.1008,$GPGGA,170206.800,4041.1231,N,07423.1346,W,1,06,1.30,150.2,M,-34.2,M,,*5C
221,0,0.02,-0.03,-0.45,4.56,-1.87,0.44,-0.9948,-0.0035,0.0093,-0.1010,$GPGGA,170206.900,4041.1237,N,07423.1334,W,1,06,1.30,150.2,M,-34.2,M,,*5E
222,0,-0.44,-0.12,-0.31,0.25,3.50,0.50,-0.9948,-0.0038,0.0079,-0.1013,$GPGGA,170207.000,4041.1244,N,07423.1322,W,1,06,1.30,150.2,M,-34.2,M,,*55
223,0,-0.66,-0.19,-1.02,-1.87,2.25,0.13,-0.9948,-0.0029,0.0050,-0.1013,$GPGGA,170207.100,4041.1250,N,07423.1311,W,1,06,1.30,150.2,M,-34.2,M,,*51
224,0,-0.76,-0.28,0.64,-2.62,-0.88,-0.31,-0.9948,-0.0016,0.0053,-0.1013,$GPGGA,170207.200,4041.1257,N,07423.1299,W,1,06,1.30,150.2,M,-34.2,M,,*54
225,0,-0.53,-0.85,1.02,-1.00,1.94,0.19,-0.9949,-0.0004,0.0054,-0.1013,$GPGGA,170207.300,4041.1263,N,07423.1287,W,1,06,1.30,150.2,M,-34.2,M,,*5D
226,0,-0.48,0.08,0.57,3.37,4.75,0.62,-0.9949,-0.0019,0.0020,-0.1014,$GPGGA,170207.400,4041.1270,N,07423.1276,W,1,06,1.30,150.2,M,-34.2,M,,*56
227,0,-0.38,-1.29,0.00,5.44,-4.50,0.25,-0.9948,-0.0049,0.0023,-0.1014,$GPGGA,170207.500,4041.1276,N,07423.1264,W,1,06,1.21,150.2,M,-34.2,M,,*52
228,0,-0.33,-0.28,1.87,0.56,-5.56,0.62,-0.9948,-0.0084,0.0077,-0.1015,$GPGGA,170207.600,4041.1283,N,07423.1252,W,1,06,1.21,150.2,M,-34.2,M,,*5E
229,0,-0.47,-0.07,0.20,0.50,2.06,0.37,-0.9948,-0.0097,0.0079,-0.1016,$GPGGA,170207.700,4041.1289,N,07423.1241,W,1,06,1.21,150.2,M,-34.2,M,,*57
230,0,-0.51,0.18,-1.45,0.56,3.25,0.31,-0.9948,-0.0095,0.0051,-0.1016,$GPGGA,170207.800,4041.1296,N,07423.1229,W,1,06,1.30,150.2,M,-34.2,M,,*58
231,0,-0.56,-0.07,-0.43,-1.44,2.12,0.37,-0.9948,-0.0088,0.0031,-0.1016,$GPGGA,170207.900,4041.1303,N,07423.1218,W,1,06,1.30,150.1,M,-34.2,M,,*55
232,0,-0.45,-0.10,-0.03,-1.37,0.88,0.50,-0.9948,-0.0081,0.0018,-0.1016,$GPGGA,170208.000,4041.1310,N,07423.1206,W,1,06,1.30,150.1,M,-34.2,M,,*5E
233,0,-0.38,-0.11,0.12,0.50,-0.13,0.62,-0.9948,-0.0076,0.0019,-0.1017,$GPGGA,170208.100,4041.1317,N,07423.1195,W,1,06,1.30,150.1,M,-34.2,M,,*51
234,0,-0.39,-0.01,-0.24,-0.19,2.19,0.94,-0.9948,-0.0073,0.0004,-0.1021,$GPGGA,170208.200,4041.1323,N,07423.1183,W,1,06,1.30,150.1,M,-34.2,M,,*52
235,0,-0.51,0.28,-0.31,1.62,0.75,0.69,-0.9947,-0.0076,-0.0019,-0.1028,$GPGGA,170208.300,4041.1331,N,07423.1172,W,1,06,1.30,150.1,M,-34.2,M,,*5E
236,0,-0.34,-0.05,0.50,0.69,-2.94,0.62,-0.9946,-0.0079,-0.0007,-0.1035,$GPGGA,170208.400,4041.1338,N,07423.1160,W,1,06,1.30,150.1,M,-34.2,M,,*53
237,0,-0.24,0.10,0.01,-0.88,-2.12,0.81,-0.9945,-0.0087,0.0015,-0.1041,$GPGGA,170208.500,4041.1344,N,07423.1149,W,1,06,1.21,150.1,M,-34.2,M,,*52
238,0,-0.38,0.20,0.22,-0.06,1.31,1.19,-0.9944,-0.0085,0.0013,-0.1049,$GPGGA,170208.600,4041.1351,N,07423.1138,W,1,06,1.21,150.1,M,-34.2,M,,*53
239,0,-0.72,0.33,-0.19,-0.75,0.31,0.69,-0.9944,-0.0082,0.0004,-0.1056,$GPGGA,170208.700,4041.1358,N,07423.1126,W,1,06,1.21,150.1,M,-34.2,M,,*54
240,0,-0.39,-0.35,-0.42,-0.19,0.75,0.81,-0.9943,-0.0078,-0.0002,-0.1062,$GPGGA,170208.800,4041.1365,N,07423.1115,W,1,06,1.21,150.1,M,-34.2,M,,*55
241,0,-0.73,0.12,-0.42,0.06,1.81,1.06,-0.9942,-0.0074,-0.0016,-0.1070,$GPGGA,170208.900,4041.1372,N,07423.1103,W,1,06,1.21,150.1,M,-34.2,M,,*55
242,0,-0.47,-0.15,-0.07,1.12,-0.88,0.94,-0.9941,-0.0084,-0.0017,-0.1078,$GPGGA,170209.000,4041.1379,N,07423.1092,W,1,06,1.30,150.0,M,-34.2,M,,*5E
243,0,-0.75,0.41,0.30,1.00,-0.88,1.25,-0.9940,-0.0094,-0.0012,-0.1088,$GPGGA,170209.100,4041.1386,N,07423.1081,W,1,06,1.30,150.0,M,-34.2,M,,*5D
244,0,-0.36,0.22,-0.19,1.56,0.06,1.25,-0.9939,-0.0109,-0.0010,-0.1099,$GPGGA,170209.200,4041.1393,N,07423.1070,W,1,06,1.30,150.0,M,-34.2,M,,*54
245,0,-0.54,0.47,-0.34,1.56,0.44,1.37,-0.9937,-0.0123,-0.0016,-0.1110,$GPGGA,170209.300,4041.1400,N,07423.1059,W,1,06,1.30,150.0,M,-34.2,M,,*53
246,0,-0.66,-0.37,0.39,1.31,-0.50,1.31,-0.9936,-0.0137,-0.0017,-0.1121,$GPGGA,170209.400,4041.1407,N,07423.1047,W,1,06,1.30,150.0,M,-34.2,M,,*5C
247,0,-0.96,0.00,0.22,-0.06,-0.50,1.19,-0.9935,-0.0142,-0.0012,-0.1131,$GPGGA,170209.500,4041.1414,N,07423.1036,W,1,06,1.21,150.0,M,-34.2,M,,*59
248,0,-0.52,0.72,-0.26,-0.25,0.50,1.06,-0.9933,-0.0139,-0.0011,-0.1141,$GPGGA,170209.600,4041.1421,N,07423.1025,W,1,06,1.21,150.0,M,-34.2,M,,*5E
249,0,-0.51,-0.10,-0.29,-0.88,1.25,0.94,-0.9933,-0.0132,-0.0018,-0.1151,$GPGGA,170209.700,4041.1428,N,07423.1013,W,1,06,1.21,150.0,M,-34.2,M,,*53
250,0,-0.52,0.25,-0.21,-1.00,0.31,1.00,-0.9932,-0.0126,-0.0023,-0.1159,$GPGGA,170209.800,4041.1435,N,07423.1002,W,1,06,1.30,150.0,M,-34.2,M,,*50
251,0,-0.34,0.10,0.45,-0.62,-1.12,1.19,-0.9931,-0.0123,-0.0024,-0.1168,$GPGGA,170209.900,4041.1441,N,07423.0991,W,1,06,1.30,150.0,M,-34.2,M,,*50
252,0,-0.51,0.40,0.08,-0.75,0.81,1.37,-0.9929,-0.0122,-0.0025,-0.1179,$GPGGA,170210.000,4041.1448,N,07423.0980,W,1,06,1.30,150.0,M,-34.2,M,,*58
253,0,-0.36,0.11,-0.91,0.31,2.12,1.50,-0.9928,-0.0123,-0.0039,-0.1191,$GPGGA,170210.100,4041.1455,N,07423.0969,W,1,06,1.30,150.0,M,-34.2,M,,*52
254,0,-0.19,-0.15,0.13,0.31,1.44,1.37,-0.9926,-0.0126,-0.0052,-0.1204,$GPGGA,170210.200,4041.1462,N,07423.0957,W,1,06,1.30,150.0,M,-34.2,M,,*58
255,0,-0.19,-0.06,-0.55,-0.75,0.75,1.44,-0.9925,-0.0126,-0.0063,-0.1217,$GPGGA,170210.300,4041.1469,N,07423.0946,W,1,06,1.30,150.0,M,-34.2,M,,*52
256,0,-0.28,0.00,0.20,-1.19,0.25,1.31,-0.9923,-0.0120,-0.0065,-0.1229,$GPGGA,170210.400,4041.1476,N,07423.0935,W,1,06,1.30,149.9,M,-34.2,M,,*5E
257,0,-0.22,0.08,-0.18,0.56,-1.69,1.19,-0.9922,-0.0122,-0.0068,-0.1240,$GPGGA,170210.500,4041.1483,N,07423.0924,W,1,06,1.21,149.9,M,-34.2,M,,*55
258,0,0.03,-0.11,0.42,1.37,-1.25,2.00,-0.9920,-0.0134,-0.0054,-0.1253,$GPGGA,170210.600,4041.1490,N,07423.0913,W,1,06,1.21,149.9,M,-34.2,M,,*50
259,0,-0.22,0.33,-0.07,1.75,-0.44,2.19,-0.9918,-0.0149,-0.0049,-0.1271,$GPGGA,170210.700,4041.1497,N,07423.0903,W,1,06,1.21,149.9,M,-34.2,M,,*57
260,0,-0.12,0.41,-0.36,-0.56,-0.13,1.81,-0.9915,-0.0167,-0.0057,-0.1288,$GPGGA,170210.800,4041.1504,N,07423.0892,W,1,06,1.30,149.9,M,-34.2,M,,*5A
261,0,0.00,0.64,0.16,-0.69,-0.06,1.62,-0.9913,-0.0187,-0.0072,-0.1302,$GPGGA,170210.900,4041.1512,N,07423.0881,W,1,06,1.30,149.9,M,-34.2,M,,*5E
262,0,-0.37,0.08,0.74,-0.25,-2.44,1.69,-0.9911,-0.0184,-0.0060,-0.1315,$GPGGA,170211.000,4041.1519,N,07423.0870,W,1,06,1.30,149.8,M,-34.2,M,,*52
263,0,-0.08,0.06,0.47,0.25,-1.31,1.69,-0.9910,-0.0184,-0.0045,-0.1328,$GPGGA,170211.100,4041.1526,N,07423.0860,W,1,06,1.30,149.8,M,-34.2,M,,*5E
264,0,-0.34,0.33,0.08,0.75,1.44,1.31,-0.9908,-0.0189,-0.0051,-0.1341,$GPGGA,170211.200,4041.1534,N,07423.0849,W,1,06,1.30,149.8,M,-34.2,M,,*55
265,0,-0.26,0.17,-0.33,0.00,0.25,1.00,-0.9907,-0.0193,-0.0059,-0.1350,$GPGGA,170211.300,4041.1541,N,07423.0838,W,1,06,1.30,149.8,M,-34.2,M,,*50
266,0,-0.14,0.07,0.30,-2.12,-1.19,0.81,-0.9905,-0.0181,-0.0057,-0.1357,$GPGGA,170211.400,4041.1549,N,07423.0827,W,1,06,1.30,149.7,M,-34.2,M,,*5E
267,0,-0.31,0.04,0.77,-3.81,-2.25,0.25,-0.9906,-0.0153,-0.0036,-0.1359,$GPGGA,170211.500,4041.1556,N,07423.0817,W,1,06,1.21,149.7,M,-34.2,M,,*52
268,0,-0.30,-0.42,0.80,-3.19,-1.12,0.06,-0.9907,-0.0126,-0.0022,-0.1359,$GPGGA,170211.600,4041.1563,N,07423.0806,W,1,06,1.30,149.7,M,-34.2,M,,*57
269,0,0.01,-1.23,0.14,0.44,-0.06,0.37,-0.9907,-0.0121,-0.0016,-0.1359,$GPGGA,170211.700,4041.1570,N,07423.0795,W,1,06,1.21,149.6,M,-34.2,M,,*50
270,0,-0.36,-0.50,-0.87,2.56,1.81,0.75,-0.9905,-0.0132,-0.0028,-0.1364,$GPGGA,170211.800,4041.1578,N,07423.0784,W,1,06,1.30,149.6,M,-34.2,M,,*57
271,0,-0.10,-0.60,-0.46,2.12,1.12,0.44,-0.9904,-0.0154,-0.0043,-0.1370,$GPGGA,170211.900,4041.1585,N,07423.0774,W,1,06,1.30,149.6,M,-34.2,M,,*5B
272,0,-0.13,-0.18,0.06,2.19,-0.13,0.31,-0.9904,-0.0168,-0.0049,-0.1370,$GPGGA,170212.000,4041.1592,N,07423.0763,W,1,06,1.30,149.6,M,-34.2,M,,*51
273,0,-0.50,0.20,0.47,0.75,-1.06,0.25,-0.9904,-0.0175,-0.0046,-0.1370,$GPGGA,170212.100,4041.1600,N,07423.0753,W,1,06,1.30,149.5,M,-34.2,M,,*58
274,0,-0.12,-0.44,0.92,1.75,-2.12,0.31,-0.9904,-0.0172,-0.0034,-0.1370,$GPGGA,170212.200,4041.1607,N,07423.0742,W,1,06,1.30,149.5,M,-34.2,M,,*5C
275,0,-0.23,0.13,0.31,1.75,-1.12,0.31,-0.9904,-0.0177,-0.0024,-0.1370,$GPGGA,170212.300,4041.1615,N,07423.0731,W,1,06,1.30,149.5,M,-34.2,M,,*5A
276,0,-0.09,-0.04,0.29,1.62,-0.50,0.37,-0.9904,-0.0187,-0.0021,-0.1370,$GPGGA,170212.400,4041.1623,N,07423.0721,W,1,06,1.30,149.4,M,-34.2,M,,*58
277,0,-0.20,-0.60,-0.13,0.81,0.50,0.25,-0.9904,-0.0193,-0.0022,-0.1370,$GPGGA,170212.500,4041.1630,N,07423.0710,W,1,06,1.21,149.4,M,-34.2,M,,*59
278,0,-0.22,-0.49,-0.22,0.62,1.06,0.06,-0.9904,-0.0196,-0.0031,-0.1370,$GPGGA,170212.600,4041.1637,N,07423.0699,W,1,06,1.21,149.4,M,-34.2,M,,*5D
279,0,-0.08,-0.66,-0.13,1.31,-0.94,0.19,-0.9904,-0.0200,-0.0034,-0.1369,$GPGGA,170212.700,4041.1644,N,07423.0689,W,1,06,1.21,149.3,M,-34.2,M,,*5E
280,0,-0.26,-0.53,0.49,0.69,-1.00,0.37,-0.9904,-0.0206,-0.0026,-0.1369,$GPGGA,170212.800,4041.1651,N,07423.0678,W,1,06,1.21,149.3,M,-34.2,M,,*5B
281,0,0.02,0.52,-0.20,0.31,-0.31,0.56,-0.9904,-0.0208,-0.0024,-0.1370,$GPGGA,170212.900,4041.1659,N,07423.0668,W,1,06,1.30,149.2,M,-34.2,M,,*52
282,0,0.03,0.00,-0.16,-0.50,-0.62,0.56,-0.9904,-0.0207,-0.0024,-0.1370,$GPGGA,170213.000,4041.1666,N,07423.0657,W,1,06,1.30,149.2,M,-34.2,M,,*5A
283,0,-0.12,0.17,0.39,-0.94,-1.75,0.81,-0.9903,-0.0205,-0.0015,-0.1374,$GPGGA,170213.100,4041.1673,N,07423.0647,W,1,06,1.30,149.2,M,-34.2,M,,*5E
284,0,0.02,0.18,0.63,-0.13,-2.19,0.75,-0.9902,-0.0199,0.0004,-0.1379,$GPGGA,170213.200,4041.1680,N,07423.0637,W,1,06,1.30,149.1,M,-34.2,M,,*55
285,0,-0.04,-0.46,0.31,0.37,-1.37,0.69,-0.9902,-0.0198,0.0016,-0.1385,$GPGGA,170213.300,4041.1687,N,07423.0626,W,1,06,1.30,149.1,M,-34.2,M,,*53
286,0,-0.02,-0.34,0.56,0.44,-1.62,0.88,-0.9901,-0.0198,0.0024,-0.1390,$GPGGA,170213.400,4041.1694,N,07423.0616,W,1,06,1.30,149.0,M,-34.2,M,,*54
287,0,-0.01,-0.19,-0.08,0.44,-1.00,0.50,-0.9900,-0.0198,0.0033,-0.1396,$GPGGA,170213.500,4041.1701,N,07423.0606,W,1,06,1.21,149.0,M,-34.2,M,,*59
288,0,-0.07,-0.29,-0.28,0.13,-0.44,0.31,-0.9900,-0.0203,0.0033,-0.1398,$GPGGA,170213.600,4041.1708,N,07423.0595,W,1,06,1.21,148.9,M,-34.2,M,,*52
289,0,-0.25,-0.04,0.64,0.19,-0.88,0.44,-0.9899,-0.0206,0.0037,-0.1398,$GPGGA,170213.700,4041.1716,N,07423.0585,W,1,06,1.21,148.9,M,-34.2,M,,*5D
290,0,-0.31,0.29,-0.33,0.19,-1.19,0.31,-0.9899,-0.0205,0.0045,-0.1398,$GPGGA,170213.800,4041.1723,N,07423.0575,W,1,06,1.21,148.9,M,-34.2,M,,*5B
291,0,-0.26,-0.05,0.26,-0.19,-0.69,0.44,-0.9899,-0.0206,0.0051,-0.1398,$GPGGA,170213.900,4041.1730,N,07423.0565,W,1,06,1.30,148.9,M,-34.2,M,,*59
292,0,-0.40,-0.21,0.29,0.31,-1.00,0.25,-0.9899,-0.0202,0.0055,-0.1398,$GPGGA,170214.000,4041.1737,N,07423.0554,W,1,06,1.30,148.8,M,-34.2,M,,*53
293,0,-0.05,-0.41,-0.02,1.06,-0.62,0.13,-0.9899,-0.0209,0.0062,-0.1398,$GPGGA,170214.100,4041.1744,N,07423.0544,W,1,06,1.30,148.8,M,-34.2,M,,*57
294,0,0.03,-0.16,-0.19,1.69,0.06,0.19,-0.9899,-0.0217,0.0062,-0.1398,$GPGGA,170214.200,4041.1751,N,07423.0534,W,1,06,1.30,148.8,M,-34.2,M,,*57
295,0,-0.07,-0.04,-0.22,1.31,0.31,0.37,-0.9899,-0.0228,0.0060,-0.1398,$GPGGA,170214.300,4041.1759,N,07423.0523,W,1,06,1.30,148.8,M,-34.2,M,,*58
296,0,0.12,0.24,0.05,1.25,-0.31,0.06,-0.9899,-0.0236,0.0059,-0.1398,$GPGGA,170214.400,4041.1766,N,07423.0513,W,1,06,1.30,148.8,M,-34.2,M,,*50
297,0,0.24,-0.52,0.07,1.06,-0.31,-0.06,-0.9899,-0.0242,0.0059,-0.1398,$GPGGA,170214.500,4041.1773,N,07423.0503,W,1,06,1.21,148.7,M,-34.2,M,,*5B
298,0,0.23,-0.75,-0.26,-0.06,0.62,0.19,-0.9899,-0.0241,0.0059,-0.1398,$GPGGA,170214.600,4041.1781,N,07423.0493,W,1,06,1.21,148.7,M,-34.2,M,,*5D
299,0,-0.09,-0.31,-0.02,0.00,0.69,0.06,-0.9899,-0.0240,0.0051,-0.1399,$GPGGA,170214.700,4041.1788,N,07423.0483,W,1,06,1.21,148.7,M,-34.2,M,,*54
300,0,0.34,-0.13,-0.63,-0.81,-0.25,0.00,-0.9899,-0.0235,0.0052,-0.1399,$GPGGA,170214.800,4041.1795,N,07423.0472,W,1,06,1.21,148.7,M,-34.2,M,,*59
301,0,0.28,-0.37,-0.77,-0.69,-0.06,0.06,-0.9899,-0.0228,0.0056,-0.1399,$GPGGA,170214.900,4041.1802,N,07423.0462,W,1,06,1.21,148.7,M,-34.2,M,,*58
302,0,0.21,-0.14,0.15,0.62,1.37,0.19,-0.9899,-0.0225,0.0051,-0.1399,$GPGGA,170215.000,4041.1809,N,07423.0452,W,1,06,1.30,148.6,M,-34.2,M,,*59
303,0,0.38,-0.17,-1.36,2.94,1.12,-0.19,-0.9899,-0.0250,0.0042,-0.1399,$GPGGA,170215.100,4041.1817,N,07423.0442,W,1,06,1.30,148.6,M,-34.2,M,,*56
304,0,0.02,-1.18,-0.18,-10.25,5.69,-0.25,-0.9899,-0.0222,0.0020,-0.1400,$GPGGA,170215.200,4041.1824,N,07423.0432,W,1,06,1.30,148.6,M,-34.2,M,,*52
305,0,0.17,-0.40,0.26,-1.12,0.81,0.06,-0.9900,-0.0187,0.0001,-0.1400,$GPGGA,170215.300,4041.1831,N,07423.0422,W,1,06,1.30,148.6,M,-34.2,M,,*56
306,0,0.78,0.30,0.22,-1.87,-4.37,-0.06,-0.9900,-0.0172,0.0020,-0.1400,$GPGGA,170215.400,4041.1838,N,07423.0412,W,1,06,1.30,148.6,M,-34.2,M,,*5B
307,0,0.62,-0.74,0.95,-3.81,-1.06,0.13,-0.9900,-0.0162,0.0035,-0.1400,$GPGGA,170215.500,4041.1845,N,07423.0402,W,1,06,1.21,148.5,M,-34.2,M,,*52
308,0,0.66,0.04,-0.88,-1.44,0.37,0.13,-0.9901,-0.0152,0.0035,-0.1400,$GPGGA,170215.600,4041.1853,N,07423.0392,W,1,06,1.21,148.5,M,-34.2,M,,*58
309,0,0.33,-0.40,-0.31,9.81,-1.81,0.00,-0.9900,-0.0191,0.0037,-0.1400,$GPGGA,170215.700,4041.1860,N,07423.0382,W,1,06,1.21,148.5,M,-34.2,M,,*58
310,0,0.31,0.39,-2.52,6.81,-1.87,0.00,-0.9896,-0.0335,0.0059,-0.1398,$GPGGA,170215.800,4041.1867,N,07423.0372,W,1,06,1.21,148.5,M,-34.2,M,,*5F
311,0,0.25,-0.48,-0.32,-13.50,3.94,0.00,-0.9898,-0.0258,0.0049,-0.1398,$GPGGA,170215.900,4041.1874,N,07423.0362,W,1,06,1.30,148.5,M,-34.2,M,,*5D
312,0,-0.01,0.05,0.12,0.13,0.88,0.13,-0.9899,-0.0200,0.0047,-0.1399,$GPGGA,170216.000,4041.1881,N,07423.0351,W,1,06,1.30,148.5,M,-34.2,M,,*5D
313,0,0.06,-0.09,-0.50,4.50,-1.56,0.00,-0.9899,-0.0206,0.0052,-0.1399,$GPGGA,170216.100,4041.1888,N,07423.0341,W,1,06,1.30,148.5,M,-34.2,M,,*54
314,0,-0.08,-0.08,0.00,3.19,-1.06,0.44,-0.9899,-0.0242,0.0070,-0.1399,$GPGGA,170216.200,4041.1895,N,07423.0331,W,1,06,1.30,148.5,M,-34.2,M,,*5C
315,0,-0.11,0.06,-0.12,2.50,-0.44,0.69,-0.9897,-0.0285,0.0078,-0.1402,$GPGGA,170216.300,4041.1903,N,07423.0320,W,1,06,1.30,148.5,M,-34.2,M,,*53
316,0,0.10,-0.26,-0.32,-0.75,0.50,0.94,-0.9896,-0.0295,0.0079,-0.1409,$GPGGA,170216.400,4041.1909,N,07423.0310,W,1,06,1.30,148.5,M,-34.2,M,,*5D
317,0,0.29,-0.63,0.00,1.12,0.81,0.75,-0.9894,-0.0296,0.0075,-0.1416,$GPGGA,170216.500,4041.1917,N,07423.0300,W,1,06,1.21,148.5,M,-34.2,M,,*52
318,0,0.29,0.25,-0.19,2.50,1.31,0.88,-0.9893,-0.0305,0.0065,-0.1423,$GPGGA,170216.600,4041.1924,N,07423.0289,W,1,06,1.21,148.5,M,-34.2,M,,*51
319,0,0.46,0.06,-0.08,-0.56,3.00,0.69,-0.9893,-0.0294,0.0049,-0.1430,$GPGGA,170216.700,4041.1930,N,07423.0279,W,1,06,1.21,148.4,M,-34.2,M,,*5B
320,0,0.34,0.39,-0.56,-0.62,2.69,0.62,-0.9893,-0.0287,0.0027,-0.1434,$GPGGA,170216.800,4041.1937,N,07423.0268,W,1,06,1.21,148.4,M,-34.2,M,,*53
321,0,0.22,-0.19,-0.56,-2.31,2.81,0.19,-0.9893,-0.0271,0.0005,-0.1435,$GPGGA,170216.900,4041.1944,N,07423.0257,W,1,06,1.21,148.4,M,-34.2,M,,*5A
322,0,0.26,-0.36,-0.41,-6.81,1.50,0.37,-0.9894,-0.0224,-0.0008,-0.1436,$GPGGA,170217.000,4041.1952,N,07423.0247,W,1,06,1.30,148.4,M,-34.2,M,,*54
323,0,0.05,0.14,0.98,-4.06,-1.25,0.13,-0.9895,-0.0179,-0.0001,-0.1436,$GPGGA,170217.100,4041.1959,N,07423.0236,W,1,06,1.30,148.4,M,-34.2,M,,*58
324,0,-0.12,-0.58,0.38,-1.87,0.69,0.37,-0.9895,-0.0152,0.0005,-0.1436,$GPGGA,170217.200,4041.1966,N,07423.0226,W,1,06,1.30,148.4,M,-34.2,M,,*56
325,0,0.40,0.04,-0.38,-0.44,0.37,0.31,-0.9895,-0.0146,0.0002,-0.1436,$GPGGA,170217.300,4041.1974,N,07423.0216,W,1,06,1.30,148.4,M,-34.2,M,,*57
326,0,0.08,-0.24,-0.53,-1.50,0.62,0.13,-0.9896,-0.0143,0.0001,-0.1436,$GPGGA,170217.400,4041.1981,N,07423.0206,W,1,06,1.30,148.4,M,-34.2,M,,*5B
327,0,0.05,0.35,-0.25,-3.25,2.06,0.25,-0.9896,-0.0114,-0.0004,-0.1436,$GPGGA,170217.500,4041.1988,N,07423.0196,W,1,06,1.30,148.4,M,-34.2,M,,*59
328,0,0.18,-0.28,-0.06,2.12,0.88,0.37,-0.9896,-0.0112,-0.0009,-0.1436,$GPGGA,170217.600,4041.1995,N,07423.0186,W,1,06,1.30,148.4,M,-34.2,M,,*57
329,0,0.10,-0.35,-0.38,1.75,0.69,0.44,-0.9896,-0.0121,-0.0010,-0.1436,$GPGGA,170217.700,4041.2002,N,07423.0176,W,1,06,1.21,148.4,M,-34.2,M,,*5D
330,0,0.10,-0.06,0.10,-1.69,-1.12,0.25,-0.9896,-0.0126,-0.0007,-0.1436,$GPGGA,170217.800,4041.2010,N,07423.0166,W,1,06,1.21,148.4,M,-34.2,M,,*50
331,0,0.29,-0.22,0.09,0.50,-0.75,0.19,-0.9896,-0.0123,-0.0001,-0.1436,$GPGGA,170217.900,4041.2017,N,07423.0157,W,1,06,1.21,148.4,M,-34.2,M,,*54
332,0,0.09,-0.17,-0.29,-0.06,0.44,0.00,-0.9896,-0.0117,0.0004,-0.1436,$GPGGA,170218.000,4041.2025,N,07423.0147,W,1,06,1.21,148.4,M,-34.2,M,,*52
333,0,0.11,-0.09,-0.45,0.50,0.50,0.31,-0.9896,-0.0115,0.0003,-0.1436,$GPGGA,170218.100,4041.2032,N,07423.0137,W,1,06,1.21,148.4,M,-34.2,M,,*52
334,0,0.15,-0.08,-1.02,0.00,2.06,0.25,-0.9896,-0.0118,-0.0009,-0.1437,$GPGGA,170218.200,4041.2040,N,07423.0127,W,1,06,1.30,148.4,M,-34.2,M,,*55
335,0,0.19,-0.61,-0.81,1.31,2.31,0.50,-0.9896,-0.0120,-0.0024,-0.1437,$GPGGA,170218.300,4041.2048,N,07423.0118,W,1,06,1.30,148.4,M,-34.2,M,,*50
336,0,0.19,-0.07,-0.68,-1.12,2.25,0.31,-0.9896,-0.0120,-0.0045,-0.1437,$GPGGA,170218.400,4041.2056,N,07423.0108,W,1,06,1.30,148.3,M,-34.2,M,,*5E
337,0,0.35,0.20,-0.13,-6.44,2.81,0.25,-0.9896,-0.0098,-0.0059,-0.1437,$GPGGA,170218.500,4041.2064,N,07423.0098,W,1,06,1.21,148.3,M,-34.2,M,,*56
338,0,0.10,-0.37,0.31,-1.31,-0.37,0.06,-0.9896,-0.0076,-0.0060,-0.1437,$GPGGA,170218.600,4041.2071,N,07423.0089,W,1,06,1.21,148.3,M,-34.2,M,,*51
339,0,0.19,-0.08,0.88,-0.62,-0.88,0.13,-0.9896,-0.0067,-0.0045,-0.1437,$GPGGA,170218.700,4041.2079,N,07423.0079,W,1,06,1.21,148.3,M,-34.2,M,,*57
340,0,-0.05,-0.37,-0.71,0.69,0.06,0.37,-0.9896,-0.0071,-0.0045,-0.1437,$GPGGA,170218.800,4041.2087,N,07423.0069,W,1,06,1.30,148.2,M,-34.2,M,,*59
341,0,0.19,0.02,0.27,1.25,-0.44,0.06,-0.9896,-0.0081,-0.0045,-0.1437,$GPGGA,170218.900,4041.2094,N,07423.0058,W,1,06,1.30,148.2,M,-34.2,M,,*58
342,0,0.22,0.46,-0.34,-1.56,0.19,0.00,-0.9896,-0.0076,-0.0043,-0.1437,$GPGGA,170219.000,4041.2102,N,07423.0048,W,1,06,1.30,148.2,M,-34.2,M,,*5F
343,0,0.13,0.11,-0.23,-1.56,1.50,0.06,-0.9896,-0.0063,-0.0046,-0.1437,$GPGGA,170219.100,4041.2109,N,07423.0038,W,1,06,1.30,148.1,M,-34.2,M,,*51
344,0,0.09,-0.44,-0.47,-1.62,1.37,0.00,-0.9896,-0.0045,-0.0055,-0.1437,$GPGGA,170219.200,4041.2117,N,07423.0028,W,1,06,1.30,148.1,M,-34.2,M,,*5C
345,0,0.18,-0.29,-0.68,-0.81,1.81,0.31,-0.9896,-0.0032,-0.0067,-0.1438,$GPGGA,170219.300,4041.2124,N,07423.0018,W,1,06,1.30,148.0,M,-34.2,M,,*5F
346,0,0.06,-0.64,-0.06,0.50,0.75,0.25,-0.9896,-0.0021,-0.0073,-0.1438,$GPGGA,170219.400,4041.2132,N,07423.0008,W,1,06,1.30,147.9,M,-34.2,M,,*58
347,0,-0.07,0.03,-0.49,0.81,1.25,0.50,-0.9896,-0.0026,-0.0081,-0.1438,$GPGGA,170219.500,4041.2140,N,07422.9998,W,1,06,1.21,147.9,M,-34.2,M,,*54
348,0,-0.05,-0.10,-0.82,1.06,1.56,0.50,-0.9896,-0.0033,-0.0092,-0.1437,$GPGGA,170219.600,4041.2147,N,07422.9988,W,1,06,1.30,147.9,M,-34.2,M,,*51
349,0,0.18,-0.09,-0.50,1.44,0.37,0.31,-0.9896,-0.0047,-0.0102,-0.1437,$GPGGA,170219.700,4041.2155,N,07422.9978,W,1,06,1.30,147.8,M,-34.2,M,,*5D
350,0,-0.16,0.31,-0.19,-0.50,0.37,0.44,-0.9896,-0.0062,-0.0102,-0.1437,$GPGGA,170219.800,4041.2162,N,07422.9968,W,1,06,1.30,147.8,M,-34.2,M,,*57
351,0,0.13,0.10,-0.38,-0.94,0.31,0.31,-0.9896,-0.0062,-0.0101,-0.1437,$GPGGA,170219.900,4041.2170,N,07422.9958,W,1,06,1.30,147.7,M,-34.2,M,,*59
352,0,0.11,0.16,-0.34,-1.87,0.94,0.69,-0.9896,-0.0054,-0.0105,-0.1438,$GPGGA,170220.000,4041.2178,N,07422.9948,W,1,06,1.30,147.6,M,-34.2,M,,*52
353,0,0.00,0.05,-0.85,-0.88,2.31,0.56,-0.9895,-0.0044,-0.0116,-0.1440,$GPGGA,170220.100,4041.2186,N,07422.9938,W,1,06,1.30,147.6,M,-34.2,M,,*55
354,0,0.11,-0.32,-0.49,0.56,1.25,0.50,-0.9894,-0.0036,-0.0129,-0.1443,$GPGGA,170220.200,4041.2194,N,07422.9928,W,1,06,1.30,147.5,M,-34.2,M,,*57
355,0,-0.13,-0.28,0.05,2.50,-0.25,0.25,-0.9894,-0.0045,-0.0133,-0.1443,$GPGGA,170220.300,4041.2202,N,07422.9918,W,1,06,1.30,147.4,M,-34.2,M,,*58
356,0,0.03,-0.43,1.01,4.69,-1.44,0.50,-0.9894,-0.0073,-0.0130,-0.1443,$GPGGA,170220.400,4041.2211,N,07422.9907,W,1,06,1.30,147.4,M,-34.2,M,,*53
357,0,0.03,-0.57,0.62,3.94,-2.31,0.75,-0.9894,-0.0110,-0.0116,-0.1445,$GPGGA,170220.500,4041.2219,N,07422.9897,W,1,06,1.21,147.3,M,-34.2,M,,*55
358,0,-0.03,0.68,0.24,1.31,1.06,0.56,-0.9893,-0.0129,-0.0115,-0.1447,$GPGGA,170220.600,4041.2227,N,07422.9887,W,1,06,1.21,147.3,M,-34.2,M,,*5A
359,0,0.32,0.43,-0.71,-1.00,1.25,0.25,-0.9893,-0.0126,-0.0125,-0.1447,$GPGGA,170220.700,4041.2234,N,07422.9877,W,1,06,1.21,147.3,M,-34.2,M,,*56
360,0,0.05,0.19,-0.22,-3.94,1.62,0.13,-0.9893,-0.0099,-0.0134,-0.1448,$GPGGA,170220.800,4041.2242,N,07422.9867,W,1,06,1.30,147.2,M,-34.2,M,,*58
361,0,0.34,-0.06,-0.19,-3.44,0.94,0.06,-0.9893,-0.0067,-0.0139,-0.1448,$GPGGA,170220.900,4041.2250,N,07422.9857,W,1,06,1.30,147.2,M,-34.2,M,,*59
362,0,-0.15,-0.29,0.66,-2.06,-0.75,0.13,-0.9894,-0.0044,-0.0134,-0.1448,$GPGGA,170221.000,4041.2258,N,07422.9847,W,1,06,1.30,147.1,M,-34.2,M,,*5B
363,0,-0.21,-0.12,0.96,-0.37,-2.12,0.19,-0.9894,-0.0034,-0.0117,-0.1448,$GPGGA,170221.100,4041.2266,N,07422.9837,W,1,06,1.30,147.1,M,-34.2,M,,*50
364,0,0.08,-0.27,0.51,1.12,-0.75,0.31,-0.9894,-0.0034,-0.0104,-0.1448,$GPGGA,170221.200,4041.2275,N,07422.9827,W,1,06,1.30,147.1,M,-34.2,M,,*50
365,0,-0.12,-0.09,-0.30,1.19,1.50,0.25,-0.9894,-0.0040,-0.0110,-0.1448,$GPGGA,170221.300,4041.2283,N,07422.9817,W,1,06,1.30,147.1,M,-34.2,M,,*5B
366,0,-0.06,-0.43,-0.72,0.37,1.69,0.13,-0.9894,-0.0042,-0.0128,-0.1448,$GPGGA,170221.400,4041.2292,N,07422.9807,W,1,06,1.30,147.0,M,-34.2,M,,*5C
367,0,0.05,-0.71,-0.32,0.88,0.25,0.13,-0.9894,-0.0041,-0.0137,-0.1448,$GPGGA,170221.500,4041.2300,N,07422.9797,W,1,06,1.21,147.0,M,-34.2,M,,*51
368,0,-0.20,-0.68,0.47,0.06,0.31,0.19,-0.9894,-0.0038,-0.0137,-0.1448,$GPGGA,170221.600,4041.2308,N,07422.9787,W,1,06,1.21,146.9,M,-34.2,M,,*53
369,0,0.21,-0.67,-0.43,1.06,0.94,0.25,-0.9893,-0.0038,-0.0142,-0.1448,$GPGGA,170221.700,4041.2316,N,07422.9777,W,1,06,1.30,146.9,M,-34.2,M,,*52
370,0,-0.06,-0.14,-0.40,0.37,1.37,-0.06,-0.9893,-0.0044,-0.0152,-0.1448,$GPGGA,170221.800,4041.2324,N,07422.9767,W,1,06,1.30,146.9,M,-34.2,M,,*5D
371,0,-0.17,0.33,-0.37,0.56,0.75,-0.13,-0.9893,-0.0048,-0.0159,-0.1448,$GPGGA,170221.900,4041.2332,N,07422.9757,W,1,06,1.30,146.8,M,-34.2,M,,*59
372,0,0.17,-0.13,0.21,-0.69,-0.56,-0.44,-0.9893,-0.0049,-0.0159,-0.1448,$GPGGA,170222.000,4041.2340,N,07422.9747,W,1,06,1.30,146.8,M,-34.2,M,,*57
373,0,0.00,0.27,0.12,-3.50,-0.94,-0.94,-0.9894,-0.0031,-0.0148,-0.1447,$GPGGA,170222.100,4041.2348,N,07422.9737,W,1,06,1.30,146.8,M,-34.2,M,,*59
374,0,-0.02,-0.21,-0.15,-2.37,1.12,-0.88,-0.9895,-0.0009,-0.0143,-0.1439,$GPGGA,170222.200,4041.2356,N,07422.9727,W,1,06,1.30,146.7,M,-34.2,M,,*5B
375,0,0.10,-0.68,-0.57,-0.94,1.37,-0.62,-0.9895,0.0013,-0.0154,-0.1436,$GPGGA,170222.300,4041.2365,N,07422.9717,W,1,06,1.30,146.7,M,-34.2,M,,*59
376,0,-0.06,-0.49,-0.19,-0.94,-0.06,-0.44,-0.9895,0.0048,-0.0153,-0.1434,$GPGGA,170222.400,4041.2373,N,07422.9707,W,1,06,1.30,146.6,M,-34.2,M,,*59
377,0,-0.03,-0.71,-0.62,1.44,0.44,-0.44,-0.9896,0.0053,-0.0151,-0.1432,$GPGGA,170222.500,4041.2381,N,07422.9697,W,1,06,1.21,146.6,M,-34.2,M,,*5D
378,0,0.16,-0.75,-0.23,2.25,0.37,-0.37,-0.9896,0.0055,-0.0154,-0.1431,$GPGGA,170222.600,4041.2389,N,07422.9687,W,1,06,1.21,146.5,M,-34.2,M,,*54
379,0,0.00,-0.20,0.22,2.75,-0.69,-0.37,-0.9896,0.0041,-0.0154,-0.1431,$GPGGA,170222.700,4041.2397,N,07422.9678,W,1,06,1.21,146.5,M,-34.2,M,,*5A
380,0,0.13,-0.39,0.33,2.62,-0.13,-0.50,-0.9896,0.0030,-0.0148,-0.1429,$GPGGA,170222.800,4041.2405,N,07422.9668,W,1,06,1.30,146.5,M,-34.2,M,,*58
381,0,0.17,0.01,-0.38,0.69,1.31,-0.56,-0.9897,0.0014,-0.0156,-0.1426,$GPGGA,170222.900,4041.2413,N,07422.9659,W,1,06,1.30,146.4,M,-34.2,M,,*5D
382,0,0.01,0.39,-0.55,0.13,0.25,-0.50,-0.9897,0.0009,-0.0167,-0.1424,$GPGGA,170223.000,4041.2421,N,07422.9649,W,1,06,1.30,146.4,M,-34.2,M,,*55
383,0,0.02,-0.06,0.72,0.56,-2.12,-0.75,-0.9897,0.0006,-0.0161,-0.1417,$GPGGA,170223.100,4041.2429,N,07422.9640,W,1,06,1.30,146.3,M,-34.2,M,,*52
384,0,0.03,0.14,-0.96,-1.87,0.44,-0.44,-0.9899,0.0017,-0.0154,-0.1413,$GPGGA,170223.200,4041.2437,N,07422.9630,W,1,06,1.30,146.2,M,-34.2,M,,*58
385,0,0.19,0.20,-0.36,-2.37,3.25,-0.62,-0.9898,0.0043,-0.0173,-0.1413,$GPGGA,170223.300,4041.2444,N,07422.9620,W,1,06,1.30,146.1,M,-34.2,M,,*5F
386,0,0.22,-0.51,-0.90,-1.19,-1.44,-1.06,-0.9899,0.0057,-0.0180,-0.1407,$GPGGA,170223.400,4041.2452,N,07422.9610,W,1,06,1.30,146.0,M,-34.2,M,,*5D
387,0,0.43,-0.07,0.70,0.25,-1.75,-0.25,-0.9899,0.0073,-0.0162,-0.1403,$GPGGA,170223.500,4041.2460,N,07422.9601,W,1,06,1.21,146.0,M,-34.2,M,,*5D
388,0,0.03,-0.69,-0.21,1.19,-0.50,-0.62,-0.9900,0.0073,-0.0154,-0.1403,$GPGGA,170223.600,4041.2467,N,07422.9591,W,1,06,1.21,146.0,M,-34.2,M,,*53
389,0,-0.16,-0.01,0.21,-0.19,-1.19,-0.37,-0.9900,0.0070,-0.0145,-0.1403,$GPGGA,170223.700,4041.2475,N,07422.9581,W,1,06,1.21,145.9,M,-34.2,M,,*5A
390,0,-0.11,0.28,-0.27,-2.06,0.94,-0.44,-0.9900,0.0081,-0.0143,-0.1403,$GPGGA,170223.800,4041.2483,N,07422.9572,W,1,06,1.30,145.9,M,-34.2,M,,*50
391,0,0.18,-0.26,-0.86,-0.62,1.62,-0.62,-0.9899,0.0095,-0.0156,-0.1402,$GPGGA,170223.900,4041.2491,N,07422.9562,W,1,06,1.30,145.8,M,-34.2,M,,*52
392,0,-0.12,-0.10,-0.09,-1.75,0.56,-0.37,-0.9899,0.0108,-0.0157,-0.1401,$GPGGA,170224.000,4041.2498,N,07422.9552,W,1,06,1.30,145.8,M,-34.2,M,,*56
393,0,-0.15,-0.28,-0.35,-0.56,0.44,-0.25,-0.9899,0.0117,-0.0156,-0.1401,$GPGGA,170224.100,4041.2506,N,07422.9542,W,1,06,1.30,145.7,M,-34.2,M,,*5F
394,0,-0.08,-0.58,-0.01,-0.19,0.31,-0.44,-0.9899,0.0118,-0.0157,-0.1401,$GPGGA,170224.200,4041.2514,N,07422.9532,W,1,06,1.30,145.7,M,-34.2,M,,*58
395,0,-0.29,-0.25,0.16,0.56,0.62,-0.31,-0.9899,0.0123,-0.0160,-0.1400,$GPGGA,170224.300,4041.2522,N,07422.9522,W,1,06,1.30,145.6,M,-34.2,M,,*5C
396,0,-0.19,-0.44,0.22,2.44,-1.00,-0.31,-0.9899,0.0113,-0.0159,-0.1400,$GPGGA,170224.400,4041.2530,N,07422.9512,W,1,06,1.30,145.5,M,-34.2,M,,*58
397,0,-0.33,-0.22,0.63,1.19,-1.94,-0.37,-0.9900,0.0096,-0.0146,-0.1400,$GPGGA,170224.500,4041.2538,N,07422.9502,W,1,06,1.21,145.5,M,-34.2,M,,*50
398,0,-0.05,-0.37,0.51,1.75,-1.37,-0.37,-0.9901,0.0080,-0.0132,-0.1400,$GPGGA,170224.600,4041.2545,N,07422.9493,W,1,06,1.21,145.4,M,-34.2,M,,*51
399,0,-0.10,0.04,-0.05,1.81,-0.06,-0.31,-0.9901,0.0071,-0.0130,-0.1400,$GPGGA,170224.700,4041.2553,N,07422.9483,W,1,06,1.21,145.4,M,-34.2,M,,*56
400,0,-0.13,-0.07,-0.06,0.25,0.13,-0.31,-0.9901,0.0071,-0.0132,-0.1400,$GPGGA,170224.800,4041.2561,N,07422.9473,W,1,06,1.30,145.3,M,-34.2,M,,*50
401,0,-0.01,-0.04,-0.29,-0.13,0.50,-0.31,-0.9901,0.0068,-0.0132,-0.1400,$GPGGA,170224.900,4041.2568,N,07422.9463,W,1,06,1.30,145.3,M,-34.2,M,,*59
402,0,-0.05,-0.07,0.04,1.12,-0.44,-0.37,-0.9901,0.0070,-0.0133,-0.1400,$GPGGA,170225.000,4041.2576,N,07422.9453,W,1,06,1.30,145.2,M,-34.2,M,,*5C
403,0,-0.15,-0.16,0.85,0.37,-0.62,-0.13,-0.9901,0.0062,-0.0132,-0.1400,$GPGGA,170225.100,4041.2584,N,07422.9443,W,1,06,1.30,145.2,M,-34.2,M,,*51
404,0,-0.02,0.30,0.49,1.37,-0.19,0.00,-0.9901,0.0047,-0.0127,-0.1400,$GPGGA,170225.200,4041.2592,N,07422.9433,W,1,06,1.30,145.1,M,-34.2,M,,*51
405,0,0.10,-0.57,-0.39,1.94,-0.69,-0.19,-0.9901,0.0040,-0.0126,-0.1400,$GPGGA,170225.300,4041.2599,N,07422.9423,W,1,06,1.30,145.0,M,-34.2,M,,*5B
406,0,-0.04,-0.17,0.57,1.12,-0.25,-0.06,-0.9901,0.0023,-0.0127,-0.1399,$GPGGA,170225.400,4041.2607,N,07422.9413,W,1,06,1.30,144.9,M,-34.2,M,,*53
407,0,0.08,-0.51,-0.08,1.81,-1.69,0.13,-0.9901,0.0005,-0.0124,-0.1399,$GPGGA,170225.500,4041.2614,N,07422.9404,W,1,06,1.21,144.8,M,-34.2,M,,*57
408,0,0.17,0.05,0.77,0.50,-2.00,0.19,-0.9901,-0.0001,-0.0108,-0.1399,$GPGGA,170225.600,4041.2622,N,07422.9394,W,1,06,1.21,144.8,M,-34.2,M,,*5F
409,0,-0.18,0.27,0.41,-1.31,-0.31,0.06,-0.9901,0.0001,-0.0099,-0.1399,$GPGGA,170225.700,4041.2630,N,07422.9384,W,1,06,1.30,144.7,M,-34.2,M,,*53
410,0,-0.04,0.62,-0.02,-0.88,-0.75,-0.25,-0.9901,0.0005,-0.0096,-0.1399,$GPGGA,170225.800,4041.2637,N,07422.9375,W,1,06,1.30,144.6,M,-34.2,M,,*54
411,0,-0.17,-0.31,0.56,-0.81,-1.44,0.00,-0.9901,0.0018,-0.0084,-0.1399,$GPGGA,170225.900,4041.2645,N,07422.9365,W,1,06,1.30,144.6,M,-34.2,M,,*51
412,0,-0.05,0.25,-0.03,-1.44,-0.50,0.06,-0.9901,0.0029,-0.0076,-0.1400,$GPGGA,170226.000,4041.2652,N,07422.9355,W,1,06,1.30,144.5,M,-34.2,M,,*5D
