0,0,0.38,0.20,0.69,9.38,12.56,12.06,0.5897,-0.0851,-0.1589,-0.7872,$GPGGA,171949.000,4042.3144,N,07421.5308,W,1,08,0.96,97.1,M,-34.2,M,,*63
1,0,0.66,-0.24,-0.37,-15.19,-17.06,10.56,0.5970,-0.0876,-0.1577,-0.7817,$GPGGA,171949.200,4042.3143,N,07421.5316,W,1,08,0.98,97.1,M,-34.2,M,,*67
2,0,0.00,0.35,0.48,3.62,-1.75,10.38,0.6031,-0.0930,-0.1580,-0.7763,$GPGGA,171949.300,4042.3143,N,07421.5319,W,1,08,0.98,97.0,M,-34.2,M,,*68
3,0,0.38,0.48,0.39,1.31,-0.50,10.06,0.6096,-0.0934,-0.1597,-0.7709,$GPGGA,171949.400,4042.3143,N,07421.5323,W,1,08,0.98,97.0,M,-34.2,M,,*66
4,0,-0.13,0.49,0.43,0.37,-0.19,10.06,0.6160,-0.0937,-0.1599,-0.7656,$GPGGA,171949.500,4042.3143,N,07421.5327,W,1,08,0.98,97.0,M,-34.2,M,,*63
5,0,-0.21,0.94,0.73,0.44,-0.06,10.13,0.6222,-0.0920,-0.1608,-0.7606,$GPGGA,171949.600,4042.3142,N,07421.5330,W,1,08,0.96,96.9,M,-34.2,M,,*61
6,0,-0.32,0.48,-0.03,0.31,-0.25,9.81,0.6281,-0.0898,-0.1619,-0.7558,$GPGGA,171949.700,4042.3142,N,07421.5334,W,1,08,0.96,96.9,M,-34.2,M,,*64
7,0,-0.53,0.52,0.77,-1.81,-0.50,9.31,0.6335,-0.0837,-0.1616,-0.7521,$GPGGA,171949.800,4042.3141,N,07421.5338,W,1,08,0.96,96.9,M,-34.2,M,,*64
8,0,-0.47,0.01,0.86,-1.56,-0.56,8.38,0.6385,-0.0750,-0.1573,-0.7496,$GPGGA,171949.900,4042.3140,N,07421.5341,W,1,08,0.96,96.8,M,-34.2,M,,*6B
9,0,-0.98,0.06,0.79,-0.94,-0.56,7.37,0.6434,-0.0736,-0.1541,-0.7462,$GPGGA,171950.000,4042.3140,N,07421.5347,W,1,08,0.98,96.8,M,-34.2,M,,*62
10,0,-0.74,-0.05,0.57,-0.62,-0.13,6.62,0.6478,-0.0747,-0.1525,-0.7427,$GPGGA,171950.100,4042.3138,N,07421.5352,W,1,08,0.96,96.8,M,-34.2,M,,*66
11,0,-0.70,-0.36,0.06,-0.62,0.19,5.62,0.6517,-0.0746,-0.1499,-0.7398,$GPGGA,171950.200,4042.3137,N,07421.5357,W,1,08,0.96,96.8,M,-34.2,M,,*6F
12,0,-0.49,-0.34,-0.07,0.56,-0.31,5.00,0.6552,-0.0746,-0.1479,-0.7370,$GPGGA,171950.300,4042.3134,N,07421.5362,W,1,08,0.98,96.7,M,-34.2,M,,*6A
13,0,-0.32,-0.33,-0.13,-0.06,-0.19,4.31,0.6581,-0.0750,-0.1470,-0.7346,$GPGGA,171950.400,4042.3132,N,07421.5367,W,1,08,0.98,96.7,M,-34.2,M,,*6E
14,0,-0.28,-0.20,0.94,0.81,-0.62,3.56,0.6607,-0.0751,-0.1462,-0.7324,$GPGGA,171950.500,4042.3131,N,07421.5372,W,1,08,0.96,96.7,M,-34.2,M,,*66
15,0,-0.33,-0.22,0.34,-0.50,0.19,2.87,0.6627,-0.0757,-0.1458,-0.7307,$GPGGA,171950.600,4042.3130,N,07421.5377,W,1,08,0.96,96.6,M,-34.2,M,,*60
16,0,0.07,-0.59,0.52,-1.06,-3.75,2.06,0.6641,-0.0773,-0.1458,-0.7292,$GPGGA,171950.700,4042.3129,N,07421.5382,W,1,08,0.96,96.6,M,-34.2,M,,*63
17,0,-0.42,-1.13,0.50,-6.62,-0.62,1.87,0.6646,-0.0814,-0.1451,-0.7285,$GPGGA,171950.800,4042.3129,N,07421.5388,W,1,08,0.96,96.6,M,-34.2,M,,*66
18,0,-0.81,-1.11,1.42,-1.75,1.81,1.37,0.6655,-0.0826,-0.1407,-0.7283,$GPGGA,171950.900,4042.3129,N,07421.5393,W,1,08,0.96,96.6,M,-34.2,M,,*6D
19,0,0.07,-0.75,0.60,-1.37,0.19,1.25,0.6662,-0.0837,-0.1419,-0.7274,$GPGGA,171951.000,4042.3127,N,07421.5398,W,1,08,0.96,96.5,M,-34.2,M,,*63
20,0,-0.05,-0.96,0.66,-0.44,1.81,0.88,0.6671,-0.0854,-0.1398,-0.7267,$GPGGA,171951.100,4042.3126,N,07421.5403,W,1,08,0.96,96.5,M,-34.2,M,,*66
21,0,0.07,-0.49,0.01,-1.50,-1.87,1.06,0.6675,-0.0873,-0.1393,-0.7261,$GPGGA,171951.200,4042.3123,N,07421.5408,W,1,08,0.96,96.5,M,-34.2,M,,*6B
22,0,-0.03,-0.40,1.28,-0.94,-2.00,1.19,0.6681,-0.0888,-0.1391,-0.7255,$GPGGA,171951.300,4042.3120,N,07421.5413,W,1,08,0.96,96.4,M,-34.2,M,,*62
23,0,-0.02,-0.63,0.41,-1.87,-0.50,1.25,0.6683,-0.0915,-0.1394,-0.7250,$GPGGA,171951.400,4042.3117,N,07421.5418,W,1,08,0.96,96.4,M,-34.2,M,,*6A
24,0,-0.06,-0.68,0.18,-0.94,1.75,1.37,0.6696,-0.0908,-0.1366,-0.7244,$GPGGA,171951.500,4042.3114,N,07421.5423,W,1,08,0.98,96.4,M,-34.2,M,,*6E
25,0,-0.08,-0.24,-0.23,-0.25,2.06,1.25,0.6707,-0.0908,-0.1338,-0.7238,$GPGGA,171951.600,4042.3112,N,07421.5428,W,1,08,0.96,96.4,M,-34.2,M,,*6E
26,0,-0.22,-0.12,0.01,-0.13,1.25,1.25,0.6717,-0.0908,-0.1329,-0.7231,$GPGGA,171951.700,4042.3109,N,07421.5433,W,1,08,0.96,96.3,M,-34.2,M,,*68
27,0,-0.33,-0.22,0.12,-0.13,-0.25,1.12,0.6727,-0.0911,-0.1313,-0.7225,$GPGGA,171951.800,4042.3107,N,07421.5438,W,1,08,0.96,96.3,M,-34.2,M,,*62
28,0,-0.30,-0.15,0.18,-0.50,0.19,1.25,0.6738,-0.0925,-0.1290,-0.7216,$GPGGA,171951.900,4042.3104,N,07421.5444,W,1,08,0.96,96.3,M,-34.2,M,,*6B
29,0,-0.24,-0.40,0.18,1.25,2.06,1.31,0.6747,-0.0916,-0.1290,-0.7209,$GPGGA,171952.000,4042.3101,N,07421.5449,W,1,08,0.96,96.3,M,-34.2,M,,*69
30,0,-0.05,-0.05,-0.79,2.31,2.12,1.37,0.6761,-0.0897,-0.1282,-0.7200,$GPGGA,171952.100,4042.3099,N,07421.5454,W,1,08,0.96,96.3,M,-34.2,M,,*64
31,0,-0.44,-0.53,0.29,3.44,0.25,1.25,0.6773,-0.0881,-0.1288,-0.7190,$GPGGA,171952.200,4042.3096,N,07421.5459,W,1,08,0.96,96.2,M,-34.2,M,,*64
32,0,-0.03,-0.23,0.15,2.19,0.56,1.25,0.6783,-0.0867,-0.1299,-0.7180,$GPGGA,171952.300,4042.3094,N,07421.5465,W,1,08,0.96,96.2,M,-34.2,M,,*68
33,0,-0.11,-0.26,0.09,2.81,-1.69,1.00,0.6793,-0.0854,-0.1309,-0.7170,$GPGGA,171952.400,4042.3091,N,07421.5470,W,1,08,0.96,96.2,M,-34.2,M,,*6E
34,0,-0.39,-0.48,-0.12,1.56,0.81,1.00,0.6801,-0.0850,-0.1312,-0.7163,$GPGGA,171952.500,4042.3088,N,07421.5475,W,1,08,0.96,96.2,M,-34.2,M,,*62
35,0,-0.41,0.02,0.53,0.37,-0.75,0.88,0.6807,-0.0848,-0.1317,-0.7157,$GPGGA,171952.600,4042.3085,N,07421.5481,W,1,08,0.96,96.2,M,-34.2,M,,*67
36,0,-0.19,0.08,0.62,2.31,0.88,0.50,0.6810,-0.0846,-0.1318,-0.7154,$GPGGA,171952.700,4042.3083,N,07421.5486,W,1,08,0.96,96.2,M,-34.2,M,,*67
37,0,-0.76,-0.49,0.29,1.06,0.94,0.56,0.6812,-0.0832,-0.1306,-0.7155,$GPGGA,171952.800,4042.3079,N,07421.5492,W,1,08,0.96,96.1,M,-34.2,M,,*6B
38,0,-0.64,-0.66,0.40,0.62,-1.62,0.19,0.6816,-0.0817,-0.1296,-0.7155,$GPGGA,171952.900,4042.3076,N,07421.5498,W,1,08,0.96,96.1,M,-34.2,M,,*6F
39,0,-0.88,-0.31,1.60,0.25,-5.62,0.19,0.6815,-0.0829,-0.1306,-0.7153,$GPGGA,171953.000,4042.3072,N,07421.5504,W,1,08,0.96,96.1,M,-34.2,M,,*67
40,0,-0.96,-0.33,1.31,-1.56,-2.12,0.00,0.6811,-0.0858,-0.1314,-0.7152,$GPGGA,171953.100,4042.3065,N,07421.5512,W,1,08,0.96,96.1,M,-34.2,M,,*67
41,0,-0.91,-0.53,0.31,0.13,-0.25,0.13,0.6812,-0.0848,-0.1314,-0.7152,$GPGGA,171953.200,4042.3059,N,07421.5520,W,1,08,0.96,96.1,M,-34.2,M,,*6A
42,0,-1.57,-0.75,-0.13,-1.00,-0.69,0.19,0.6810,-0.0865,-0.1308,-0.7153,$GPGGA,171953.300,4042.3053,N,07421.5528,W,1,08,0.96,96.1,M,-34.2,M,,*69
43,0,-0.81,-0.72,-0.73,0.31,-3.31,0.25,0.6805,-0.0893,-0.1309,-0.7154,$GPGGA,171953.400,4042.3047,N,07421.5535,W,1,08,0.96,96.0,M,-34.2,M,,*66
44,0,-0.58,-0.12,0.68,0.31,0.06,0.19,0.6804,-0.0906,-0.1312,-0.7153,$GPGGA,171953.500,4042.3041,N,07421.5543,W,1,08,0.96,96.0,M,-34.2,M,,*60
45,0,-0.60,-0.22,0.05,-0.31,2.69,0.44,0.6809,-0.0892,-0.1259,-0.7159,$GPGGA,171953.600,4042.3035,N,07421.5550,W,1,08,0.96,96.0,M,-34.2,M,,*62
46,0,-0.41,-0.10,0.16,-3.19,2.94,0.31,0.6815,-0.0874,-0.1198,-0.7166,$GPGGA,171953.700,4042.3029,N,07421.5558,W,1,08,0.96,96.0,M,-34.2,M,,*66
47,0,-0.57,-0.12,-0.08,-2.37,-1.62,0.31,0.6816,-0.0883,-0.1165,-0.7170,$GPGGA,171953.800,4042.3022,N,07421.5565,W,1,08,0.96,96.0,M,-34.2,M,,*6C
48,0,-0.51,-0.29,0.11,-1.75,-1.50,0.25,0.6812,-0.0911,-0.1153,-0.7172,$GPGGA,171953.900,4042.3017,N,07421.5573,W,1,08,0.96,96.0,M,-34.2,M,,*6C
49,0,-0.39,-0.45,0.82,-0.44,3.56,0.69,0.6815,-0.0904,-0.1118,-0.7175,$GPGGA,171954.000,4042.3011,N,07421.5580,W,1,08,0.96,96.0,M,-34.2,M,,*68
50,0,-0.74,-0.76,0.46,-1.00,3.81,0.62,0.6821,-0.0888,-0.1093,-0.7176,$GPGGA,171954.100,4042.3006,N,07421.5587,W,1,08,0.96,96.0,M,-34.2,M,,*68
51,0,-0.66,0.12,-0.52,2.12,0.69,0.56,0.6827,-0.0864,-0.1085,-0.7174,$GPGGA,171954.200,4042.3001,N,07421.5594,W,1,08,0.96,95.9,M,-34.2,M,,*64
52,0,-1.17,0.21,-0.23,1.75,-0.37,0.69,0.6833,-0.0851,-0.1096,-0.7169,$GPGGA,171954.300,4042.2996,N,07421.5601,W,1,08,0.96,95.9,M,-34.2,M,,*6C
53,0,-0.59,0.23,-0.52,-2.12,-1.06,0.31,0.6831,-0.0864,-0.1113,-0.7166,$GPGGA,171954.400,4042.2992,N,07421.5608,W,1,08,0.96,95.9,M,-34.2,M,,*66
54,1,-0.78,-0.60,0.51,-0.37,1.94,-0.31,0.6830,-0.0872,-0.1120,-0.7165,$GPGGA,171954.500,4042.2983,N,07421.5615,W,1,08,0.96,95.9,M,-34.2,M,,*6B
55,3,-1.40,-1.13,0.29,-1.50,2.69,-0.31,0.6832,-0.0862,-0.1110,-0.7166,$GPGGA,171954.600,4042.2977,N,07421.5622,W,1,08,0.96,95.9,M,-34.2,M,,*67
56,3,-0.87,-0.38,-0.09,3.75,-1.25,0.00,0.6833,-0.0846,-0.1115,-0.7166,$GPGGA,171954.700,4042.2964,N,07421.5633,W,1,08,0.96,95.8,M,-34.2,M,,*65
57,3,-1.06,-0.83,0.08,6.62,1.31,0.19,0.6838,-0.0816,-0.1129,-0.7162,$GPGGA,171954.800,4042.2950,N,07421.5645,W,1,08,0.96,95.8,M,-34.2,M,,*6C
58,3,-1.56,-0.83,0.05,2.19,-0.25,-0.25,0.6841,-0.0787,-0.1140,-0.7161,$GPGGA,171954.900,4042.2935,N,07421.5658,W,1,08,0.96,95.8,M,-34.2,M,,*62
59,3,-1.34,0.59,1.13,-0.06,-3.50,-0.56,0.6841,-0.0791,-0.1151,-0.7159,$GPGGA,171955.000,4042.2916,N,07421.5673,W,1,08,0.96,95.7,M,-34.2,M,,*6D
60,3,-0.95,-0.02,1.51,-6.31,-4.31,-0.88,0.6834,-0.0805,-0.1118,-0.7169,$GPGGA,171955.100,4042.2898,N,07421.5688,W,1,08,0.96,95.7,M,-34.2,M,,*6F
61,3,-1.09,-0.58,0.58,-4.56,-0.81,-0.62,0.6823,-0.0850,-0.1098,-0.7177,$GPGGA,171955.200,4042.2877,N,07421.5704,W,1,08,0.96,95.6,M,-34.2,M,,*69
62,3,-1.22,-0.52,-1.34,-1.19,4.62,-0.19,0.6822,-0.0858,-0.1055,-0.7184,$GPGGA,171955.300,4042.2860,N,07421.5719,W,1,08,0.98,95.5,M,-34.2,M,,*6F
63,3,-1.17,-0.92,-1.18,0.31,2.50,-0.25,0.6824,-0.0841,-0.1028,-0.7187,$GPGGA,171955.400,4042.2844,N,07421.5734,W,1,08,0.98,95.4,M,-34.2,M,,*60
64,3,-1.81,-0.77,0.23,3.25,0.19,-0.06,0.6827,-0.0817,-0.1041,-0.7186,$GPGGA,171955.500,4042.2829,N,07421.5747,W,1,08,0.98,95.3,M,-34.2,M,,*69
65,3,-1.48,-0.56,0.48,2.75,-1.44,0.19,0.6829,-0.0803,-0.1062,-0.7183,$GPGGA,171955.600,4042.2819,N,07421.5759,W,1,08,0.96,95.3,M,-34.2,M,,*68
66,3,-1.41,-0.62,-0.04,0.44,-1.44,-0.56,0.6830,-0.0794,-0.1079,-0.7180,$GPGGA,171955.700,4042.2810,N,07421.5770,W,1,08,0.96,95.2,M,-34.2,M,,*6A
67,3,-1.61,-0.29,0.39,-0.13,0.00,-0.44,0.6830,-0.0790,-0.1082,-0.7180,$GPGGA,171955.800,4042.2801,N,07421.5781,W,1,08,0.96,95.2,M,-34.2,M,,*6B
68,3,-1.37,-0.89,-0.69,-1.12,-0.25,-0.62,0.6829,-0.0793,-0.1075,-0.7181,$GPGGA,171955.900,4042.2792,N,07421.5791,W,1,08,0.98,95.2,M,-34.2,M,,*60
69,3,-1.47,-0.93,-0.37,-0.44,-0.19,-0.37,0.6829,-0.0797,-0.1070,-0.7183,$GPGGA,171956.000,4042.2783,N,07421.5802,W,1,08,0.98,95.2,M,-34.2,M,,*6F
70,3,-1.12,0.07,-0.02,-0.62,2.25,0.06,0.6830,-0.0792,-0.1064,-0.7183,$GPGGA,171956.100,4042.2773,N,07421.5812,W,1,08,0.98,95.1,M,-34.2,M,,*63
71,3,-1.83,-0.59,0.40,1.94,-0.75,0.31,0.6833,-0.0774,-0.1043,-0.7184,$GPGGA,171956.200,4042.2764,N,07421.5822,W,1,08,0.98,95.1,M,-34.2,M,,*65
72,3,-1.72,0.09,0.96,-1.25,-2.56,0.00,0.6830,-0.0792,-0.1058,-0.7183,$GPGGA,171956.300,4042.2756,N,07421.5832,W,1,08,0.98,95.1,M,-34.2,M,,*64
73,3,-1.59,-0.27,0.69,-0.88,0.56,0.31,0.6830,-0.0800,-0.1061,-0.7183,$GPGGA,171956.400,4042.2747,N,07421.5843,W,1,08,0.98,95.0,M,-34.2,M,,*64
74,3,-1.89,-0.14,-0.40,-0.50,1.81,0.00,0.6830,-0.0797,-0.1052,-0.7184,$GPGGA,171956.500,4042.2737,N,07421.5854,W,1,08,0.98,95.0,M,-34.2,M,,*64
75,3,-1.74,-0.82,-0.99,-0.13,0.81,0.06,0.6834,-0.0778,-0.1022,-0.7187,$GPGGA,171956.600,4042.2728,N,07421.5864,W,1,08,0.98,95.0,M,-34.2,M,,*6A
76,3,-1.67,-0.20,-0.22,0.81,0.44,0.31,0.6839,-0.0745,-0.0981,-0.7191,$GPGGA,171956.700,4042.2719,N,07421.5875,W,1,08,0.98,94.9,M,-34.2,M,,*61
77,3,-1.65,-0.54,0.23,1.37,0.44,0.31,0.6846,-0.0702,-0.0927,-0.7197,$GPGGA,171956.800,4042.2711,N,07421.5884,W,1,08,0.96,94.9,M,-34.2,M,,*66
78,3,-2.03,-0.26,0.16,0.62,1.25,0.37,0.6850,-0.0659,-0.0889,-0.7201,$GPGGA,171956.900,4042.2703,N,07421.5894,W,1,08,0.96,94.9,M,-34.2,M,,*65
79,2,-1.78,-0.33,0.76,0.94,-0.31,0.13,0.6851,-0.0654,-0.0893,-0.7200,$GPGGA,171957.000,4042.2695,N,07421.5904,W,1,08,0.98,94.9,M,-34.2,M,,*65
80,2,-1.94,-0.27,0.28,0.88,-0.25,0.25,0.6853,-0.0634,-0.0879,-0.7202,$GPGGA,171957.100,4042.2686,N,07421.5914,W,1,08,0.98,94.8,M,-34.2,M,,*66
81,2,-1.45,-0.11,-0.38,1.19,0.56,0.44,0.6864,-0.0521,-0.0760,-0.7214,$GPGGA,171957.200,4042.2678,N,07421.5924,W,1,08,0.98,94.8,M,-34.2,M,,*67
82,2,-1.01,-0.40,0.23,-0.06,-0.75,0.19,0.6873,-0.0389,-0.0623,-0.7227,$GPGGA,171957.300,4042.2669,N,07421.5934,W,1,08,0.98,94.8,M,-34.2,M,,*67
83,2,-0.87,0.50,-0.03,-0.25,0.19,0.13,0.6873,-0.0394,-0.0622,-0.7227,$GPGGA,171957.400,4042.2661,N,07421.5943,W,1,08,0.98,94.8,M,-34.2,M,,*68
84,2,-1.06,-0.73,0.31,-1.37,0.44,0.25,0.6872,-0.0399,-0.0616,-0.7227,$GPGGA,171957.500,4042.2653,N,07421.5953,W,1,08,0.98,94.8,M,-34.2,M,,*69
85,2,-0.96,0.19,-0.58,0.06,0.69,0.13,0.6872,-0.0403,-0.0612,-0.7228,$GPGGA,171957.600,4042.2645,N,07421.5963,W,1,08,0.96,94.7,M,-34.2,M,,*6F
86,2,-0.92,-0.46,-1.31,0.94,2.00,0.13,0.6873,-0.0394,-0.0612,-0.7228,$GPGGA,171957.700,4042.2637,N,07421.5972,W,1,08,0.96,94.7,M,-34.2,M,,*6B
87,2,-1.23,-0.14,-0.43,-0.31,1.44,0.69,0.6876,-0.0361,-0.0584,-0.7228,$GPGGA,171957.800,4042.2629,N,07421.5982,W,1,08,0.98,94.7,M,-34.2,M,,*6A
88,2,-0.80,0.30,0.81,-2.00,-1.94,0.44,0.6878,-0.0366,-0.0588,-0.7226,$GPGGA,171957.900,4042.2621,N,07421.5991,W,1,08,0.96,94.7,M,-34.2,M,,*6F
89,2,-1.01,-0.21,0.79,-3.69,-2.50,-0.19,0.6876,-0.0400,-0.0588,-0.7226,$GPGGA,171958.000,4042.2613,N,07421.6001,W,1,08,0.98,94.7,M,-34.2,M,,*65
90,3,-0.91,-0.01,0.41,-1.19,-0.56,0.06,0.6874,-0.0423,-0.0579,-0.7227,$GPGGA,171958.100,4042.2604,N,07421.6011,W,1,08,0.96,94.6,M,-34.2,M,,*6C
91,3,-0.89,-0.49,-0.22,-0.94,-0.13,0.31,0.6875,-0.0418,-0.0547,-0.7229,$GPGGA,171958.200,4042.2595,N,07421.6020,W,1,08,0.98,94.6,M,-34.2,M,,*68
92,3,-0.92,0.12,-0.38,0.88,0.19,0.50,0.6878,-0.0394,-0.0505,-0.7230,$GPGGA,171958.300,4042.2587,N,07421.6030,W,1,08,0.98,94.6,M,-34.2,M,,*6B
93,3,-0.40,0.11,-0.21,1.31,1.56,0.44,0.6879,-0.0383,-0.0510,-0.7230,$GPGGA,171958.400,4042.2578,N,07421.6039,W,1,08,0.98,94.6,M,-34.2,M,,*65
94,2,-0.85,-0.46,-1.06,2.25,0.44,0.06,0.6880,-0.0362,-0.0512,-0.7230,$GPGGA,171958.500,4042.2569,N,07421.6048,W,1,08,0.98,94.5,M,-34.2,M,,*61
95,2,-0.67,-0.65,0.38,4.75,-1.56,0.06,0.6882,-0.0337,-0.0522,-0.7228,$GPGGA,171958.600,4042.2561,N,07421.6057,W,1,08,0.96,94.5,M,-34.2,M,,*6A
96,2,-0.55,-0.30,-0.56,3.94,0.25,0.37,0.6884,-0.0317,-0.0553,-0.7226,$GPGGA,171958.700,4042.2552,N,07421.6066,W,1,08,0.96,94.5,M,-34.2,M,,*69
97,2,-0.47,-0.02,-0.20,1.44,0.31,-0.06,0.6884,-0.0301,-0.0566,-0.7225,$GPGGA,171958.800,4042.2544,N,07421.6075,W,1,08,0.96,94.5,M,-34.2,M,,*63
98,3,-0.44,0.40,-0.51,-1.00,0.44,-0.69,0.6882,-0.0284,-0.0557,-0.7228,$GPGGA,171958.900,4042.2536,N,07421.6085,W,1,08,0.98,94.5,M,-34.2,M,,*66
99,3,-0.40,-0.69,0.02,-2.31,-0.13,-0.81,0.6876,-0.0295,-0.0546,-0.7234,$GPGGA,171959.000,4042.2527,N,07421.6094,W,1,08,0.98,94.4,M,-34.2,M,,*6F
100,3,-0.47,-0.38,-0.11,-1.25,-1.06,-0.50,0.6874,-0.0306,-0.0521,-0.7238,$GPGGA,171959.100,4042.2518,N,07421.6103,W,1,08,0.98,94.4,M,-34.2,M,,*6D
101,3,-0.35,0.14,-0.14,-1.62,-1.06,-0.37,0.6874,-0.0320,-0.0515,-0.7238,$GPGGA,171959.200,4042.2509,N,07421.6113,W,1,08,0.98,94.4,M,-34.2,M,,*6F
102,3,-0.46,-0.73,0.09,1.12,2.44,-0.50,0.6874,-0.0314,-0.0511,-0.7238,$GPGGA,171959.300,4042.2500,N,07421.6122,W,1,08,0.98,94.3,M,-34.2,M,,*62
103,3,-0.76,-0.17,-1.11,1.19,2.12,-0.44,0.6876,-0.0293,-0.0491,-0.7239,$GPGGA,171959.400,4042.2492,N,07421.6131,W,1,08,0.98,94.3,M,-34.2,M,,*6D
104,3,-0.58,-0.40,1.37,0.37,-3.56,-0.56,0.6876,-0.0292,-0.0490,-0.7238,$GPGGA,171959.500,4042.2483,N,07421.6141,W,1,08,0.98,94.3,M,-34.2,M,,*6B
105,3,-0.37,-0.30,1.01,0.06,-3.87,-0.25,0.6876,-0.0303,-0.0497,-0.7238,$GPGGA,171959.600,4042.2475,N,07421.6150,W,1,08,0.96,94.3,M,-34.2,M,,*6F
106,3,-0.58,0.27,-0.51,-1.75,-1.87,-0.44,0.6874,-0.0318,-0.0514,-0.7237,$GPGGA,171959.700,4042.2467,N,07421.6159,W,1,08,0.96,94.3,M,-34.2,M,,*64
107,3,-0.53,-0.28,-0.81,-1.50,0.69,-0.69,0.6874,-0.0330,-0.0504,-0.7238,$GPGGA,171959.800,4042.2458,N,07421.6169,W,1,08,0.98,94.3,M,-34.2,M,,*6A
108,3,-0.36,0.33,-1.22,-2.31,2.12,-0.56,0.6873,-0.0340,-0.0477,-0.7240,$GPGGA,171959.900,4042.2450,N,07421.6178,W,1,08,0.96,94.2,M,-34.2,M,,*6C
109,3,-0.34,0.27,-0.19,-2.87,0.62,-0.44,0.6872,-0.0351,-0.0446,-0.7243,$GPGGA,172000.000,4042.2442,N,07421.6187,W,1,08,0.98,94.2,M,-34.2,M,,*6E
110,3,-0.49,-0.40,-0.47,-1.50,0.13,-0.31,0.6871,-0.0361,-0.0425,-0.7244,$GPGGA,172000.100,4042.2433,N,07421.6197,W,1,08,0.98,94.2,M,-34.2,M,,*68
111,3,-0.52,0.14,-0.47,-0.31,0.81,-0.06,0.6873,-0.0356,-0.0388,-0.7245,$GPGGA,172000.200,4042.2424,N,07421.6207,W,1,08,0.98,94.2,M,-34.2,M,,*67
112,3,-0.23,-0.75,-0.44,0.06,0.75,-0.50,0.6873,-0.0349,-0.0383,-0.7245,$GPGGA,172000.300,4042.2416,N,07421.6216,W,1,08,0.98,94.2,M,-34.2,M,,*67
113,3,-0.57,-0.34,-0.44,1.87,1.19,-0.25,0.6874,-0.0334,-0.0389,-0.7245,$GPGGA,172000.400,4042.2407,N,07421.6226,W,1,08,0.98,94.1,M,-34.2,M,,*60
114,3,-0.30,-0.34,-0.46,2.25,0.69,-0.06,0.6874,-0.0315,-0.0397,-0.7244,$GPGGA,172000.500,4042.2398,N,07421.6235,W,1,08,0.98,94.1,M,-34.2,M,,*62
115,3,-0.20,-0.37,0.12,1.25,-2.12,-0.25,0.6875,-0.0308,-0.0410,-0.7244,$GPGGA,172000.600,4042.2390,N,07421.6244,W,1,08,0.96,94.1,M,-34.2,M,,*61
116,3,0.00,0.07,0.05,-0.25,-0.69,-0.06,0.6875,-0.0309,-0.0416,-0.7244,$GPGGA,172000.700,4042.2381,N,07421.6253,W,1,08,0.98,94.1,M,-34.2,M,,*68
117,3,0.07,0.47,-1.28,-1.56,0.19,0.13,0.6875,-0.0309,-0.0411,-0.7244,$GPGGA,172000.800,4042.2372,N,07421.6262,W,1,08,0.98,94.1,M,-34.2,M,,*69
118,3,-0.38,-0.65,-0.19,-1.69,0.75,0.13,0.6875,-0.0307,-0.0399,-0.7244,$GPGGA,172000.900,4042.2363,N,07421.6271,W,1,08,0.98,94.1,M,-34.2,M,,*6A
119,3,-0.43,0.33,-0.44,0.44,-0.13,0.31,0.6875,-0.0305,-0.0392,-0.7245,$GPGGA,172001.000,4042.2355,N,07421.6280,W,1,08,0.98,94.0,M,-34.2,M,,*68
120,3,-0.36,-0.05,0.57,-0.44,-2.06,0.44,0.6874,-0.0313,-0.0398,-0.7244,$GPGGA,172001.100,4042.2346,N,07421.6289,W,1,08,0.98,94.0,M,-34.2,M,,*62
121,2,-0.24,0.77,0.20,-0.75,-0.94,0.37,0.6874,-0.0325,-0.0400,-0.7244,$GPGGA,172001.200,4042.2337,N,07421.6299,W,1,08,0.98,94.0,M,-34.2,M,,*66
122,2,-0.18,0.47,-0.84,-0.06,1.69,0.31,0.6874,-0.0328,-0.0391,-0.7245,$GPGGA,172001.300,4042.2329,N,07421.6308,W,1,08,0.98,94.0,M,-34.2,M,,*61
123,2,-0.16,-0.11,-1.35,-0.50,1.94,0.37,0.6874,-0.0316,-0.0378,-0.7245,$GPGGA,172001.400,4042.2320,N,07421.6317,W,1,08,0.98,94.0,M,-34.2,M,,*61
124,2,-0.44,-0.29,-0.55,3.87,0.94,0.50,0.6876,-0.0297,-0.0385,-0.7245,$GPGGA,172001.500,4042.2312,N,07421.6326,W,1,08,0.98,93.9,M,-34.2,M,,*6D
125,2,-0.27,-0.39,-0.17,2.94,-0.94,0.44,0.6876,-0.0281,-0.0402,-0.7244,$GPGGA,172001.600,4042.2303,N,07421.6335,W,1,08,0.96,93.9,M,-34.2,M,,*62
126,2,-0.65,0.23,0.53,0.19,-0.50,0.50,0.6879,-0.0275,-0.0419,-0.7241,$GPGGA,172001.700,4042.2295,N,07421.6345,W,1,08,0.96,93.9,M,-34.2,M,,*6A
127,2,-0.29,0.38,-0.02,-2.94,-2.00,-0.19,0.6878,-0.0294,-0.0419,-0.7241,$GPGGA,172001.800,4042.2287,N,07421.6355,W,1,08,0.98,93.9,M,-34.2,M,,*69
128,2,-0.35,-0.46,0.41,-4.06,-1.56,-0.44,0.6876,-0.0306,-0.0410,-0.7243,$GPGGA,172001.900,4042.2278,N,07421.6365,W,1,08,0.98,93.9,M,-34.2,M,,*6B
129,1,-0.40,0.03,-0.18,-1.87,0.94,0.19,0.6875,-0.0322,-0.0392,-0.7244,$GPGGA,172002.000,4042.2270,N,07421.6375,W,1,08,0.98,93.8,M,-34.2,M,,*69
130,1,-0.15,-0.37,-0.51,-0.94,1.31,0.44,0.6876,-0.0323,-0.0374,-0.7244,$GPGGA,172002.100,4042.2262,N,07421.6385,W,1,08,0.98,93.8,M,-34.2,M,,*64
131,1,-0.48,0.07,-0.50,0.69,-0.13,0.62,0.6878,-0.0319,-0.0370,-0.7242,$GPGGA,172002.200,4042.2253,N,07421.6394,W,1,08,0.98,93.8,M,-34.2,M,,*65
132,1,-0.26,0.47,-0.28,0.88,-0.75,0.56,0.6879,-0.0320,-0.0379,-0.7241,$GPGGA,172002.300,4042.2245,N,07421.6405,W,1,07,1.11,93.8,M,-34.2,M,,*63
133,0,-0.23,-0.05,0.19,2.37,0.37,0.88,0.6885,-0.0304,-0.0387,-0.7236,$GPGGA,172002.400,4042.2237,N,07421.6415,W,1,07,1.11,93.7,M,-34.2,M,,*6F
134,0,-0.48,0.66,-0.62,3.12,0.75,0.81,0.6891,-0.0287,-0.0399,-0.7230,$GPGGA,172002.500,4042.2229,N,07421.6425,W,1,07,1.11,93.7,M,-34.2,M,,*62
135,0,-0.20,0.64,-0.51,2.44,1.62,0.69,0.6896,-0.0266,-0.0411,-0.7225,$GPGGA,172002.600,4042.2221,N,07421.6436,W,1,07,1.11,93.7,M,-34.2,M,,*6B
136,0,-0.29,-0.16,-0.52,2.37,1.19,0.81,0.6902,-0.0242,-0.0415,-0.7220,$GPGGA,172002.700,4042.2212,N,07421.6446,W,1,07,1.11,93.7,M,-34.2,M,,*6D
137,1,-0.44,0.14,-0.31,1.56,-1.62,0.31,0.6903,-0.0226,-0.0428,-0.7219,$GPGGA,172002.800,4042.2204,N,07421.6455,W,1,07,1.11,93.7,M,-34.2,M,,*67
138,1,-0.54,-0.09,0.93,-0.37,-2.25,0.19,0.6902,-0.0230,-0.0445,-0.7218,$GPGGA,172002.900,4042.2195,N,07421.6465,W,1,07,1.11,93.6,M,-34.2,M,,*6F
139,1,0.02,0.26,0.90,-2.81,-0.94,-0.06,0.6902,-0.0252,-0.0443,-0.7219,$GPGGA,172003.000,4042.2187,N,07421.6475,W,1,07,1.10,93.6,M,-34.2,M,,*64
140,1,-0.08,0.10,-0.54,-3.69,0.56,-0.37,0.6901,-0.0274,-0.0421,-0.7220,$GPGGA,172003.100,4042.2178,N,07421.6485,W,1,07,1.11,93.6,M,-34.2,M,,*6B
141,1,-0.27,-0.66,-0.28,-2.25,1.44,-0.19,0.6900,-0.0287,-0.0397,-0.7221,$GPGGA,172003.200,4042.2168,N,07421.6495,W,1,07,1.11,93.5,M,-34.2,M,,*6B
142,1,-0.13,-0.32,-0.57,-0.44,1.75,0.13,0.6901,-0.0283,-0.0370,-0.7222,$GPGGA,172003.300,4042.2159,N,07421.6505,W,1,07,1.11,93.5,M,-34.2,M,,*60
143,1,-0.29,-0.12,-0.42,1.44,-0.13,0.31,0.6901,-0.0272,-0.0369,-0.7222,$GPGGA,172003.400,4042.2150,N,07421.6515,W,1,07,1.11,93.5,M,-34.2,M,,*6F
144,1,-0.24,0.28,-0.22,0.13,-1.00,0.00,0.6902,-0.0269,-0.0377,-0.7222,$GPGGA,172003.500,4042.2141,N,07421.6525,W,1,07,1.11,93.4,M,-34.2,M,,*6C
145,1,-0.22,0.25,0.11,-3.00,-1.50,-0.19,0.6901,-0.0287,-0.0374,-0.7222,$GPGGA,172003.600,4042.2133,N,07421.6535,W,1,07,1.10,93.4,M,-34.2,M,,*6A
146,1,-0.44,-0.18,-0.26,-3.06,-0.25,-0.44,0.6899,-0.0311,-0.0363,-0.7223,$GPGGA,172003.700,4042.2125,N,07421.6545,W,1,07,1.10,93.4,M,-34.2,M,,*6B
147,1,-0.17,-0.03,-0.79,-1.06,1.31,-0.13,0.6899,-0.0319,-0.0349,-0.7224,$GPGGA,172003.800,4042.2116,N,07421.6555,W,1,07,1.11,93.4,M,-34.2,M,,*64
148,1,-0.21,-0.22,-0.31,0.81,0.44,0.19,0.6900,-0.0314,-0.0334,-0.7224,$GPGGA,172003.900,4042.2108,N,07421.6565,W,1,07,1.11,93.4,M,-34.2,M,,*69
149,1,-0.50,0.05,0.54,1.44,0.00,0.06,0.6901,-0.0306,-0.0335,-0.7224,$GPGGA,172004.000,4042.2100,N,07421.6574,W,1,07,1.11,93.3,M,-34.2,M,,*68
150,1,-0.20,-0.24,0.09,-0.44,-0.62,-0.25,0.6901,-0.0310,-0.0339,-0.7223,$GPGGA,172004.100,4042.2091,N,07421.6584,W,1,07,1.11,93.3,M,-34.2,M,,*6F
151,1,0.02,-0.31,-0.11,0.62,0.75,-0.50,0.6901,-0.0308,-0.0336,-0.7224,$GPGGA,172004.200,4042.2083,N,07421.6593,W,1,07,1.11,93.3,M,-34.2,M,,*69
152,1,-0.28,-0.01,0.06,1.37,0.37,-0.06,0.6901,-0.0302,-0.0337,-0.7223,$GPGGA,172004.300,4042.2074,N,07421.6603,W,1,07,1.11,93.3,M,-34.2,M,,*6A
153,1,-0.12,-0.56,-0.77,0.69,-0.37,0.13,0.6902,-0.0293,-0.0339,-0.7223,$GPGGA,172004.400,4042.2066,N,07421.6612,W,1,07,1.11,93.3,M,-34.2,M,,*6E
154,1,-0.11,0.31,0.00,2.87,2.06,-0.13,0.6902,-0.0275,-0.0348,-0.7222,$GPGGA,172004.500,4042.2058,N,07421.6622,W,1,07,1.11,93.3,M,-34.2,M,,*61
155,1,0.15,-0.41,-0.65,3.31,-1.00,-0.19,0.6903,-0.0253,-0.0361,-0.7222,$GPGGA,172004.600,4042.2049,N,07421.6631,W,1,07,1.10,93.2,M,-34.2,M,,*60
156,1,-0.37,-0.20,0.72,3.62,-2.00,0.00,0.6904,-0.0240,-0.0393,-0.7220,$GPGGA,172004.700,4042.2041,N,07421.6641,W,1,07,1.10,93.2,M,-34.2,M,,*6E
157,1,-0.67,0.02,1.95,0.62,-5.06,0.19,0.6903,-0.0249,-0.0422,-0.7219,$GPGGA,172004.800,4042.2033,N,07421.6650,W,1,07,1.11,93.2,M,-34.2,M,,*65
158,2,-0.04,0.69,0.59,-2.06,-6.00,-0.13,0.6900,-0.0291,-0.0457,-0.7217,$GPGGA,172004.900,4042.2024,N,07421.6660,W,1,07,1.11,93.2,M,-34.2,M,,*61
159,2,-0.74,0.16,1.00,0.06,-0.19,-0.37,0.6899,-0.0312,-0.0447,-0.7218,$GPGGA,172005.000,4042.2016,N,07421.6669,W,1,07,1.11,93.2,M,-34.2,M,,*61
160,2,-0.29,-1.01,-1.21,-3.37,-2.62,-0.19,0.6898,-0.0332,-0.0440,-0.7219,$GPGGA,172005.100,4042.2008,N,07421.6679,W,1,07,1.11,93.2,M,-34.2,M,,*6E
161,1,-0.61,0.31,0.19,0.37,1.12,0.50,0.6898,-0.0333,-0.0443,-0.7219,$GPGGA,172005.200,4042.1999,N,07421.6688,W,1,07,1.11,93.2,M,-34.2,M,,*61
162,1,-0.32,0.15,-0.21,0.94,-1.37,0.25,0.6898,-0.0327,-0.0444,-0.7219,$GPGGA,172005.300,4042.1991,N,07421.6698,W,1,07,1.11,93.1,M,-34.2,M,,*6A
163,1,-0.16,0.41,-0.14,-0.50,-2.75,0.06,0.6898,-0.0336,-0.0461,-0.7217,$GPGGA,172005.400,4042.1982,N,07421.6707,W,1,07,1.11,93.1,M,-34.2,M,,*68
164,1,-0.25,0.55,0.21,0.56,-0.62,0.37,0.6897,-0.0349,-0.0463,-0.7217,$GPGGA,172005.500,4042.1974,N,07421.6716,W,1,07,1.11,93.1,M,-34.2,M,,*60
165,1,-0.11,-0.10,-1.02,-0.13,1.44,0.13,0.6898,-0.0345,-0.0457,-0.7218,$GPGGA,172005.600,4042.1965,N,07421.6726,W,1,07,1.10,93.1,M,-34.2,M,,*61
166,1,-0.75,0.58,-1.13,0.75,1.87,0.25,0.6898,-0.0325,-0.0453,-0.7218,$GPGGA,172005.700,4042.1957,N,07421.6735,W,1,07,1.10,93.1,M,-34.2,M,,*63
167,1,-0.43,0.14,-0.76,1.00,0.19,0.37,0.6899,-0.0315,-0.0453,-0.7218,$GPGGA,172005.800,4042.1948,N,07421.6745,W,1,07,1.10,93.0,M,-34.2,M,,*64
168,2,-0.57,-0.33,1.03,2.56,-1.00,0.44,0.6899,-0.0308,-0.0467,-0.7217,$GPGGA,172005.900,4042.1940,N,07421.6754,W,1,07,1.10,93.0,M,-34.2,M,,*6D
169,2,-0.60,0.06,0.05,1.62,-1.12,0.37,0.6901,-0.0300,-0.0488,-0.7215,$GPGGA,172006.000,4042.1932,N,07421.6764,W,1,07,1.10,93.0,M,-34.2,M,,*61
170,2,-0.27,-0.37,0.33,2.44,-0.13,0.37,0.6901,-0.0279,-0.0504,-0.7214,$GPGGA,172006.100,4042.1923,N,07421.6773,W,1,07,1.10,93.0,M,-34.2,M,,*66
171,2,-0.39,0.03,-0.01,0.50,-0.75,0.19,0.6902,-0.0257,-0.0509,-0.7214,$GPGGA,172006.200,4042.1914,N,07421.6783,W,1,07,1.11,92.9,M,-34.2,M,,*67
172,3,-0.35,0.79,0.44,-1.81,-2.06,0.31,0.6901,-0.0264,-0.0510,-0.7214,$GPGGA,172006.300,4042.1905,N,07421.6792,W,1,07,1.11,92.9,M,-34.2,M,,*66
173,3,-0.10,-0.16,0.54,-4.62,-3.37,0.00,0.6899,-0.0295,-0.0508,-0.7215,$GPGGA,172006.400,4042.1896,N,07421.6802,W,1,07,1.11,92.9,M,-34.2,M,,*6C
174,3,-0.26,0.42,-0.05,0.19,1.50,0.13,0.6899,-0.0301,-0.0501,-0.7216,$GPGGA,172006.500,4042.1887,N,07421.6812,W,1,07,1.11,92.8,M,-34.2,M,,*6D
175,3,-0.39,-0.21,-1.61,0.31,4.81,-0.13,0.6899,-0.0293,-0.0475,-0.7217,$GPGGA,172006.600,4042.1879,N,07421.6821,W,1,07,1.10,92.8,M,-34.2,M,,*6E
176,3,-0.25,-0.65,-1.24,0.19,3.06,0.00,0.6901,-0.0261,-0.0458,-0.7217,$GPGGA,172006.700,4042.1871,N,07421.6831,W,1,07,1.10,92.8,M,-34.2,M,,*66
177,3,-0.50,0.25,-0.32,1.94,-0.56,0.13,0.6902,-0.0241,-0.0469,-0.7217,$GPGGA,172006.800,4042.1863,N,07421.6840,W,1,07,1.11,92.8,M,-34.2,M,,*6D
178,3,-0.50,-0.17,1.27,-2.19,-2.87,-0.44,0.6901,-0.0261,-0.0480,-0.7216,$GPGGA,172006.900,4042.1854,N,07421.6850,W,1,07,1.10,92.8,M,-34.2,M,,*68
179,3,-0.41,-0.52,1.69,-2.94,-2.87,-1.25,0.6893,-0.0302,-0.0479,-0.7223,$GPGGA,172007.000,4042.1846,N,07421.6860,W,1,07,1.11,92.8,M,-34.2,M,,*61
180,3,-0.41,-0.37,-0.06,-2.25,1.25,-1.19,0.6884,-0.0320,-0.0467,-0.7231,$GPGGA,172007.100,4042.1838,N,07421.6870,W,1,07,1.11,92.8,M,-34.2,M,,*68
181,3,-0.22,-0.77,-0.67,-1.62,1.00,-0.81,0.6878,-0.0325,-0.0447,-0.7238,$GPGGA,172007.200,4042.1830,N,07421.6879,W,1,07,1.11,92.8,M,-34.2,M,,*6A
182,3,-0.23,-0.38,-0.10,-0.19,-0.69,-0.56,0.6876,-0.0341,-0.0411,-0.7241,$GPGGA,172007.300,4042.1822,N,07421.6889,W,1,07,1.11,92.8,M,-34.2,M,,*67
183,2,-0.28,0.19,0.00,1.50,-0.44,-0.75,0.6873,-0.0341,-0.0410,-0.7244,$GPGGA,172007.400,4042.1813,N,07421.6899,W,1,07,1.10,92.7,M,-34.2,M,,*6D
184,2,-0.22,-0.62,0.36,-0.88,-0.25,-1.00,0.6868,-0.0342,-0.0410,-0.7249,$GPGGA,172007.500,4042.1805,N,07421.6909,W,1,07,1.11,92.7,M,-34.2,M,,*62
185,2,-0.38,-0.01,-0.39,-0.25,1.00,-1.12,0.6862,-0.0341,-0.0410,-0.7255,$GPGGA,172007.600,4042.1797,N,07421.6919,W,1,07,1.10,92.7,M,-34.2,M,,*65
186,2,-0.03,0.25,0.18,-0.75,0.56,-0.69,0.6856,-0.0340,-0.0410,-0.7260,$GPGGA,172007.700,4042.1788,N,07421.6929,W,1,07,1.10,92.6,M,-34.2,M,,*68
187,2,-0.03,-0.86,-0.98,-1.56,0.50,-0.62,0.6851,-0.0342,-0.0403,-0.7265,$GPGGA,172007.800,4042.1780,N,07421.6939,W,1,07,1.11,92.6,M,-34.2,M,,*6F
188,2,-0.41,-0.27,-0.54,0.00,0.94,-0.94,0.6846,-0.0340,-0.0394,-0.7271,$GPGGA,172007.900,4042.1772,N,07421.6949,W,1,07,1.11,92.6,M,-34.2,M,,*64
189,2,-0.16,-1.11,0.21,-1.19,0.56,-0.94,0.6840,-0.0342,-0.0389,-0.7276,$GPGGA,172008.000,4042.1764,N,07421.6958,W,1,07,1.11,92.6,M,-34.2,M,,*65
190,2,-0.40,-0.23,-0.22,-0.31,0.50,-0.81,0.6835,-0.0341,-0.0386,-0.7281,$GPGGA,172008.100,4042.1756,N,07421.6967,W,1,07,1.11,92.5,M,-34.2,M,,*6A
191,2,-0.35,-0.26,0.05,1.81,-1.56,-0.94,0.6829,-0.0341,-0.0392,-0.7287,$GPGGA,172008.200,4042.1747,N,07421.6977,W,1,07,1.11,92.5,M,-34.2,M,,*68
192,2,0.11,-0.46,0.19,2.00,-1.31,-1.19,0.6823,-0.0345,-0.0393,-0.7292,$GPGGA,172008.300,4042.1739,N,07421.6987,W,1,07,1.11,92.5,M,-34.2,M,,*6F
193,2,-0.27,0.08,-0.98,1.25,0.69,-1.31,0.6816,-0.0337,-0.0403,-0.7299,$GPGGA,172008.400,4042.1731,N,07421.6997,W,1,07,1.11,92.5,M,-34.2,M,,*61
194,2,-0.12,0.08,-0.63,0.62,1.25,-1.62,0.6808,-0.0328,-0.0403,-0.7307,$GPGGA,172008.500,4042.1723,N,07421.7006,W,1,07,1.11,92.5,M,-34.2,M,,*63
195,2,-0.29,-0.98,-0.56,0.00,0.75,-2.06,0.6796,-0.0322,-0.0396,-0.7318,$GPGGA,172008.600,4042.1715,N,07421.7016,W,1,07,1.10,92.4,M,-34.2,M,,*64
196,2,-0.35,-0.18,-0.22,-0.31,-0.37,-2.44,0.6784,-0.0338,-0.0357,-0.7331,$GPGGA,172008.700,4042.1707,N,07421.7026,W,1,08,0.97,92.4,M,-34.2,M,,*64
197,2,-0.29,-1.03,-0.14,-1.81,-1.37,-2.37,0.6769,-0.0351,-0.0356,-0.7344,$GPGGA,172008.800,4042.1699,N,07421.7035,W,1,08,0.98,92.4,M,-34.2,M,,*60
198,2,-0.24,-0.74,0.10,-0.88,-0.94,-2.37,0.6755,-0.0372,-0.0327,-0.7357,$GPGGA,172008.900,4042.1691,N,07421.7045,W,1,08,0.98,92.4,M,-34.2,M,,*6E
199,2,-0.25,-0.30,-0.22,-0.44,0.37,-2.31,0.6740,-0.0380,-0.0310,-0.7371,$GPGGA,172009.000,4042.1683,N,07421.7055,W,1,08,0.98,92.4,M,-34.2,M,,*64
200,2,0.11,-1.18,-0.36,-0.19,0.00,-2.50,0.6725,-0.0380,-0.0305,-0.7385,$GPGGA,172009.100,4042.1676,N,07421.7065,W,1,08,0.98,92.4,M,-34.2,M,,*6C
201,2,-0.30,-0.41,-0.75,0.69,-0.06,-2.37,0.6711,-0.0376,-0.0307,-0.7398,$GPGGA,172009.200,4042.1668,N,07421.7075,W,1,08,0.98,92.4,M,-34.2,M,,*61
202,2,0.12,-0.05,-0.55,-0.06,-0.88,-2.44,0.6697,-0.0385,-0.0291,-0.7411,$GPGGA,172009.300,4042.1660,N,07421.7085,W,1,08,0.98,92.4,M,-34.2,M,,*67
203,2,-0.13,-0.75,0.23,0.31,-0.50,-2.37,0.6682,-0.0386,-0.0294,-0.7424,$GPGGA,172009.400,4042.1652,N,07421.7095,W,1,08,0.98,92.4,M,-34.2,M,,*60
204,3,-0.58,-0.14,0.10,-0.31,-0.44,-2.56,0.6666,-0.0394,-0.0288,-0.7438,$GPGGA,172009.500,4042.1644,N,07421.7105,W,1,08,0.98,92.3,M,-34.2,M,,*69
205,3,-0.23,-0.93,0.22,-0.50,-0.37,-2.56,0.6650,-0.0399,-0.0288,-0.7452,$GPGGA,172009.600,4042.1636,N,07421.7115,W,1,08,0.97,92.3,M,-34.2,M,,*61
206,3,-0.19,-0.73,-0.38,-0.19,0.31,-2.31,0.6635,-0.0412,-0.0252,-0.7466,$GPGGA,172009.700,4042.1628,N,07421.7125,W,1,08,0.97,92.3,M,-34.2,M,,*6C
207,3,-0.18,-0.23,-0.33,-0.44,0.31,-2.19,0.6621,-0.0414,-0.0246,-0.7479,$GPGGA,172009.800,4042.1620,N,07421.7135,W,1,08,0.96,92.3,M,-34.2,M,,*6B
208,3,0.01,-0.78,-0.35,-0.06,0.75,-2.44,0.6607,-0.0423,-0.0227,-0.7491,$GPGGA,172009.900,4042.1613,N,07421.7145,W,1,08,0.96,92.3,M,-34.2,M,,*6D
209,3,-0.20,-0.47,-0.31,1.31,0.62,-2.19,0.6593,-0.0426,-0.0209,-0.7504,$GPGGA,172010.000,4042.1605,N,07421.7155,W,1,08,0.98,92.2,M,-34.2,M,,*65
210,3,-0.05,-0.26,-0.36,2.00,-0.56,-1.62,0.6583,-0.0430,-0.0200,-0.7513,$GPGGA,172010.100,4042.1597,N,07421.7166,W,1,08,0.98,92.2,M,-34.2,M,,*6C
211,3,-0.10,-0.59,-0.12,1.94,-1.25,-1.37,0.6574,-0.0422,-0.0211,-0.7521,$GPGGA,172010.200,4042.1589,N,07421.7176,W,1,08,0.98,92.2,M,-34.2,M,,*61
212,3,-0.13,0.33,0.45,0.81,-1.44,-1.44,0.6566,-0.0420,-0.0226,-0.7527,$GPGGA,172010.300,4042.1581,N,07421.7187,W,1,08,0.98,92.2,M,-34.2,M,,*66
213,3,0.21,-0.46,0.22,-0.56,-0.31,-1.69,0.6555,-0.0425,-0.0232,-0.7537,$GPGGA,172010.400,4042.1573,N,07421.7197,W,1,08,0.98,92.2,M,-34.2,M,,*6D
214,3,-0.17,-0.25,-0.22,-1.12,1.00,-1.69,0.6543,-0.0425,-0.0228,-0.7547,$GPGGA,172010.500,4042.1565,N,07421.7208,W,1,08,0.98,92.2,M,-34.2,M,,*6E
215,3,-0.04,0.33,-0.96,-0.37,0.75,-1.56,0.6533,-0.0424,-0.0217,-0.7557,$GPGGA,172010.600,4042.1558,N,07421.7218,W,1,08,0.96,92.2,M,-34.2,M,,*6C
216,3,-0.33,-0.29,-0.44,0.37,0.50,-1.31,0.6523,-0.0424,-0.0214,-0.7565,$GPGGA,172010.700,4042.1550,N,07421.7228,W,1,08,0.97,92.2,M,-34.2,M,,*67
217,3,-0.52,0.46,-0.01,0.62,1.19,-1.19,0.6515,-0.0420,-0.0212,-0.7572,$GPGGA,172010.800,4042.1542,N,07421.7238,W,1,08,0.98,92.2,M,-34.2,M,,*65
218,3,-0.05,0.23,-0.59,0.50,1.19,-1.50,0.6506,-0.0413,-0.0216,-0.7580,$GPGGA,172010.900,4042.1534,N,07421.7248,W,1,08,0.98,92.2,M,-34.2,M,,*62
219,2,-0.29,-0.45,-0.37,-1.00,-0.69,-1.37,0.6497,-0.0414,-0.0214,-0.7588,$GPGGA,172011.000,4042.1527,N,07421.7258,W,1,08,0.98,92.2,M,-34.2,M,,*69
220,2,0.11,0.15,0.21,-0.69,-0.13,-1.25,0.6489,-0.0419,-0.0215,-0.7595,$GPGGA,172011.100,4042.1519,N,07421.7269,W,1,08,0.98,92.2,M,-34.2,M,,*67
221,2,0.24,-0.37,-0.29,0.31,0.50,-1.25,0.6480,-0.0421,-0.0215,-0.7602,$GPGGA,172011.200,4042.1511,N,07421.7279,W,1,08,0.98,92.2,M,-34.2,M,,*6D
222,2,-0.04,-0.15,0.06,0.62,-0.13,-0.69,0.6474,-0.0421,-0.0217,-0.7607,$GPGGA,172011.300,4042.1503,N,07421.7290,W,1,08,0.98,92.2,M,-34.2,M,,*68
223,2,-0.04,0.45,-0.51,0.69,0.13,-0.31,0.6473,-0.0417,-0.0220,-0.7608,$GPGGA,172011.400,4042.1496,N,07421.7300,W,1,08,0.98,92.2,M,-34.2,M,,*6A
224,2,-0.11,0.18,0.25,-0.88,-1.06,-0.19,0.6473,-0.0420,-0.0225,-0.7608,$GPGGA,172011.500,4042.1488,N,07421.7311,W,1,08,0.98,92.2,M,-34.2,M,,*64
225,2,-0.12,0.66,0.45,-1.50,-0.13,-0.19,0.6472,-0.0422,-0.0225,-0.7608,$GPGGA,172011.600,4042.1480,N,07421.7322,W,1,08,0.97,92.2,M,-34.2,M,,*60
226,2,-0.04,0.24,-0.37,-1.12,1.50,-0.13,0.6472,-0.0425,-0.0211,-0.7609,$GPGGA,172011.700,4042.1473,N,07421.7332,W,1,08,0.97,92.2,M,-34.2,M,,*6C
227,2,-0.10,-0.13,-0.66,-0.25,1.81,-0.19,0.6472,-0.0416,-0.0201,-0.7610,$GPGGA,172011.800,4042.1465,N,07421.7342,W,1,08,0.97,92.2,M,-34.2,M,,*63
228,3,0.08,0.48,-1.08,1.75,0.31,0.25,0.6472,-0.0402,-0.0204,-0.7610,$GPGGA,172011.900,4042.1458,N,07421.7353,W,1,08,0.97,92.2,M,-34.2,M,,*6C
229,3,-0.12,-0.04,0.16,1.94,-1.00,0.37,0.6473,-0.0391,-0.0219,-0.7609,$GPGGA,172012.000,4042.1450,N,07421.7363,W,1,08,0.97,92.2,M,-34.2,M,,*6D
230,3,-0.06,0.63,0.05,0.13,-2.12,0.19,0.6473,-0.0395,-0.0234,-0.7609,$GPGGA,172012.100,4042.1443,N,07421.7374,W,1,08,0.98,92.2,M,-34.2,M,,*67
231,3,0.07,0.58,-0.16,-0.81,-1.81,-0.06,0.6472,-0.0410,-0.0242,-0.7608,$GPGGA,172012.200,4042.1435,N,07421.7384,W,1,08,0.98,92.2,M,-34.2,M,,*6A
232,3,-0.24,-0.18,0.44,-0.25,0.69,-0.06,0.6472,-0.0410,-0.0246,-0.7608,$GPGGA,172012.300,4042.1428,N,07421.7395,W,1,08,0.98,92.3,M,-34.2,M,,*66
233,3,-0.20,0.31,-0.90,1.12,1.44,0.44,0.6472,-0.0400,-0.0239,-0.7609,$GPGGA,172012.400,4042.1420,N,07421.7405,W,1,08,0.98,92.3,M,-34.2,M,,*67
234,3,-0.13,0.52,-0.26,1.06,0.81,0.31,0.6473,-0.0381,-0.0247,-0.7609,$GPGGA,172012.500,4042.1413,N,07421.7416,W,1,08,0.98,92.3,M,-34.2,M,,*64
235,3,0.00,0.00,-0.78,3.37,1.31,0.44,0.6474,-0.0359,-0.0264,-0.7609,$GPGGA,172012.600,4042.1405,N,07421.7427,W,1,08,0.98,92.3,M,-34.2,M,,*62
236,3,0.24,0.47,-0.76,5.69,0.69,0.69,0.6477,-0.0325,-0.0286,-0.7607,$GPGGA,172012.700,4042.1398,N,07421.7438,W,1,08,0.98,92.3,M,-34.2,M,,*6E
237,3,-0.09,0.10,0.21,5.56,0.25,0.56,0.6478,-0.0294,-0.0321,-0.7606,$GPGGA,172012.800,4042.1391,N,07421.7449,W,1,08,0.98,92.4,M,-34.2,M,,*69
238,3,-0.50,0.84,0.60,-0.75,-4.25,0.31,0.6478,-0.0292,-0.0349,-0.7604,$GPGGA,172012.900,4042.1383,N,07421.7460,W,1,08,0.98,92.4,M,-34.2,M,,*60
239,3,-0.17,1.64,3.42,-9.94,-13.19,-0.75,0.6474,-0.0361,-0.0377,-0.7604,$GPGGA,172013.000,4042.1376,N,07421.7471,W,1,08,0.98,92.4,M,-34.2,M,,*62
240,3,0.00,0.73,1.81,-6.44,-6.12,-0.81,0.6462,-0.0471,-0.0383,-0.7607,$GPGGA,172013.100,4042.1369,N,07421.7481,W,1,08,0.98,92.4,M,-34.2,M,,*62
241,3,-0.24,-0.23,-1.10,-3.69,7.19,0.75,0.6460,-0.0492,-0.0331,-0.7610,$GPGGA,172013.200,4042.1361,N,07421.7492,W,1,08,0.97,92.4,M,-34.2,M,,*64
242,2,-0.53,-0.23,-3.32,-0.25,10.00,1.12,0.6468,-0.0438,-0.0263,-0.7609,$GPGGA,172013.300,4042.1354,N,07421.7502,W,1,08,0.98,92.4,M,-34.2,M,,*64
243,2,-0.37,0.54,-2.07,1.31,0.94,1.00,0.6477,-0.0394,-0.0250,-0.7605,$GPGGA,172013.400,4042.1347,N,07421.7513,W,1,08,0.98,92.5,M,-34.2,M,,*60
244,2,-0.39,0.38,1.41,1.06,-3.69,0.81,0.6482,-0.0402,-0.0267,-0.7599,$GPGGA,172013.500,4042.1340,N,07421.7523,W,1,08,0.98,92.5,M,-34.2,M,,*65
245,2,-0.32,1.16,2.06,2.06,-4.69,1.06,0.6487,-0.0423,-0.0301,-0.7593,$GPGGA,172013.600,4042.1333,N,07421.7533,W,1,08,0.97,92.5,M,-34.2,M,,*6C
246,2,0.02,1.44,0.94,-0.37,-2.19,1.56,0.6495,-0.0443,-0.0322,-0.7584,$GPGGA,172013.700,4042.1326,N,07421.7544,W,1,08,0.97,92.5,M,-34.2,M,,*69
247,2,-0.17,0.79,-0.50,-1.69,1.44,1.37,0.6505,-0.0450,-0.0313,-0.7576,$GPGGA,172013.800,4042.1319,N,07421.7554,W,1,08,0.98,92.5,M,-34.2,M,,*64
248,2,-0.46,0.73,-0.77,-1.50,-0.56,1.19,0.6511,-0.0447,-0.0307,-0.7570,$GPGGA,172013.900,4042.1311,N,07421.7564,W,1,08,0.98,92.5,M,-34.2,M,,*6E
249,2,-0.42,0.58,0.14,-1.56,-1.44,1.31,0.6517,-0.0454,-0.0309,-0.7565,$GPGGA,172014.000,4042.1304,N,07421.7575,W,1,08,0.98,92.6,M,-34.2,M,,*67
250,2,-0.31,0.43,-0.01,1.50,-0.13,1.50,0.6525,-0.0456,-0.0311,-0.7557,$GPGGA,172014.100,4042.1297,N,07421.7585,W,1,08,0.98,92.6,M,-34.2,M,,*62
251,2,-0.09,0.68,0.81,0.06,-2.75,1.69,0.6535,-0.0432,-0.0328,-0.7550,$GPGGA,172014.200,4042.1289,N,07421.7596,W,1,08,0.98,92.6,M,-34.2,M,,*6C
252,2,-0.06,0.53,0.93,-0.69,-4.62,1.12,0.6542,-0.0458,-0.0351,-0.7541,$GPGGA,172014.300,4042.1282,N,07421.7606,W,1,08,0.98,92.6,M,-34.2,M,,*6C
253,1,-0.24,1.10,-0.31,-2.94,-1.56,0.94,0.6548,-0.0483,-0.0360,-0.7534,$GPGGA,172014.400,4042.1274,N,07421.7616,W,1,08,0.98,92.6,M,-34.2,M,,*63
254,1,0.11,0.89,0.18,-0.75,0.75,0.81,0.6553,-0.0494,-0.0352,-0.7529,$GPGGA,172014.500,4042.1267,N,07421.7626,W,1,08,0.98,92.7,M,-34.2,M,,*62
255,1,-0.67,0.40,-0.25,0.25,1.50,1.44,0.6561,-0.0483,-0.0343,-0.7523,$GPGGA,172014.600,4042.1259,N,07421.7636,W,1,08,0.97,92.7,M,-34.2,M,,*62
256,2,-0.46,1.45,-0.04,3.94,-2.06,1.50,0.6571,-0.0479,-0.0349,-0.7515,$GPGGA,172014.700,4042.1252,N,07421.7647,W,1,08,0.98,92.7,M,-34.2,M,,*61
257,2,0.05,0.58,1.80,-0.94,-3.56,1.19,0.6579,-0.0494,-0.0366,-0.7506,$GPGGA,172014.800,4042.1245,N,07421.7657,W,1,08,0.98,92.7,M,-34.2,M,,*69
258,2,-0.47,0.62,0.41,-0.94,-1.37,1.50,0.6586,-0.0519,-0.0370,-0.7498,$GPGGA,172014.900,4042.1237,N,07421.7667,W,1,08,0.98,92.7,M,-34.2,M,,*6E
259,2,0.00,0.74,0.05,-5.00,-0.81,1.50,0.6594,-0.0541,-0.0356,-0.7490,$GPGGA,172015.000,4042.1230,N,07421.7678,W,1,08,0.98,92.7,M,-34.2,M,,*6F
260,2,-0.02,0.36,-0.48,-1.06,-2.87,1.31,0.6602,-0.0568,-0.0350,-0.7482,$GPGGA,172015.100,4042.1222,N,07421.7688,W,1,08,0.98,92.8,M,-34.2,M,,*6D
261,2,-0.47,0.66,-1.59,-2.12,1.81,1.81,0.6611,-0.0576,-0.0345,-0.7473,$GPGGA,172015.200,4042.1215,N,07421.7698,W,1,08,0.98,92.8,M,-34.2,M,,*6B
262,1,-0.05,0.63,-0.93,4.31,-0.25,1.81,0.6625,-0.0562,-0.0347,-0.7462,$GPGGA,172015.300,4042.1208,N,07421.7707,W,1,08,0.98,92.8,M,-34.2,M,,*61
263,1,-0.46,0.45,0.33,0.94,-1.44,1.75,0.6638,-0.0553,-0.0366,-0.7451,$GPGGA,172015.400,4042.1200,N,07421.7717,W,1,08,0.98,92.8,M,-34.2,M,,*6F
264,1,-0.03,1.17,0.24,0.88,-1.06,1.50,0.6647,-0.0556,-0.0379,-0.7440,$GPGGA,172015.500,4042.1193,N,07421.7727,W,1,08,0.98,92.8,M,-34.2,M,,*64
265,1,-0.30,0.68,-0.12,-1.44,-0.75,1.31,0.6655,-0.0565,-0.0382,-0.7432,$GPGGA,172015.600,4042.1186,N,07421.7737,W,1,08,0.97,92.9,M,-34.2,M,,*6C
266,1,0.12,0.55,0.14,-2.44,-1.00,1.31,0.6661,-0.0571,-0.0385,-0.7427,$GPGGA,172015.700,4042.1178,N,07421.7747,W,1,08,0.97,92.9,M,-34.2,M,,*6B
267,1,-0.08,1.06,-0.46,-1.25,0.31,1.19,0.6667,-0.0579,-0.0378,-0.7421,$GPGGA,172015.800,4042.1171,N,07421.7756,W,1,08,0.98,92.9,M,-34.2,M,,*62
268,1,0.09,0.75,0.38,1.69,2.75,1.12,0.6674,-0.0579,-0.0361,-0.7416,$GPGGA,172015.900,4042.1164,N,07421.7766,W,1,08,0.97,92.9,M,-34.2,M,,*6B
269,1,0.00,0.28,-1.00,-0.75,1.00,1.00,0.6681,-0.0565,-0.0349,-0.7411,$GPGGA,172016.000,4042.1157,N,07421.7775,W,1,08,0.97,92.9,M,-34.2,M,,*63
270,0,0.09,0.20,-0.86,2.00,-0.81,1.12,0.6689,-0.0551,-0.0359,-0.7404,$GPGGA,172016.100,4042.1150,N,07421.7785,W,1,08,0.98,93.0,M,-34.2,M,,*6D
271,0,0.14,0.39,0.87,2.56,-2.12,0.94,0.6696,-0.0552,-0.0381,-0.7397,$GPGGA,172016.200,4042.1142,N,07421.7794,W,1,08,0.98,93.0,M,-34.2,M,,*6D
272,0,0.00,0.23,-0.21,0.56,-0.62,0.75,0.6700,-0.0539,-0.0416,-0.7392,$GPGGA,172016.300,4042.1135,N,07421.7804,W,1,08,0.98,93.0,M,-34.2,M,,*6A
273,0,0.14,0.43,-2.29,-1.12,0.31,0.37,0.6702,-0.0541,-0.0416,-0.7390,$GPGGA,172016.400,4042.1128,N,07421.7814,W,1,08,0.98,93.0,M,-34.2,M,,*60
274,0,0.43,0.68,-1.32,-3.06,0.25,-0.31,0.6702,-0.0547,-0.0409,-0.7391,$GPGGA,172016.500,4042.1121,N,07421.7823,W,1,08,0.98,93.1,M,-34.2,M,,*6D
275,0,-0.01,0.15,-0.07,-2.56,0.25,-0.19,0.6699,-0.0555,-0.0385,-0.7394,$GPGGA,172016.600,4042.1113,N,07421.7833,W,1,08,0.97,93.1,M,-34.2,M,,*61
276,1,-0.18,0.76,0.31,-1.06,-1.69,0.25,0.6698,-0.0574,-0.0374,-0.7394,$GPGGA,172016.700,4042.1106,N,07421.7843,W,1,08,0.97,93.1,M,-34.2,M,,*63
277,1,0.03,0.38,0.20,0.50,-0.50,0.00,0.6697,-0.0588,-0.0374,-0.7394,$GPGGA,172016.800,4042.1098,N,07421.7853,W,1,08,0.97,93.1,M,-34.2,M,,*6B
278,2,-0.01,-0.43,0.86,0.25,-0.37,-0.06,0.6697,-0.0587,-0.0378,-0.7394,$GPGGA,172016.900,4042.1091,N,07421.7863,W,1,08,0.98,93.2,M,-34.2,M,,*6C
279,2,0.01,0.54,-1.03,-0.69,0.25,0.00,0.6697,-0.0589,-0.0375,-0.7394,$GPGGA,172017.000,4042.1083,N,07421.7873,W,1,08,0.98,93.2,M,-34.2,M,,*66
280,2,0.11,0.30,0.27,-0.62,0.94,-0.06,0.6697,-0.0590,-0.0365,-0.7394,$GPGGA,172017.100,4042.1075,N,07421.7883,W,1,08,0.98,93.2,M,-34.2,M,,*61
281,2,-0.15,0.09,-0.26,-0.94,0.37,0.00,0.6696,-0.0587,-0.0354,-0.7395,$GPGGA,172017.200,4042.1068,N,07421.7893,W,1,08,0.98,93.2,M,-34.2,M,,*6F
282,2,-0.06,0.73,-0.04,0.75,-1.87,0.25,0.6696,-0.0591,-0.0360,-0.7395,$GPGGA,172017.300,4042.1060,N,07421.7903,W,1,08,0.98,93.2,M,-34.2,M,,*6E
283,2,0.14,-0.23,0.05,1.50,-0.56,0.00,0.6697,-0.0590,-0.0377,-0.7394,$GPGGA,172017.400,4042.1053,N,07421.7912,W,1,08,0.98,93.3,M,-34.2,M,,*68
284,2,0.01,0.58,-0.33,3.06,1.19,0.31,0.6698,-0.0569,-0.0391,-0.7393,$GPGGA,172017.500,4042.1045,N,07421.7922,W,1,08,0.98,93.3,M,-34.2,M,,*6D
285,2,-0.25,0.50,-0.10,1.56,-0.06,0.06,0.6699,-0.0551,-0.0398,-0.7393,$GPGGA,172017.600,4042.1037,N,07421.7931,W,1,08,0.97,93.3,M,-34.2,M,,*66
286,2,0.02,-0.09,0.02,-0.69,-1.12,-0.19,0.6699,-0.0539,-0.0411,-0.7393,$GPGGA,172017.700,4042.1030,N,07421.7941,W,1,08,0.97,93.4,M,-34.2,M,,*60
287,2,-0.15,0.62,0.08,-0.94,-0.81,-0.31,0.6699,-0.0547,-0.0414,-0.7393,$GPGGA,172017.800,4042.1022,N,07421.7951,W,1,08,0.98,93.4,M,-34.2,M,,*62
288,2,-0.09,-0.25,-0.82,-1.12,1.12,0.13,0.6698,-0.0549,-0.0408,-0.7394,$GPGGA,172017.900,4042.1014,N,07421.7960,W,1,08,0.98,93.4,M,-34.2,M,,*64
289,2,0.12,-0.15,-0.73,0.75,1.31,0.19,0.6699,-0.0538,-0.0397,-0.7394,$GPGGA,172018.000,4042.1006,N,07421.7970,W,1,08,0.98,93.4,M,-34.2,M,,*60
290,2,-0.11,0.72,0.14,1.06,-0.62,0.06,0.6699,-0.0535,-0.0396,-0.7395,$GPGGA,172018.100,4042.0999,N,07421.7980,W,1,08,0.98,93.5,M,-34.2,M,,*61
291,2,0.16,0.76,-0.15,-1.06,-1.19,0.19,0.6698,-0.0548,-0.0399,-0.7394,$GPGGA,172018.200,4042.0991,N,07421.7990,W,1,08,0.98,93.5,M,-34.2,M,,*6B
292,2,-0.29,0.12,0.09,-1.31,-0.25,0.25,0.6697,-0.0555,-0.0400,-0.7394,$GPGGA,172018.300,4042.0983,N,07421.8000,W,1,08,0.98,93.5,M,-34.2,M,,*66
293,2,0.07,0.48,-0.56,0.62,-0.25,0.31,0.6697,-0.0554,-0.0401,-0.7394,$GPGGA,172018.400,4042.0976,N,07421.8010,W,1,08,0.98,93.5,M,-34.2,M,,*6A
294,3,0.13,0.06,-0.40,0.31,0.13,0.37,0.6697,-0.0552,-0.0402,-0.7394,$GPGGA,172018.500,4042.0968,N,07421.8019,W,1,08,0.98,93.5,M,-34.2,M,,*6D
295,3,-0.36,0.45,-0.39,1.12,1.31,0.25,0.6699,-0.0541,-0.0406,-0.7394,$GPGGA,172018.600,4042.0960,N,07421.8029,W,1,08,0.97,93.6,M,-34.2,M,,*69
296,3,0.09,0.17,-0.39,0.44,0.25,0.06,0.6699,-0.0533,-0.0404,-0.7394,$GPGGA,172018.700,4042.0953,N,07421.8039,W,1,08,0.97,93.6,M,-34.2,M,,*69
297,3,-0.01,0.00,0.44,-0.25,-1.81,0.13,0.6699,-0.0541,-0.0409,-0.7394,$GPGGA,172018.800,4042.0945,N,07421.8049,W,1,08,0.97,93.6,M,-34.2,M,,*66
298,3,-0.28,0.25,0.89,-1.31,-3.69,-0.13,0.6697,-0.0563,-0.0422,-0.7393,$GPGGA,172018.900,4042.0937,N,07421.8058,W,1,08,0.98,93.7,M,-34.2,M,,*6C
299,3,-0.11,0.27,0.17,-1.56,-0.62,-0.19,0.6696,-0.0583,-0.0422,-0.7393,$GPGGA,172019.000,4042.0929,N,07421.8067,W,1,08,0.98,93.7,M,-34.2,M,,*67
300,3,-0.12,0.11,-0.58,-1.87,0.62,-0.56,0.6694,-0.0594,-0.0407,-0.7394,$GPGGA,172019.100,4042.0921,N,07421.8076,W,1,08,0.98,93.7,M,-34.2,M,,*6E
301,3,-0.28,0.20,-1.27,-0.81,1.31,-0.56,0.6691,-0.0594,-0.0392,-0.7397,$GPGGA,172019.200,4042.0913,N,07421.8086,W,1,08,0.98,93.8,M,-34.2,M,,*6C
302,3,-0.22,-0.19,-0.21,0.44,0.62,-0.50,0.6691,-0.0591,-0.0385,-0.7399,$GPGGA,172019.300,4042.0906,N,07421.8095,W,1,08,0.98,93.8,M,-34.2,M,,*6B
303,3,-0.31,-0.40,-0.72,1.31,-0.44,-0.44,0.6691,-0.0583,-0.0392,-0.7398,$GPGGA,172019.400,4042.0898,N,07421.8104,W,1,08,0.98,93.8,M,-34.2,M,,*63
304,3,-0.11,0.01,0.23,1.75,-0.25,-0.44,0.6692,-0.0576,-0.0405,-0.7397,$GPGGA,172019.500,4042.0890,N,07421.8114,W,1,08,0.98,93.8,M,-34.2,M,,*6B
305,3,0.01,-0.13,0.64,1.06,0.13,-0.44,0.6692,-0.0571,-0.0413,-0.7397,$GPGGA,172019.600,4042.0882,N,07421.8124,W,1,08,0.97,93.9,M,-34.2,M,,*66
306,3,-0.33,0.12,-0.59,0.25,1.00,-0.69,0.6691,-0.0568,-0.0413,-0.7399,$GPGGA,172019.700,4042.0874,N,07421.8134,W,1,08,0.97,93.9,M,-34.2,M,,*6F
307,3,-0.07,0.11,-0.09,-0.31,0.50,-0.75,0.6688,-0.0566,-0.0410,-0.7402,$GPGGA,172019.800,4042.0866,N,07421.8143,W,1,08,0.97,93.9,M,-34.2,M,,*63
308,3,-0.24,-0.36,-0.78,1.56,0.81,-0.44,0.6686,-0.0560,-0.0410,-0.7404,$GPGGA,172019.900,4042.0858,N,07421.8154,W,1,08,0.98,94.0,M,-34.2,M,,*68
309,3,-0.15,0.30,-0.54,2.75,0.25,-0.44,0.6686,-0.0548,-0.0421,-0.7405,$GPGGA,172020.000,4042.0850,N,07421.8164,W,1,08,0.98,94.0,M,-34.2,M,,*60
310,3,-0.16,0.06,0.28,1.94,1.31,-0.31,0.6686,-0.0531,-0.0431,-0.7404,$GPGGA,172020.100,4042.0843,N,07421.8173,W,1,08,0.98,94.0,M,-34.2,M,,*65
311,3,-0.31,0.12,-0.40,0.37,0.81,-0.94,0.6684,-0.0519,-0.0432,-0.7407,$GPGGA,172020.200,4042.0835,N,07421.8183,W,1,08,0.98,94.1,M,-34.2,M,,*69
312,3,-0.40,-0.33,0.11,-1.31,-1.81,-1.31,0.6676,-0.0529,-0.0434,-0.7414,$GPGGA,172020.300,4042.0827,N,07421.8193,W,1,08,0.97,94.1,M,-34.2,M,,*65
313,3,-0.02,-0.24,0.74,-0.88,-0.19,-1.06,0.6667,-0.0543,-0.0430,-0.7421,$GPGGA,172020.400,4042.0820,N,07421.8203,W,1,08,0.98,94.2,M,-34.2,M,,*63
314,3,0.00,-0.13,-0.90,-0.06,2.19,-1.12,0.6660,-0.0540,-0.0422,-0.7429,$GPGGA,172020.500,4042.0812,N,07421.8212,W,1,08,0.98,94.2,M,-34.2,M,,*63
315,3,0.07,-0.22,-0.56,0.56,0.50,-1.00,0.6653,-0.0530,-0.0414,-0.7435,$GPGGA,172020.600,4042.0804,N,07421.8222,W,1,08,0.97,94.2,M,-34.2,M,,*6B
316,3,-0.11,-0.03,-0.12,-1.19,-0.88,-1.06,0.6647,-0.0531,-0.0414,-0.7441,$GPGGA,172020.700,4042.0797,N,07421.8232,W,1,08,0.97,94.3,M,-34.2,M,,*6F
317,3,-0.31,0.09,0.24,-1.94,-0.75,-1.12,0.6639,-0.0543,-0.0408,-0.7447,$GPGGA,172020.800,4042.0789,N,07421.8242,W,1,08,0.98,94.3,M,-34.2,M,,*67
318,3,0.10,0.05,0.12,-2.94,0.50,-1.12,0.6631,-0.0555,-0.0390,-0.7455,$GPGGA,172020.900,4042.0781,N,07421.8252,W,1,08,0.98,94.3,M,-34.2,M,,*6F
319,3,-0.11,0.10,-1.28,-1.69,1.81,-0.81,0.6624,-0.0558,-0.0371,-0.7462,$GPGGA,172021.000,4042.0774,N,07421.8262,W,1,08,0.98,94.4,M,-34.2,M,,*69
320,3,0.08,-0.54,-0.83,-0.06,0.37,-0.62,0.6622,-0.0558,-0.0359,-0.7464,$GPGGA,172021.100,4042.0766,N,07421.8272,W,1,08,0.98,94.4,M,-34.2,M,,*6A
321,3,-0.11,-0.25,0.17,-0.13,-0.62,-0.44,0.6621,-0.0559,-0.0361,-0.7465,$GPGGA,172021.200,4042.0758,N,07421.8282,W,1,08,0.98,94.5,M,-34.2,M,,*6A
322,3,-0.33,0.31,-0.39,1.37,0.62,-0.31,0.6622,-0.0556,-0.0363,-0.7465,$GPGGA,172021.300,4042.0751,N,07421.8292,W,1,08,0.98,94.5,M,-34.2,M,,*63
323,2,0.06,0.00,-0.77,2.06,0.00,-0.13,0.6622,-0.0544,-0.0370,-0.7464,$GPGGA,172021.400,4042.0743,N,07421.8302,W,1,08,0.98,94.5,M,-34.2,M,,*6F
324,2,-0.13,0.71,-0.15,1.94,0.00,-0.25,0.6624,-0.0529,-0.0384,-0.7463,$GPGGA,172021.500,4042.0736,N,07421.8312,W,1,08,0.98,94.6,M,-34.2,M,,*6E
325,2,0.06,0.28,0.07,1.56,-0.88,-0.19,0.6624,-0.0521,-0.0394,-0.7463,$GPGGA,172021.600,4042.0728,N,07421.8322,W,1,08,0.97,94.6,M,-34.2,M,,*6E
326,2,-0.06,0.22,-0.49,-0.62,-0.50,0.06,0.6624,-0.0522,-0.0394,-0.7463,$GPGGA,172021.700,4042.0720,N,07421.8332,W,1,08,0.97,94.7,M,-34.2,M,,*67
327,2,0.08,0.44,-0.51,0.13,1.25,0.13,0.6624,-0.0518,-0.0396,-0.7463,$GPGGA,172021.800,4042.0713,N,07421.8342,W,1,08,0.97,94.7,M,-34.2,M,,*6F
328,2,-0.04,0.03,-0.91,0.50,1.69,0.31,0.6625,-0.0505,-0.0386,-0.7464,$GPGGA,172021.900,4042.0705,N,07421.8352,W,1,08,0.98,94.8,M,-34.2,M,,*68
329,2,-0.31,0.68,-0.86,1.44,1.12,0.88,0.6628,-0.0492,-0.0383,-0.7462,$GPGGA,172022.000,4042.0698,N,07421.8362,W,1,08,0.98,94.8,M,-34.2,M,,*64
330,2,-0.12,0.07,0.35,-0.25,-0.06,0.37,0.6629,-0.0487,-0.0384,-0.7461,$GPGGA,172022.100,4042.0690,N,07421.8372,W,1,08,0.98,94.8,M,-34.2,M,,*6C
331,2,-0.16,0.60,-0.46,0.06,-0.25,0.37,0.6629,-0.0486,-0.0384,-0.7461,$GPGGA,172022.200,4042.0682,N,07421.8382,W,1,08,0.98,94.9,M,-34.2,M,,*62
332,2,0.00,0.33,-0.11,-1.62,1.69,0.37,0.6629,-0.0488,-0.0372,-0.7462,$GPGGA,172022.300,4042.0674,N,07421.8392,W,1,08,0.98,94.9,M,-34.2,M,,*6B
333,2,-0.33,0.00,-0.13,-2.44,1.81,0.31,0.6628,-0.0478,-0.0360,-0.7464,$GPGGA,172022.400,4042.0666,N,07421.8402,W,1,08,0.98,95.0,M,-34.2,M,,*69
334,2,-0.38,0.33,-0.60,-1.94,0.06,0.06,0.6628,-0.0482,-0.0342,-0.7465,$GPGGA,172022.500,4042.0658,N,07421.8412,W,1,08,0.98,95.0,M,-34.2,M,,*64
335,2,-0.15,-0.31,0.81,-0.62,-1.87,0.06,0.6627,-0.0499,-0.0341,-0.7465,$GPGGA,172022.600,4042.0651,N,07421.8421,W,1,08,0.97,95.0,M,-34.2,M,,*61
336,2,-0.32,-0.19,0.78,0.37,-1.50,0.44,0.6626,-0.0510,-0.0352,-0.7464,$GPGGA,172022.700,4042.0643,N,07421.8431,W,1,08,0.97,95.1,M,-34.2,M,,*63
337,2,-0.02,0.56,0.60,1.06,-0.31,0.50,0.6626,-0.0512,-0.0359,-0.7463,$GPGGA,172022.800,4042.0635,N,07421.8441,W,1,08,0.97,95.1,M,-34.2,M,,*6A
338,2,-0.28,0.12,0.00,-0.94,-1.12,0.25,0.6626,-0.0512,-0.0361,-0.7463,$GPGGA,172022.900,4042.0627,N,07421.8451,W,1,08,0.98,95.2,M,-34.2,M,,*65
339,2,-0.20,0.31,-0.63,0.31,-0.25,-0.13,0.6625,-0.0518,-0.0364,-0.7463,$GPGGA,172023.000,4042.0620,N,07421.8461,W,1,08,0.98,95.2,M,-34.2,M,,*69
340,2,-0.25,-0.23,-0.83,0.81,3.44,0.25,0.6627,-0.0501,-0.0352,-0.7465,$GPGGA,172023.100,4042.0612,N,07421.8470,W,1,08,0.98,95.2,M,-34.2,M,,*69
341,2,-0.45,0.17,-0.46,3.00,0.94,0.37,0.6628,-0.0475,-0.0349,-0.7465,$GPGGA,172023.200,4042.0604,N,07421.8480,W,1,08,0.98,95.3,M,-34.2,M,,*63
342,2,-0.07,0.26,-0.06,0.94,-1.87,0.37,0.6628,-0.0467,-0.0364,-0.7464,$GPGGA,172023.300,4042.0597,N,07421.8490,W,1,08,0.98,95.3,M,-34.2,M,,*6A
343,2,-0.31,0.82,0.52,-1.06,-1.75,0.06,0.6628,-0.0479,-0.0378,-0.7463,$GPGGA,172023.400,4042.0589,N,07421.8500,W,1,08,0.98,95.4,M,-34.2,M,,*6D
344,2,-0.22,1.14,0.57,-1.50,-1.00,0.06,0.6627,-0.0493,-0.0373,-0.7463,$GPGGA,172023.500,4042.0581,N,07421.8510,W,1,08,0.98,95.4,M,-34.2,M,,*65
345,2,-0.12,0.05,-0.71,-3.00,-0.31,-0.19,0.6626,-0.0511,-0.0359,-0.7464,$GPGGA,172023.600,4042.0573,N,07421.8520,W,1,08,0.97,95.5,M,-34.2,M,,*66
346,1,-0.23,0.67,-1.29,-3.12,2.00,0.44,0.6625,-0.0520,-0.0339,-0.7465,$GPGGA,172023.700,4042.0565,N,07421.8530,W,1,08,0.97,95.5,M,-34.2,M,,*61
347,1,-0.34,0.10,-0.60,-2.25,1.87,0.31,0.6624,-0.0516,-0.0312,-0.7467,$GPGGA,172023.800,4042.0558,N,07421.8540,W,1,08,0.97,95.5,M,-34.2,M,,*67
348,0,-0.45,0.17,0.00,-0.81,0.25,0.25,0.6624,-0.0494,-0.0304,-0.7469,$GPGGA,172023.900,4042.0549,N,07421.8550,W,1,08,0.98,95.6,M,-34.2,M,,*6B
349,0,-0.16,0.71,0.46,1.06,-0.94,0.19,0.6624,-0.0497,-0.0305,-0.7469,$GPGGA,172024.000,4042.0541,N,07421.8560,W,1,08,0.98,95.6,M,-34.2,M,,*6E
350,0,-0.15,-0.09,0.07,-0.31,-0.19,0.56,0.6623,-0.0505,-0.0311,-0.7469,$GPGGA,172024.100,4042.0534,N,07421.8570,W,1,08,0.98,95.7,M,-34.2,M,,*6D
351,0,-0.17,0.54,-0.73,-0.31,2.62,0.31,0.6624,-0.0496,-0.0306,-0.7468,$GPGGA,172024.200,4042.0526,N,07421.8580,W,1,08,0.98,95.7,M,-34.2,M,,*62
352,0,-0.12,0.21,-0.57,-1.81,1.94,0.31,0.6625,-0.0483,-0.0289,-0.7469,$GPGGA,172024.300,4042.0518,N,07421.8589,W,1,08,0.98,95.7,M,-34.2,M,,*67
353,1,-0.11,-0.09,-0.76,-1.25,0.56,0.50,0.6625,-0.0473,-0.0279,-0.7471,$GPGGA,172024.400,4042.0510,N,07421.8599,W,1,08,0.98,95.7,M,-34.2,M,,*69
354,1,0.18,0.69,0.21,-0.06,-1.94,0.56,0.6624,-0.0482,-0.0278,-0.7471,$GPGGA,172024.500,4042.0502,N,07421.8609,W,1,08,0.98,95.8,M,-34.2,M,,*6E
355,1,-0.31,-0.06,0.96,0.37,-2.19,1.06,0.6628,-0.0495,-0.0290,-0.7466,$GPGGA,172024.600,4042.0494,N,07421.8619,W,1,08,0.97,95.8,M,-34.2,M,,*6D
356,1,-0.48,0.88,0.66,0.69,-1.12,1.31,0.6635,-0.0504,-0.0302,-0.7458,$GPGGA,172024.700,4042.0487,N,07421.8629,W,1,08,0.98,95.8,M,-34.2,M,,*62
357,1,-0.07,0.15,-0.03,0.94,0.13,1.37,0.6645,-0.0500,-0.0312,-0.7450,$GPGGA,172024.800,4042.0479,N,07421.8639,W,1,08,0.98,95.9,M,-34.2,M,,*6C
358,1,-0.41,0.88,-0.92,2.00,2.19,1.56,0.6655,-0.0487,-0.0308,-0.7441,$GPGGA,172024.900,4042.0471,N,07421.8648,W,1,08,0.98,95.9,M,-34.2,M,,*63
359,1,-0.17,0.43,0.16,1.56,1.06,2.19,0.6669,-0.0472,-0.0303,-0.7430,$GPGGA,172025.000,4042.0464,N,07421.8658,W,1,08,0.98,95.9,M,-34.2,M,,*6E
360,1,-0.50,0.48,-0.10,1.69,0.00,2.75,0.6686,-0.0460,-0.0310,-0.7416,$GPGGA,172025.100,4042.0456,N,07421.8667,W,1,08,0.98,95.9,M,-34.2,M,,*62
361,1,-0.20,1.04,0.34,2.81,0.25,3.12,0.6705,-0.0435,-0.0332,-0.7399,$GPGGA,172025.200,4042.0449,N,07421.8677,W,1,08,0.98,96.0,M,-34.2,M,,*64
362,1,0.03,0.83,-0.20,-0.06,-0.13,3.31,0.6724,-0.0386,-0.0375,-0.7382,$GPGGA,172025.300,4042.0441,N,07421.8687,W,1,08,0.98,96.0,M,-34.2,M,,*62
363,1,-0.14,0.97,-1.04,-1.62,0.88,3.19,0.6744,-0.0376,-0.0380,-0.7365,$GPGGA,172025.400,4042.0434,N,07421.8696,W,1,08,0.99,96.0,M,-34.2,M,,*66
364,1,-0.07,1.16,0.12,-4.37,-0.75,3.19,0.6763,-0.0390,-0.0365,-0.7347,$GPGGA,172025.500,4042.0426,N,07421.8706,W,1,08,0.98,96.0,M,-34.2,M,,*6D
365,1,-0.18,0.99,0.48,1.94,-1.75,3.25,0.6782,-0.0408,-0.0360,-0.7328,$GPGGA,172025.600,4042.0418,N,07421.8716,W,1,08,0.97,96.0,M,-34.2,M,,*6D
366,1,-0.23,0.34,-0.43,-4.81,-0.44,4.06,0.6802,-0.0436,-0.0349,-0.7309,$GPGGA,172025.700,4042.0411,N,07421.8726,W,1,08,0.98,96.1,M,-34.2,M,,*68
367,1,0.08,1.25,0.36,1.12,0.06,4.44,0.6829,-0.0437,-0.0362,-0.7283,$GPGGA,172025.800,4042.0403,N,07421.8735,W,1,08,0.98,96.1,M,-34.2,M,,*66
368,1,-0.32,1.74,-1.02,1.31,2.06,4.19,0.6856,-0.0432,-0.0348,-0.7259,$GPGGA,172025.900,4042.0395,N,07421.8745,W,1,08,0.98,96.1,M,-34.2,M,,*68
369,1,0.05,1.74,-0.57,-2.87,-0.69,4.69,0.6884,-0.0438,-0.0342,-0.7233,$GPGGA,172026.000,4042.0387,N,07421.8755,W,1,08,0.98,96.2,M,-34.2,M,,*63
370,1,-0.05,2.36,-0.56,-3.81,1.50,4.62,0.6911,-0.0454,-0.0316,-0.7206,$GPGGA,172026.100,4042.0379,N,07421.8764,W,1,08,0.98,96.1,M,-34.2,M,,*62
371,1,-0.04,2.35,-0.19,-1.31,2.62,4.50,0.6937,-0.0458,-0.0292,-0.7181,$GPGGA,172026.200,4042.0370,N,07421.8773,W,1,08,0.98,96.1,M,-34.2,M,,*6E
372,1,-0.36,0.68,-1.12,1.37,3.12,4.81,0.6965,-0.0447,-0.0264,-0.7156,$GPGGA,172026.300,4042.0362,N,07421.8783,W,1,08,0.98,96.2,M,-34.2,M,,*60
373,1,-0.64,1.78,-1.22,1.69,1.62,5.00,0.6997,-0.0419,-0.0255,-0.7128,$GPGGA,172026.400,4042.0354,N,07421.8792,W,1,08,0.99,96.2,M,-34.2,M,,*63
374,1,-0.50,1.12,0.53,0.44,-2.69,4.50,0.7026,-0.0411,-0.0270,-0.7098,$GPGGA,172026.500,4042.0345,N,07421.8801,W,1,08,0.98,96.2,M,-34.2,M,,*66
375,1,0.05,1.20,1.10,-2.56,-2.81,3.94,0.7051,-0.0443,-0.0276,-0.7072,$GPGGA,172026.600,4042.0337,N,07421.8811,W,1,08,0.98,96.2,M,-34.2,M,,*61
376,1,-0.54,1.23,0.00,-2.19,-0.50,4.06,0.7074,-0.0464,-0.0275,-0.7048,$GPGGA,172026.700,4042.0329,N,07421.8820,W,1,08,0.98,96.2,M,-34.2,M,,*6D
377,1,-0.19,0.89,-0.85,0.00,0.88,4.62,0.7100,-0.0469,-0.0261,-0.7021,$GPGGA,172026.800,4042.0321,N,07421.8829,W,1,08,0.98,96.2,M,-34.2,M,,*63
378,1,-0.18,1.72,-1.19,2.19,2.25,4.69,0.7128,-0.0421,-0.0287,-0.6995,$GPGGA,172026.900,4042.0312,N,07421.8838,W,1,08,0.99,96.2,M,-34.2,M,,*63
379,2,-0.16,1.68,0.58,-0.31,-0.62,4.25,0.7155,-0.0397,-0.0300,-0.6968,$GPGGA,172027.000,4042.0304,N,07421.8847,W,1,08,0.98,96.2,M,-34.2,M,,*65
380,2,-0.29,1.15,0.10,-2.06,-3.06,3.75,0.7177,-0.0402,-0.0321,-0.6945,$GPGGA,172027.100,4042.0295,N,07421.8856,W,1,08,0.98,96.2,M,-34.2,M,,*6D
381,2,-0.11,0.38,-0.60,-0.31,1.06,3.31,0.7197,-0.0416,-0.0321,-0.6923,$GPGGA,172027.200,4042.0287,N,07421.8865,W,1,08,0.98,96.2,M,-34.2,M,,*6D
382,3,-0.24,0.37,0.04,1.00,1.37,3.25,0.7217,-0.0408,-0.0310,-0.6903,$GPGGA,172027.300,4042.0278,N,07421.8874,W,1,08,0.99,96.2,M,-34.2,M,,*6D
383,3,-0.23,1.14,0.10,0.69,-1.44,2.87,0.7234,-0.0411,-0.0316,-0.6884,$GPGGA,172027.400,4042.0270,N,07421.8883,W,1,08,0.98,96.2,M,-34.2,M,,*6B
384,3,0.00,0.84,-0.32,-2.00,0.81,2.50,0.7250,-0.0424,-0.0308,-0.6868,$GPGGA,172027.500,4042.0261,N,07421.8892,W,1,08,0.98,96.2,M,-34.2,M,,*6A
385,3,-0.49,0.69,-0.72,-1.00,3.31,2.31,0.7263,-0.0416,-0.0287,-0.6855,$GPGGA,172027.600,4042.0252,N,07421.8901,W,1,08,0.97,96.2,M,-34.2,M,,*6D
386,3,-0.25,0.92,-1.55,0.75,2.50,2.37,0.7277,-0.0399,-0.0266,-0.6843,$GPGGA,172027.700,4042.0244,N,07421.8910,W,1,08,0.97,96.3,M,-34.2,M,,*6A
387,3,-0.38,0.44,-0.05,1.19,-0.56,2.75,0.7291,-0.0388,-0.0272,-0.6827,$GPGGA,172027.800,4042.0235,N,07421.8919,W,1,08,0.97,96.3,M,-34.2,M,,*6A
388,3,-0.13,1.30,0.08,1.62,0.37,2.50,0.7307,-0.0373,-0.0286,-0.6811,$GPGGA,172027.900,4042.0227,N,07421.8927,W,1,08,0.98,96.3,M,-34.2,M,,*6A
389,3,-0.09,0.75,-0.41,0.62,-0.06,2.25,0.7321,-0.0357,-0.0298,-0.6796,$GPGGA,172028.000,4042.0218,N,07421.8936,W,1,08,0.99,96.3,M,-34.2,M,,*61
390,3,-0.30,0.64,-0.34,0.06,0.50,2.00,0.7333,-0.0353,-0.0300,-0.6783,$GPGGA,172028.100,4042.0209,N,07421.8945,W,1,08,0.99,96.4,M,-34.2,M,,*63
391,3,0.08,0.94,-0.77,-0.31,1.12,2.06,0.7347,-0.0341,-0.0305,-0.6769,$GPGGA,172028.200,4042.0200,N,07421.8953,W,1,08,0.98,96.4,M,-34.2,M,,*6F
392,3,-0.50,0.44,-0.56,-0.56,1.62,1.75,0.7358,-0.0334,-0.0294,-0.6757,$GPGGA,172028.300,4042.0191,N,07421.8960,W,1,08,0.99,96.4,M,-34.2,M,,*64
393,3,-0.02,0.89,0.24,0.00,-1.31,1.94,0.7368,-0.0329,-0.0298,-0.6747,$GPGGA,172028.400,4042.0181,N,07421.8967,W,1,08,0.99,96.4,M,-34.2,M,,*65
394,3,-0.27,-0.31,0.40,-2.19,-4.50,1.62,0.7376,-0.0356,-0.0308,-0.6736,$GPGGA,172028.500,4042.0171,N,07421.8975,W,1,08,0.99,96.4,M,-34.2,M,,*68
395,3,-0.11,0.07,0.00,0.75,1.19,1.12,0.7384,-0.0371,-0.0316,-0.6726,$GPGGA,172028.600,4042.0163,N,07421.8983,W,1,08,0.97,96.5,M,-34.2,M,,*6E
396,3,-0.22,-0.18,-1.12,-0.50,2.94,1.37,0.7393,-0.0350,-0.0300,-0.6719,$GPGGA,172028.700,4042.0154,N,07421.8991,W,1,08,0.97,96.5,M,-34.2,M,,*68
397,3,-0.53,0.34,0.04,2.81,-1.00,1.62,0.7402,-0.0330,-0.0314,-0.6708,$GPGGA,172028.800,4042.0144,N,07421.9000,W,1,08,0.99,96.5,M,-34.2,M,,*68
398,3,-0.44,0.30,0.57,-0.19,-3.19,1.44,0.7410,-0.0336,-0.0331,-0.6699,$GPGGA,172028.900,4042.0135,N,07421.9008,W,1,08,0.99,96.6,M,-34.2,M,,*64
399,3,-0.10,0.64,0.59,-1.37,-0.13,1.06,0.7416,-0.0338,-0.0356,-0.6689,$GPGGA,172029.000,4042.0126,N,07421.9016,W,1,08,0.99,96.6,M,-34.2,M,,*61
400,3,-0.05,-0.04,-1.25,0.13,4.37,0.75,0.7422,-0.0327,-0.0328,-0.6685,$GPGGA,172029.100,4042.0117,N,07421.9023,W,1,08,0.98,96.6,M,-34.2,M,,*65
401,3,-0.27,-0.48,-1.15,-0.50,0.44,0.81,0.7428,-0.0316,-0.0314,-0.6680,$GPGGA,172029.200,4042.0108,N,07421.9031,W,1,08,0.98,96.7,M,-34.2,M,,*6A
402,3,-0.28,0.38,-0.46,0.19,-0.25,1.06,0.7434,-0.0314,-0.0316,-0.6674,$GPGGA,172029.300,4042.0098,N,07421.9039,W,1,08,0.99,96.7,M,-34.2,M,,*6A
403,3,-0.10,0.10,0.03,0.44,0.31,0.88,0.7441,-0.0305,-0.0324,-0.6666,$GPGGA,172029.400,4042.0089,N,07421.9046,W,1,08,0.99,96.7,M,-34.2,M,,*65
404,3,-0.33,0.30,-0.08,-0.75,0.31,0.62,0.7446,-0.0294,-0.0323,-0.6661,$GPGGA,172029.500,4042.0080,N,07421.9053,W,1,08,0.98,96.7,M,-34.2,M,,*68
405,3,0.23,-0.15,0.15,-1.25,-0.69,0.25,0.7446,-0.0295,-0.0319,-0.6661,$GPGGA,172029.600,4042.0071,N,07421.9060,W,1,08,0.98,96.7,M,-34.2,M,,*65
406,3,-0.18,-0.04,-0.18,-0.94,-1.06,-0.13,0.7445,-0.0309,-0.0316,-0.6661,$GPGGA,172029.700,4042.0062,N,07421.9068,W,1,08,0.98,96.7,M,-34.2,M,,*6E
407,3,-0.04,-0.11,-0.91,-0.19,1.06,-0.06,0.7446,-0.0309,-0.0309,-0.6661,$GPGGA,172029.800,4042.0053,N,07421.9075,W,1,08,0.98,96.7,M,-34.2,M,,*6F
408,3,-0.13,-0.40,-0.87,1.94,1.37,0.25,0.7447,-0.0293,-0.0297,-0.6661,$GPGGA,172029.900,4042.0044,N,07421.9082,W,1,08,0.99,96.7,M,-34.2,M,,*61
409,3,-0.24,0.46,-0.46,2.50,-0.56,0.06,0.7448,-0.0272,-0.0299,-0.6661,$GPGGA,172030.000,4042.0035,N,07421.9089,W,1,08,0.99,96.7,M,-34.2,M,,*6D
410,3,-0.24,-0.16,0.21,2.19,-1.44,0.00,0.7448,-0.0261,-0.0317,-0.6660,$GPGGA,172030.100,4042.0026,N,07421.9096,W,1,08,0.99,96.7,M,-34.2,M,,*60
411,3,-0.46,0.12,0.50,2.31,-0.37,0.06,0.7449,-0.0248,-0.0332,-0.6660,$GPGGA,172030.200,4042.0017,N,07421.9103,W,1,08,0.99,96.7,M,-34.2,M,,*6C
412,3,0.03,0.00,-0.46,1.25,-0.06,-0.13,0.7449,-0.0237,-0.0336,-0.6659,$GPGGA,172030.300,4042.0007,N,07421.9110,W,1,08,0.99,96.7,M,-34.2,M,,*6E
413,3,-0.18,-0.17,-0.40,-0.37,-0.62,-0.06,0.7449,-0.0233,-0.0339,-0.6659,$GPGGA,172030.400,4041.9998,N,07421.9117,W,1,08,0.98,96.7,M,-34.2,M,,*6A
414,3,-0.36,-0.54,0.12,-0.56,-0.37,-0.25,0.7449,-0.0239,-0.0341,-0.6659,$GPGGA,172030.500,4041.9988,N,07421.9124,W,1,08,0.98,96.7,M,-34.2,M,,*6A
415,3,-0.33,-0.03,-0.32,0.81,1.12,-0.25,0.7449,-0.0234,-0.0336,-0.6659,$GPGGA,172030.600,4041.9979,N,07421.9131,W,1,08,0.98,96.7,M,-34.2,M,,*63
