time,heading,pitch,roll,xaccel,yaccel,zaccel,temp,pressure,altitude
0.0,127.39,0.0,0.0,0.04,0.01,0.1,61.96,1014.29,0.0
0.09999999999999432,127.39,0.0,0.0,0.04,0.01,0.12,61.96,1014.29,0.049999999999998934
0.19999999999998863,127.39,0.0,0.0,0.02,0.02,0.08,61.96,1014.29,0.009999999999999787
0.29999999999998295,127.39,0.0,0.0,0.05,0.01,0.09,61.96,1014.29,0.0
0.39999999999997726,127.39,0.0,0.0,0.06,0.02,0.11,61.96,1014.3,0.10999999999999943
0.5,127.39,0.0,0.0,0.04,0.03,0.09,61.96,1014.29,0.2400000000000002
0.6099999999999852,127.39,0.0,0.0,0.04,0.01,0.09,61.96,1014.27,0.2699999999999996
0.6999999999999886,127.39,0.0,0.0,0.04,0.02,0.12,61.96,1014.28,0.2400000000000002
0.799999999999983,127.39,0.0,0.0,0.06,0.0,0.12,61.96,1014.27,0.2699999999999996
0.8999999999999773,127.39,0.0,0.0,0.06,0.0,0.1,61.96,1014.27,0.29999999999999893
1.0,127.39,0.0,0.0,0.04,0.0,0.09,61.96,1014.28,0.23000000000000043
1.0999999999999943,127.39,0.0,0.0,0.04,0.02,0.12,61.96,1014.29,0.1999999999999993
1.1999999999999886,127.39,0.0,0.0,0.03,0.01,0.11,61.96,1014.28,0.17999999999999972
1.299999999999983,127.39,0.0,0.0,0.03,0.0,0.08,61.96,1014.27,0.2400000000000002
1.3999999999999773,127.39,0.0,0.0,0.03,0.0,0.09,61.96,1014.27,0.2400000000000002
1.509999999999991,127.39,0.0,0.0,0.04,0.0,0.09,61.97,1014.28,0.019999999999999574
1.5999999999999943,127.39,0.0,0.0,0.07,0.0,0.1,61.96,1014.28,0.17999999999999972
1.7099999999999795,127.39,0.0,0.0,0.05,0.0,0.08,61.96,1014.28,0.17999999999999972
1.8099999999999739,127.39,0.0,0.0,0.02,0.0,0.09,61.96,1014.28,0.27999999999999936
1.9099999999999966,127.39,0.0,0.0,0.04,0.02,0.08,61.96,1014.27,0.41999999999999993
2.009999999999991,127.39,0.0,0.0,0.03,0.01,0.12,61.97,1014.26,0.41000000000000014
2.109999999999985,127.39,0.0,0.0,0.04,0.01,0.09,61.97,1014.25,0.27999999999999936
2.1999999999999886,127.39,0.0,0.0,0.04,0.01,0.1,61.97,1014.27,0.1999999999999993
2.299999999999983,127.39,0.0,0.0,0.05,0.0,0.08,61.97,1014.29,0.16000000000000014
2.3999999999999773,127.39,0.0,0.0,0.03,0.02,0.08,61.97,1014.27,0.2599999999999998
2.5,127.39,0.0,0.0,0.04,0.0,0.08,61.97,1014.27,0.1999999999999993
2.5999999999999943,127.39,0.0,0.0,0.04,0.01,0.09,61.97,1014.28,0.16000000000000014
2.6999999999999886,127.39,0.0,0.0,0.04,0.01,0.06,61.97,1014.28,0.25
2.799999999999983,127.39,0.0,0.0,0.03,0.0,0.08,61.97,1014.27,0.1899999999999995
2.9099999999999966,127.39,0.0,0.0,0.05,0.01,0.07,61.97,1014.28,0.16999999999999993
3.009999999999991,127.39,0.0,0.0,0.07,0.01,0.07,61.97,1014.28,0.20999999999999908
3.109999999999985,127.39,0.0,0.0,0.05,0.02,0.09,61.97,1014.27,0.16999999999999993
3.2099999999999795,127.39,0.0,0.0,0.04,0.02,0.07,61.97,1014.28,0.16000000000000014
3.299999999999983,127.39,0.0,0.0,0.04,0.0,0.08,61.97,1014.28,0.17999999999999972
3.3999999999999773,127.39,0.0,0.0,0.05,0.01,0.09,61.97,1014.27,0.29999999999999893
3.509999999999991,127.39,0.0,0.0,0.04,0.01,0.07,61.97,1014.25,0.4299999999999997
3.5999999999999943,127.39,0.0,0.0,0.06,0.0,0.06,61.97,1014.25,0.4299999999999997
3.6999999999999886,127.39,0.0,0.0,0.05,0.0,0.09,61.97,1014.25,0.47000000000000064
3.799999999999983,127.39,0.0,0.0,0.03,0.01,0.09,61.97,1014.25,0.35999999999999943
3.8999999999999773,127.39,0.0,0.0,0.05,0.01,0.08,61.98,1014.25,0.3200000000000003
4.0,127.39,0.0,0.0,0.03,0.0,0.08,61.98,1014.27,0.28999999999999915
4.109999999999985,127.39,0.0,0.0,0.04,0.01,0.08,61.98,1014.26,0.2699999999999996
4.199999999999989,127.39,0.0,0.0,0.03,0.0,0.08,61.98,1014.26,0.29999999999999893
4.309999999999974,127.39,0.0,0.0,0.06,0.0,0.12,61.98,1014.27,0.3200000000000003
4.409999999999997,127.39,0.0,0.0,0.06,0.01,0.09,61.98,1014.27,0.2699999999999996
4.509999999999991,127.39,0.0,0.0,0.03,0.02,0.07,61.98,1014.27,0.25
4.609999999999985,127.39,0.0,0.0,0.05,0.02,0.1,61.98,1014.27,0.35999999999999943
4.7099999999999795,127.39,0.0,0.0,0.05,0.01,0.09,61.98,1014.26,0.28999999999999915
4.799999999999983,127.39,0.0,0.0,0.06,0.01,0.09,61.99,1014.27,0.3200000000000003
4.899999999999977,127.39,0.0,0.0,0.05,0.02,0.1,61.99,1014.28,0.2400000000000002
5.0,127.39,0.0,0.0,0.03,0.02,0.12,61.99,1014.26,0.25
5.099999999999994,127.39,0.0,0.0,0.06,0.01,0.08,61.99,1014.28,0.14000000000000057
5.199999999999989,127.39,0.0,0.0,0.05,0.0,0.08,61.99,1014.29,0.09999999999999964
5.299999999999983,127.39,0.0,0.0,0.04,0.0,0.08,62.0,1014.29,0.2599999999999998
5.399999999999977,127.39,0.0,0.0,0.07,0.0,0.1,62.0,1014.28,0.17999999999999972
5.509999999999991,127.39,0.0,0.0,0.03,0.02,0.12,62.0,1014.27,0.20999999999999908
5.609999999999985,127.39,0.0,0.0,0.05,-0.01,0.11,62.0,1014.29,0.11999999999999922
5.7099999999999795,127.39,0.0,0.0,0.03,0.0,0.09,62.0,1014.27,0.1999999999999993
5.809999999999974,127.39,0.0,0.0,0.04,0.01,0.08,62.0,1014.28,0.1999999999999993
5.909999999999997,127.39,0.0,0.0,0.06,0.0,0.11,62.0,1014.29,0.16000000000000014
6.0,127.39,0.0,0.0,0.06,0.0,0.07,62.0,1014.28,0.129999999999999
6.109999999999985,127.39,0.0,0.0,0.05,0.01,0.11,62.0,1014.29,0.09999999999999964
6.199999999999989,127.39,0.0,0.0,0.03,0.01,0.12,62.0,1014.29,0.0600000000000005
6.299999999999983,127.39,0.0,0.0,0.07,0.0,0.09,62.0,1014.3,0.08999999999999986
6.399999999999977,127.39,0.0,0.0,0.06,0.0,0.1,62.0,1014.27,0.3200000000000003
6.5,127.39,0.0,0.0,0.04,0.0,0.09,61.99,1014.27,0.3200000000000003
6.599999999999994,127.39,0.0,0.0,0.05,0.01,0.13,61.99,1014.26,0.33999999999999986
6.7099999999999795,127.39,0.0,0.0,0.03,0.0,0.11,62.0,1014.26,0.27999999999999936
6.799999999999983,127.39,0.0,0.0,0.04,0.0,0.1,62.0,1014.27,0.2599999999999998
6.899999999999977,127.39,0.0,0.0,0.05,0.01,0.08,62.0,1014.27,0.09999999999999964
7.0,127.39,0.0,0.0,0.05,0.0,0.1,62.01,1014.29,0.08999999999999986
7.099999999999994,127.39,0.0,0.0,0.04,0.0,0.07,62.01,1014.29,0.08000000000000007
7.199999999999989,127.39,0.0,0.0,0.03,0.01,0.1,62.01,1014.3,0.02999999999999936
7.299999999999983,127.39,0.0,0.0,0.04,0.0,0.12,62.01,1014.31,-0.02999999999999936
7.399999999999977,127.39,0.0,0.0,0.05,0.0,0.14,62.01,1014.31,0.019999999999999574
7.5,127.39,0.0,0.11000000000001364,0.32,0.13,0.05,62.01,1014.29,0.16999999999999993
7.599999999999994,127.26,0.0,0.5200000000000102,-0.1,-0.72,-0.14,62.02,1014.29,0.03999999999999915
7.699999999999989,126.71,-0.14,0.8200000000000216,0.12,-1.08,-1.17,62.02,1014.31,-0.040000000000000924
7.799999999999983,125.74,-0.31999999999999995,0.5200000000000102,1.08,-5.15,2.16,62.01,1014.32,-0.040000000000000924
7.909999999999997,124.91,-0.29000000000000004,-0.799999999999983,0.89,-6.63,8.08,62.01,1014.3,-0.20000000000000107
8.0,124.58,1.48,357.14,2.24,-6.59,0.34,62.0,1014.33,-0.14000000000000057
8.109999999999985,124.79,0.29000000000000004,356.8,-1.88,-6.15,5.88,61.98,1014.34,-0.4800000000000004
8.20999999999998,124.55,0.9400000000000001,358.15,0.2,-5.95,0.15,61.96,1014.38,-0.5600000000000005
8.299999999999983,124.21,1.86,358.26,-0.95,-5.81,0.32,61.93,1014.38,-0.7200000000000006
8.409999999999997,124.09,2.5399999999999996,-1.6199999999999761,2.09,-9.27,-2.46,61.91,1014.4,-0.8599999999999994
8.509999999999991,124.1,4.390000000000001,-1.549999999999983,-0.21,-6.2,2.07,61.88,1014.42,-1.0899999999999999
8.599999999999994,124.58,8.84,358.23,0.0,-6.3,4.44,61.86,1014.46,-1.5199999999999996
8.699999999999989,125.84,13.94,357.78,0.5,-5.11,2.51,61.83,1014.5,-1.7100000000000009
8.799999999999983,127.44,17.119999999999997,357.09000000000003,-0.31,-4.93,-0.56,61.81,1014.5,-1.7300000000000004
8.899999999999977,128.9,19.22,355.62,0.13,-3.71,-1.68,61.8,1014.51,-1.6600000000000001
9.0,130.5,22.939999999999998,352.76,-0.11,-3.61,-4.17,61.78,1014.51,-1.6500000000000004
9.099999999999994,132.8,26.939999999999998,347.75,1.53,-3.37,-5.24,61.77,1014.49,-1.5199999999999996
9.199999999999989,135.31,30.04,341.01,2.16,-2.61,-4.39,61.75,1014.48,-1.3800000000000008
9.299999999999983,137.12,31.77,334.28,2.31,-2.35,-4.89,61.74,1014.46,-1.040000000000001
9.409999999999997,138.37,33.53000000000001,330.08000000000004,3.7,-2.18,-4.89,61.73,1014.42,-0.7300000000000004
9.509999999999991,139.0,34.11000000000001,328.27,2.95,-1.59,-5.86,61.73,1014.37,-0.27999999999999936
9.609999999999985,139.01,32.25,330.62,1.62,-1.66,-3.82,61.73,1014.32,0.0
9.70999999999998,140.69,30.409999999999997,333.52,3.17,-0.82,-1.44,61.72,1014.28,0.4800000000000004
9.799999999999983,143.49,28.029999999999998,333.29,3.69,-1.3,-4.14,61.72,1014.22,0.9199999999999999
9.909999999999997,145.38,23.95,330.21000000000004,4.8,-1.44,-0.9,61.72,1014.18,1.3599999999999994
10.0,146.31,21.009999999999998,328.75,5.73,-1.88,1.23,61.72,1014.12,1.9500000000000002
10.099999999999994,144.06,14.82,329.85,5.58,-2.67,7.25,61.71,1014.02,2.6899999999999995
10.199999999999989,141.36,8.58,334.61,3.57,-3.02,9.91,61.7,1013.95,3.3199999999999994
10.299999999999983,139.87,2.23,340.62,2.72,-4.32,12.82,61.69,1013.87,3.7699999999999996
10.399999999999977,140.47,-2.57,347.6,0.87,-5.28,9.4,61.69,1013.82,4.0
10.509999999999991,143.33,-4.5,355.38,0.33,-5.48,6.1,61.68,1013.83,3.74
10.599999999999994,147.05,-4.17,1.2900000000000205,0.85,-5.18,0.97,61.67,1013.87,3.3899999999999997
10.70999999999998,150.62,-0.09999999999999998,7.980000000000018,0.08,-4.75,-1.27,61.67,1013.91,3.0999999999999996
10.809999999999974,152.21,8.62,13.469999999999999,-0.57,-4.79,-12.55,61.66,1013.96,2.67
10.909999999999997,152.97,16.400000000000002,16.26000000000002,-0.61,-4.13,-15.16,61.65,1013.99,2.5
11.009999999999991,152.03,24.979999999999997,19.110000000000014,0.06,-2.61,-18.31,61.64,1014.02,2.46
11.109999999999985,150.84,30.849999999999998,21.650000000000006,-0.44,-0.58,-14.62,61.63,1013.98,2.92
11.199999999999989,149.4,32.74,26.480000000000018,-0.38,0.22,-6.93,61.63,1013.93,3.42
11.299999999999983,146.47,34.25000000000001,32.83000000000001,-0.3,0.78,-2.82,61.62,1013.86,4.0
11.399999999999977,142.32,35.07000000000001,39.78,-1.83,0.93,-2.72,61.62,1013.79,4.62
11.5,137.93,34.85000000000001,45.71000000000001,-3.15,1.95,-2.98,61.61,1013.72,5.14
11.599999999999994,134.01,33.68000000000001,47.870000000000005,-4.22,2.68,-0.65,61.61,1013.64,5.84
11.699999999999989,129.59,31.639999999999997,50.370000000000005,-4.31,2.4,-4.0,61.61,1013.57,6.39
11.799999999999983,125.92,30.099999999999998,50.80000000000001,-5.66,2.64,-7.89,61.61,1013.51,6.99
11.899999999999977,122.56,28.38,51.95000000000002,-4.69,2.17,-3.96,61.6,1013.43,7.66
12.0,120.24,24.68,53.790000000000006,-6.45,1.74,-1.83,61.6,1013.35,8.299999999999999
12.099999999999994,119.62,19.63,54.05000000000001,-5.13,1.19,2.73,61.59,1013.28,8.83
12.199999999999989,118.66,15.29,53.500000000000014,-6.33,0.06,4.26,61.58,1013.21,9.35
12.299999999999983,118.03,11.209999999999999,51.370000000000005,-6.53,-0.36,6.92,61.58,1013.16,9.68
12.399999999999977,117.57,7.200000000000001,46.95000000000002,-5.82,-0.84,5.36,61.57,1013.11,10.16
12.5,116.41,3.8400000000000003,43.420000000000016,-5.35,-1.82,6.93,61.57,1013.07,10.26
12.599999999999994,114.63,1.1800000000000002,41.150000000000006,-5.91,-1.87,3.72,61.56,1013.06,10.32
12.699999999999989,111.37,0.61,38.920000000000016,-5.66,-1.57,-0.41,61.54,1013.06,10.209999999999999
12.799999999999983,106.53,2.4400000000000004,38.900000000000006,-5.18,-2.24,-6.18,61.53,1013.08,9.99
12.899999999999977,101.69,5.9,39.25,-6.15,-1.91,-12.66,61.52,1013.11,9.79
13.0,97.97,9.14,38.140000000000015,-4.59,-1.9,-13.33,61.51,1013.14,9.59
13.099999999999994,94.65,11.68,36.640000000000015,-3.83,-0.83,-9.13,61.5,1013.15,9.709999999999999
13.199999999999989,90.94,13.77,36.43000000000001,-3.94,0.4,-2.96,61.5,1013.13,9.86
13.299999999999983,86.67,15.53,34.19,-3.65,0.95,-7.06,61.5,1013.11,9.86
13.399999999999977,81.53,17.389999999999997,34.360000000000014,-4.18,0.55,-9.63,61.5,1013.12,9.91
13.5,77.5,17.729999999999997,34.98000000000002,-4.34,1.12,-7.18,61.5,1013.1,10.09
13.599999999999994,73.7,17.95,34.85000000000002,-4.09,1.05,-8.02,61.5,1013.09,10.32
13.699999999999989,70.76,17.419999999999998,34.44,-4.3,1.04,-3.15,61.49,1013.05,10.58
13.799999999999983,67.85,16.88,36.19,-5.35,1.31,-4.94,61.49,1013.03,10.78
13.899999999999977,65.66,16.07,37.04000000000002,-4.33,1.07,-2.83,61.49,1012.99,11.059999999999999
14.0,63.33,15.69,36.51000000000002,-5.06,0.8,-1.36,61.49,1012.95,11.44
14.099999999999994,60.99,15.04,37.03,-5.45,1.09,-3.61,61.49,1012.91,11.68
14.199999999999989,59.26,14.61,35.81,-4.63,0.84,0.1,61.49,1012.88,12.03
14.299999999999983,57.64,14.299999999999999,33.31,-5.3,1.13,-1.83,61.48,1012.85,12.16
14.399999999999977,55.18,14.5,31.939999999999998,-4.19,1.52,-5.2,61.48,1012.84,12.27
14.509999999999991,53.63,13.93,30.130000000000024,-3.46,0.48,-2.0,61.47,1012.82,12.5
14.609999999999985,51.64,13.84,27.610000000000014,-4.83,1.15,-1.44,61.47,1012.79,12.75
14.70999999999998,49.82,13.78,26.49000000000001,-2.99,1.13,-0.57,61.46,1012.76,13.08
14.809999999999974,48.23,14.0,26.610000000000014,-3.66,1.1,-2.02,61.45,1012.72,13.26
14.909999999999997,47.03,14.03,25.090000000000003,-3.7,1.69,-4.07,61.45,1012.7,13.57
15.0,45.17,14.44,26.159999999999997,-2.72,1.29,-4.54,61.44,1012.68,13.7
15.099999999999994,43.64,14.56,27.640000000000015,-3.66,1.61,-2.08,61.43,1012.64,13.870000000000001
15.199999999999989,41.56,14.45,29.180000000000007,-3.4,1.43,-1.98,61.43,1012.63,14.09
15.299999999999983,39.53,14.24,32.27000000000001,-4.37,0.98,-0.93,61.42,1012.59,14.29
15.399999999999977,37.4,14.08,34.02000000000001,-4.91,1.33,-3.98,61.41,1012.58,14.39
15.5,35.54,13.86,35.05000000000001,-3.93,1.14,-4.29,61.41,1012.56,14.469999999999999
15.599999999999994,33.65,13.5,35.27000000000001,-4.94,1.19,-0.98,61.41,1012.54,14.73
15.70999999999998,31.79,13.07,35.93000000000001,-4.01,0.93,-1.0,61.4,1012.53,14.870000000000001
15.799999999999983,30.14,12.62,36.85000000000002,-4.32,0.49,1.23,61.4,1012.5,15.059999999999999
15.909999999999997,28.4,12.06,37.80000000000001,-5.09,0.53,0.37,61.39,1012.48,15.25
16.00999999999999,26.07,11.129999999999999,39.630000000000024,-3.63,0.35,1.22,61.39,1012.46,15.370000000000001
16.109999999999985,23.52,9.87,40.53,-5.39,-0.12,1.34,61.38,1012.46,15.379999999999999
16.20999999999998,20.98,8.709999999999999,40.05000000000001,-5.76,0.19,-2.65,61.37,1012.45,15.370000000000001
16.299999999999983,18.78,7.800000000000001,40.02000000000001,-4.45,0.19,-2.61,61.36,1012.45,15.39
16.399999999999977,16.34,6.550000000000001,41.170000000000016,-5.79,-0.09,-1.52,61.35,1012.45,15.52
16.5,14.55,4.960000000000001,35.09,-5.42,0.1,-1.11,61.34,1012.45,15.41
16.599999999999994,11.77,3.9099999999999997,26.689999999999998,-3.39,-0.46,-5.14,61.34,1012.46,15.32
16.69999999999999,8.39,2.25,19.22,-4.59,-1.17,-1.7,61.33,1012.46,15.379999999999999
16.799999999999983,5.54,1.9,12.900000000000006,-2.73,-0.88,-1.49,61.32,1012.45,15.39
16.899999999999977,4.37,2.01,7.200000000000017,-3.28,-1.0,-0.51,61.31,1012.46,15.28
17.0,4.27,2.34,3.75,-1.85,0.0,-0.52,61.3,1012.47,15.2
17.109999999999985,4.81,3.0000000000000004,1.7300000000000182,0.18,-0.32,-1.31,61.3,1012.48,15.129999999999999
17.20999999999998,5.4,3.36,0.8700000000000045,-0.75,-0.06,-0.89,61.29,1012.49,15.03
17.299999999999983,6.08,3.85,1.700000000000017,0.43,0.0,-0.2,61.29,1012.49,15.14
17.409999999999997,6.56,4.390000000000001,3.0700000000000216,-0.4,-0.22,-1.18,61.28,1012.49,15.120000000000001
17.50999999999999,6.88,5.02,5.760000000000019,-0.78,0.65,-2.65,61.27,1012.49,15.059999999999999
17.599999999999994,7.15,5.85,10.0,-0.35,0.1,-0.78,61.26,1012.5,15.04
17.69999999999999,7.49,6.57,13.600000000000023,-0.91,0.7,-2.17,61.26,1012.49,15.03
17.799999999999983,7.27,7.35,16.230000000000018,-0.42,0.33,-0.7,61.26,1012.5,15.03
17.899999999999977,6.13,7.700000000000001,17.74000000000001,-2.51,0.57,0.44,61.26,1012.5,14.89
18.0,4.74,7.57,18.810000000000002,-1.42,0.95,-0.3,61.26,1012.52,14.92
18.099999999999994,3.11,7.540000000000001,19.01000000000002,-1.82,0.33,-2.42,61.25,1012.51,15.0
18.19999999999999,1.44,7.51,18.82000000000002,-0.92,0.32,-1.6,61.23,1012.5,15.18
18.299999999999983,359.44,7.050000000000001,19.310000000000002,-2.79,0.58,0.03,61.22,1012.46,15.32
18.399999999999977,357.69,7.18,20.25,-2.72,0.84,-2.39,61.22,1012.46,15.45
18.5,356.87,7.040000000000001,20.52000000000001,-3.21,0.52,-2.21,61.21,1012.45,15.41
18.599999999999994,355.99,7.779999999999999,20.650000000000006,-2.3,1.01,-2.73,61.21,1012.46,15.23
18.69999999999999,354.49,9.03,21.47,-2.92,0.71,-1.68,61.21,1012.47,15.309999999999999
18.799999999999983,352.47,11.459999999999999,22.07000000000002,-3.31,1.71,-6.57,61.2,1012.48,15.21
18.899999999999977,350.25,14.69,22.49000000000001,-2.24,1.19,-12.36,61.19,1012.48,15.14
19.0,348.71,16.68,23.05000000000001,-2.78,2.72,-10.34,61.18,1012.49,15.28
19.099999999999994,347.87,15.74,23.22,-1.47,2.19,0.76,61.18,1012.45,15.61
19.19999999999999,346.21,15.69,23.05000000000001,-3.2,2.28,-0.45,61.17,1012.41,15.969999999999999
19.299999999999983,344.84,15.129999999999999,21.51000000000002,-2.47,2.13,0.8,61.17,1012.37,16.37
19.399999999999977,343.54,14.67,20.30000000000001,-3.03,2.6,-2.01,61.18,1012.32,16.55
19.5,342.93,15.2,20.180000000000007,-3.2,1.62,-4.56,61.17,1012.32,16.62
19.599999999999994,342.96,15.209999999999999,20.22,-2.05,2.36,-1.75,61.17,1012.29,16.89
19.69999999999999,342.11,15.49,21.150000000000006,-1.5,1.85,-0.13,61.16,1012.26,17.18
19.799999999999983,341.22,14.53,20.30000000000001,-2.95,2.18,-0.12,61.15,1012.23,17.4
19.899999999999977,340.4,13.75,18.57000000000002,-1.85,1.68,-1.03,61.15,1012.2,17.65
20.0,339.44,13.28,18.52000000000001,-3.1,1.68,-1.98,61.14,1012.18,17.86
20.099999999999994,338.11,13.12,21.210000000000008,-1.86,1.95,0.81,61.13,1012.14,18.08
20.19999999999999,336.64,12.89,22.610000000000014,-2.52,1.3,1.66,61.13,1012.11,18.28
20.299999999999983,335.4,12.29,23.980000000000018,-2.48,1.7,1.14,61.13,1012.09,18.53
20.399999999999977,333.98,11.959999999999999,26.51000000000002,-3.01,1.0,4.35,61.13,1012.07,18.799999999999997
20.5,332.79,11.629999999999999,26.900000000000006,-4.22,1.42,2.25,61.12,1012.03,19.03
20.599999999999994,331.52,11.5,27.54000000000002,-2.66,1.32,2.08,61.11,1012.01,19.259999999999998
20.69999999999999,330.59,11.18,28.710000000000008,-3.63,1.48,-3.68,61.1,1012.0,19.27
20.799999999999983,329.43,11.17,28.0,-2.29,0.95,-3.43,61.09,1012.0,19.18
20.909999999999997,327.61,10.379999999999999,25.420000000000016,-4.09,1.17,-6.11,61.07,1012.0,19.09
21.00999999999999,325.71,9.45,24.03,-1.77,1.31,-1.87,61.07,1012.0,19.18
21.109999999999985,323.2,8.69,22.04000000000002,-2.82,0.81,-3.89,61.06,1011.99,19.369999999999997
21.20999999999998,320.36,7.640000000000001,20.76000000000002,-2.93,1.04,-1.56,61.05,1011.97,19.490000000000002
21.309999999999974,318.29,7.0,20.99000000000001,-3.84,0.49,1.02,61.05,1011.96,19.490000000000002
21.399999999999977,317.73,7.140000000000001,21.120000000000005,-3.49,1.03,-0.69,61.05,1011.95,19.57
21.50999999999999,317.59,7.24,22.55000000000001,-1.72,0.38,1.51,61.05,1011.94,19.65
21.599999999999994,316.9,7.200000000000001,23.390000000000015,-1.87,1.01,0.01,61.04,1011.94,19.71
21.69999999999999,315.32,6.960000000000001,22.900000000000006,-2.09,0.48,-0.28,61.04,1011.93,19.75
21.799999999999983,313.21,6.27,23.180000000000007,-3.11,0.83,-0.42,61.04,1011.93,19.79
21.899999999999977,311.08,5.450000000000001,21.650000000000006,-1.71,0.76,-0.56,61.02,1011.92,19.98
22.0,308.88,5.08,19.55000000000001,-2.62,0.95,-3.96,61.01,1011.9,20.08
22.109999999999985,306.84,5.0,22.120000000000005,-4.72,0.46,-1.92,61.01,1011.88,20.11
22.19999999999999,304.93,6.470000000000001,24.54000000000002,-4.69,1.42,-6.53,61.0,1011.89,20.13
22.299999999999983,303.88,10.32,24.480000000000018,-3.17,0.9,-6.44,61.0,1011.88,20.21
22.409999999999997,303.26,13.26,25.07000000000002,-3.27,2.54,-7.88,60.99,1011.86,20.35
22.50999999999999,303.26,12.49,26.159999999999997,-2.39,1.44,6.9,60.99,1011.85,20.619999999999997
22.609999999999985,301.78,12.51,25.72,-3.9,2.47,-3.26,60.99,1011.82,20.65
22.70999999999998,300.85,12.18,23.659999999999997,-2.99,1.42,-1.43,60.99,1011.81,20.85
22.799999999999983,301.2,12.18,22.909999999999997,-2.75,2.55,-1.83,60.98,1011.79,20.86
22.899999999999977,300.84,11.709999999999999,23.05000000000001,-2.37,1.7,-3.2,60.97,1011.77,21.189999999999998
23.0,299.44,11.03,21.78,-2.79,2.91,-0.39,60.97,1011.74,21.509999999999998
23.099999999999994,297.93,10.27,22.53,-2.43,2.18,-1.8,60.96,1011.7,21.78
23.19999999999999,296.56,10.02,22.97,-2.15,2.28,-0.69,60.96,1011.68,21.88
23.299999999999983,295.62,9.9,23.51000000000002,-3.86,1.72,4.03,60.95,1011.65,22.17
23.399999999999977,294.84,9.4,23.420000000000016,-3.92,1.62,1.04,60.94,1011.63,22.43
23.50999999999999,293.8,9.35,23.53,-3.79,2.1,-0.65,60.94,1011.62,22.61
23.609999999999985,292.85,8.83,23.75,-4.11,2.01,-0.47,60.93,1011.58,22.82
23.70999999999998,291.75,9.34,25.430000000000007,-4.3,2.44,-2.7,60.93,1011.55,22.91
23.809999999999974,290.8,9.97,25.460000000000008,-3.77,2.45,-2.75,60.93,1011.55,22.939999999999998
23.909999999999997,289.49,10.48,25.82000000000002,-3.6,1.91,-2.64,60.92,1011.55,23.07
24.0,288.32,10.299999999999999,27.230000000000018,-3.9,1.99,0.25,60.92,1011.52,23.27
24.109999999999985,285.87,12.78,27.680000000000007,-3.5,2.01,-9.25,60.91,1011.51,23.299999999999997
24.19999999999999,283.98,14.68,28.430000000000007,-3.66,2.39,-5.45,60.91,1011.5,23.33
24.299999999999983,282.05,16.01,28.99000000000001,-2.63,3.06,-4.69,60.9,1011.49,23.52
24.399999999999977,280.74,15.56,26.960000000000008,-2.95,2.97,-11.58,60.9,1011.46,23.78
24.5,279.34,14.709999999999999,29.130000000000024,-3.14,3.31,-2.11,60.9,1011.43,24.11
24.599999999999994,277.9,14.18,31.390000000000015,-4.76,2.87,-0.76,60.9,1011.38,24.63
24.69999999999999,277.46,13.549999999999999,32.670000000000016,-5.37,2.52,4.69,60.9,1011.32,25.130000000000003
24.799999999999983,276.84,13.57,36.360000000000014,-4.53,2.41,0.36,60.9,1011.28,25.450000000000003
24.899999999999977,276.69,13.379999999999999,36.53,-4.26,3.1,-3.42,60.89,1011.24,25.740000000000002
25.0,276.07,13.44,38.97,-4.19,2.55,-0.89,60.88,1011.2,25.97
25.099999999999994,275.64,12.58,41.390000000000015,-5.71,2.6,3.25,60.87,1011.16,26.22
25.19999999999999,274.75,11.94,43.130000000000024,-6.06,2.08,4.06,60.87,1011.14,26.32
25.299999999999983,273.56,11.87,43.21000000000001,-6.08,2.25,-2.34,60.86,1011.14,26.42
25.399999999999977,271.73,11.81,44.620000000000005,-5.83,1.89,-1.78,60.86,1011.14,26.46
25.5,268.35,13.19,44.70000000000002,-5.83,2.06,-7.69,60.85,1011.12,26.61
25.599999999999994,265.25,13.78,46.78,-4.7,2.11,-6.1,60.83,1011.12,26.57
25.69999999999999,262.04,14.08,46.09,-4.55,2.49,-8.93,60.82,1011.12,26.57
25.799999999999983,258.95,13.89,45.96000000000001,-4.77,2.18,-8.54,60.82,1011.1,26.61
25.899999999999977,256.56,13.25,45.140000000000015,-5.18,2.54,-7.73,60.81,1011.11,26.79
26.0,255.1,11.82,44.99000000000001,-6.16,1.89,-3.42,60.81,1011.08,26.9
26.099999999999994,252.14,10.77,44.84,-5.12,1.77,-2.83,60.81,1011.07,26.990000000000002
26.19999999999999,248.85,10.98,45.53,-4.63,1.96,-3.12,60.8,1011.04,27.25
26.299999999999983,246.01,10.97,46.77000000000001,-4.68,1.9,-6.5,60.8,1011.03,27.33
26.399999999999977,243.62,10.61,45.630000000000024,-5.73,2.29,-6.61,60.79,1011.01,27.509999999999998
26.5,240.77,10.52,45.380000000000024,-5.75,1.92,-4.88,60.79,1010.99,27.65
26.599999999999994,236.88,11.69,46.26000000000002,-5.72,1.36,-9.87,60.78,1010.98,27.67
26.69999999999999,233.0,12.97,47.53,-4.65,1.61,-11.07,60.77,1010.97,27.86
26.799999999999983,228.9,14.14,46.81,-5.52,2.04,-7.34,60.77,1010.95,28.089999999999996
26.899999999999977,225.49,15.12,47.03,-5.82,2.6,-11.56,60.76,1010.91,28.36
27.0,221.75,16.240000000000002,48.80000000000001,-6.28,2.57,-11.7,60.76,1010.9,28.54
27.099999999999994,218.57,16.819999999999997,49.650000000000006,-5.64,2.07,-6.1,60.75,1010.86,28.93
27.19999999999999,215.61,16.869999999999997,47.94,-5.41,1.94,-4.6,60.75,1010.8,29.439999999999998
27.299999999999983,212.83,15.799999999999999,47.28,-4.61,1.91,-2.49,60.74,1010.75,29.740000000000002
27.409999999999997,209.9,14.16,48.72,-5.25,2.16,-3.99,60.73,1010.71,30.189999999999998
27.50999999999999,206.84,12.709999999999999,51.49000000000001,-8.12,1.81,-6.32,60.72,1010.67,30.439999999999998
27.609999999999985,203.73,12.23,53.870000000000005,-8.33,1.35,-5.72,60.72,1010.63,30.659999999999997
27.70999999999998,201.21,12.59,54.730000000000004,-6.06,1.45,-5.8,60.71,1010.6,30.990000000000002
27.799999999999983,197.64,13.82,56.110000000000014,-6.99,1.92,-8.17,60.7,1010.57,31.21
27.909999999999997,193.78,14.53,57.91000000000001,-7.16,1.32,-7.95,60.7,1010.55,31.450000000000003
28.00999999999999,189.44,14.62,59.540000000000006,-6.21,1.53,-8.6,60.7,1010.52,31.57
28.099999999999994,185.06,14.1,61.390000000000015,-6.45,1.34,-9.8,60.7,1010.5,31.810000000000002
28.19999999999999,179.33,13.799999999999999,62.96000000000001,-8.12,0.38,-10.84,60.7,1010.48,31.990000000000002
28.299999999999983,174.09,13.4,63.41000000000001,-6.13,0.85,-11.84,60.69,1010.46,32.2
28.399999999999977,169.26,12.9,62.58000000000001,-6.75,0.25,-10.61,60.69,1010.42,32.42
28.50999999999999,163.73,12.78,62.74000000000001,-7.03,1.0,-12.3,60.68,1010.4,32.65
28.599999999999994,158.39,12.799999999999999,63.46000000000001,-7.91,0.73,-11.49,60.68,1010.37,32.92
28.69999999999999,153.09,12.49,64.06000000000002,-6.33,0.59,-10.18,60.67,1010.34,33.21
28.809999999999974,147.55,11.52,64.33000000000001,-7.73,0.41,-10.62,60.67,1010.3,33.41
28.909999999999997,143.73,8.93,64.84,-8.53,-0.34,-8.66,60.66,1010.28,33.58
29.00999999999999,142.32,5.210000000000001,64.91000000000001,-6.04,0.27,-3.36,60.66,1010.26,33.78
29.109999999999985,142.09,0.83,55.730000000000004,-7.02,-0.82,2.97,60.66,1010.24,34.08
29.19999999999999,139.98,-3.7999999999999994,43.55000000000001,-5.73,-1.56,1.86,60.66,1010.2,34.28
29.299999999999983,135.48,-7.209999999999999,34.46000000000001,-4.98,-1.64,-0.96,60.65,1010.17,34.37
29.399999999999977,130.14,-7.970000000000001,26.97,-5.61,-1.91,-6.17,60.64,1010.18,34.35
29.5,126.15,-7.369999999999999,20.82000000000002,-5.2,-2.34,-3.09,60.63,1010.19,34.24
29.599999999999994,123.46,-6.049999999999999,16.99000000000001,-3.05,-1.86,-3.31,60.62,1010.2,34.22
29.69999999999999,121.79,-4.699999999999999,13.380000000000024,-3.69,-1.59,-4.93,60.61,1010.19,34.3
29.799999999999983,120.78,-3.9,10.620000000000005,-3.19,-1.56,-3.21,60.61,1010.19,34.26
29.909999999999997,120.45,-3.5100000000000002,9.460000000000008,-3.44,-1.57,-0.93,60.61,1010.19,34.38
30.00999999999999,120.65,-3.18,8.51000000000002,-1.63,-1.16,-1.1,60.61,1010.17,34.57
30.109999999999985,120.72,-2.93,9.780000000000001,-3.12,-0.98,1.18,60.6,1010.13,34.81
30.20999999999998,121.07,-2.31,9.050000000000011,-2.72,-1.19,-1.31,60.59,1010.12,34.72
30.309999999999974,121.14,-1.7799999999999998,8.189999999999998,-0.88,-1.42,-1.65,60.59,1010.13,34.8
30.409999999999997,120.93,-1.81,7.1200000000000045,-0.88,-0.6,-0.49,60.58,1010.12,34.98
30.50999999999999,120.51,-1.65,4.939999999999998,-1.79,-1.05,-0.99,60.58,1010.1,35.14
30.609999999999985,120.16,-1.9600000000000004,4.430000000000007,-0.46,-1.1,-3.17,60.58,1010.07,35.4
30.69999999999999,120.02,-3.1,6.380000000000024,-0.02,-1.0,-3.66,60.57,1010.06,35.44
30.799999999999983,120.48,-5.6,7.230000000000018,-2.09,-1.23,6.84,60.57,1010.02,35.92
30.899999999999977,120.83,-7.520000000000001,7.659999999999997,-0.84,-1.38,2.07,60.56,1009.98,36.089999999999996
31.0,120.94,-7.58,7.0,-1.15,-1.67,0.82,60.56,1009.96,36.38
31.099999999999994,120.93,-8.05,7.150000000000006,-0.99,-1.09,1.05,60.55,1009.92,36.51
31.19999999999999,121.04,-8.200000000000001,7.320000000000022,-1.56,-1.8,3.32,60.54,1009.9,36.7
31.299999999999983,121.31,-8.85,8.27000000000001,-0.46,-1.29,0.8,60.54,1009.89,36.97
31.399999999999977,121.55,-9.200000000000001,9.380000000000024,-2.06,-2.25,0.69,60.53,1009.87,36.97
31.5,121.36,-9.71,9.240000000000009,-1.48,-2.08,0.64,60.53,1009.86,37.05
31.599999999999994,121.55,-10.49,10.900000000000006,-2.39,-1.63,0.69,60.52,1009.85,37.2
31.69999999999999,122.26,-11.17,12.219999999999999,-2.39,-2.3,3.8,60.52,1009.83,37.29
31.799999999999983,123.34,-12.4,13.980000000000018,-2.02,-1.84,0.69,60.51,1009.83,37.32
31.899999999999977,124.26,-12.96,14.51000000000002,-1.75,-2.44,-1.39,60.5,1009.84,37.18
32.0,124.42,-13.02,13.240000000000009,-0.43,-1.92,-0.43,60.5,1009.83,37.339999999999996
32.099999999999994,123.9,-13.49,13.550000000000011,-2.03,-1.98,0.08,60.49,1009.82,37.339999999999996
32.19999999999999,122.98,-14.16,13.600000000000023,-2.37,-2.42,1.63,60.49,1009.83,37.46
32.29999999999998,121.87,-14.57,15.350000000000023,-1.52,-2.37,3.75,60.49,1009.82,37.32
32.39999999999998,121.32,-14.77,15.460000000000008,-0.24,-2.65,1.1,60.49,1009.84,37.08
32.5,120.61,-15.41,14.210000000000008,0.46,-5.12,3.38,60.48,1009.86,36.97
32.599999999999994,118.78,-16.82,14.480000000000018,-1.2,-5.36,3.82,60.47,1009.86,36.86
32.69999999999999,116.26,-17.660000000000004,13.920000000000016,-0.9,-4.93,0.16,60.47,1009.91,36.61
32.79999999999998,114.87,-19.05,14.76000000000002,-1.56,-5.02,7.29,60.46,1009.9,36.67
32.89999999999998,114.21,-19.240000000000002,15.780000000000001,-1.62,-4.62,2.19,60.45,1009.91,36.51
33.0,114.01,-19.3,17.909999999999997,-2.37,-4.67,-5.08,60.43,1009.93,36.35
33.099999999999994,114.23,-19.23,18.189999999999998,-1.59,-4.72,-3.32,60.42,1009.96,35.99
33.19999999999999,114.35,-19.290000000000003,18.47,-1.84,-4.53,-0.18,60.4,1009.99,35.81
33.29999999999998,114.62,-19.310000000000002,17.80000000000001,-1.42,-4.6,7.8,60.39,1010.01,35.74
33.39999999999998,114.9,-19.48,17.25,-1.37,-4.21,1.01,60.39,1010.03,35.39
33.5,114.99,-19.360000000000003,18.189999999999998,-2.08,-3.75,-0.94,60.38,1010.08,35.05
33.599999999999994,115.07,-19.430000000000003,19.30000000000001,-2.51,-3.33,0.03,60.37,1010.12,34.72
33.70999999999998,115.57,-19.470000000000002,19.78,-1.59,-3.69,0.06,60.36,1010.15,34.47
33.79999999999998,115.91,-19.46,21.120000000000005,-0.86,-3.89,2.45,60.35,1010.19,34.089999999999996
33.91,115.28,-19.69,21.52000000000001,-1.24,-3.32,-1.45,60.33,1010.24,33.63
34.00999999999999,114.4,-19.96,21.480000000000018,-2.6,-3.5,1.15,60.33,1010.29,33.17
34.109999999999985,113.99,-19.970000000000002,21.950000000000017,-2.73,-3.56,-0.59,60.32,1010.35,32.67
34.20999999999998,113.65,-19.03,20.310000000000002,-2.19,-2.93,-4.92,60.31,1010.41,32.08
34.29999999999998,112.96,-17.42,17.310000000000002,-1.82,-2.45,-5.72,60.3,1010.49,31.65
34.41,112.09,-16.35,15.870000000000005,-0.34,-2.74,-8.74,60.28,1010.52,31.259999999999998
34.5,110.53,-16.080000000000002,13.130000000000024,-2.13,-2.62,-3.51,60.27,1010.57,30.78
34.599999999999994,109.65,-15.3,13.719999999999999,-1.73,-2.06,-1.87,60.26,1010.61,30.57
34.69999999999999,109.65,-13.55,14.640000000000015,-0.95,-1.44,-5.77,60.26,1010.64,30.33
34.79999999999998,109.48,-13.15,13.420000000000016,-0.62,-2.0,-2.89,60.26,1010.66,30.200000000000003
34.91,108.49,-13.13,13.920000000000016,-1.5,-0.99,1.13,60.27,1010.69,30.07
35.0,107.99,-12.26,16.170000000000016,-2.0,-0.69,-8.35,60.27,1010.71,29.9
35.109999999999985,108.74,-12.77,17.810000000000002,-1.04,-0.72,-1.86,60.28,1010.72,29.689999999999998
35.20999999999998,108.83,-13.1,17.380000000000024,-1.29,-1.67,9.22,60.28,1010.73,29.68
35.29999999999998,107.96,-12.120000000000001,14.880000000000024,-1.29,-0.85,-5.37,60.28,1010.75,29.509999999999998
35.41,107.23,-12.84,14.390000000000015,-1.85,-0.74,-2.37,60.27,1010.76,29.520000000000003
35.50999999999999,107.23,-13.66,14.659999999999997,-1.49,-1.0,5.29,60.26,1010.77,29.339999999999996
35.599999999999994,107.19,-12.42,15.670000000000016,-0.15,-0.9,0.37,60.25,1010.8,29.22
35.69999999999999,106.91,-12.31,16.200000000000017,-0.92,-1.12,-9.04,60.24,1010.81,28.96
35.79999999999998,106.82,-13.44,16.480000000000018,-2.26,-1.3,6.04,60.23,1010.85,28.71
35.89999999999998,105.67,-10.78,17.620000000000005,-1.27,-0.64,-6.42,60.22,1010.89,28.42
36.0,105.07,-9.08,18.590000000000003,-1.59,-0.18,-16.19,60.2,1010.89,28.47
36.099999999999994,104.9,-8.16,21.390000000000015,-1.68,-0.15,0.79,60.2,1010.91,27.979999999999997
36.19999999999999,102.16,-0.69,21.130000000000024,-1.33,0.86,-23.42,60.2,1010.97,27.630000000000003
36.29999999999998,99.8,5.65,22.130000000000024,-1.36,1.17,-30.24,60.19,1011.01,27.47
36.41,98.9,8.549999999999999,23.77000000000001,-0.16,2.13,-11.94,60.19,1010.98,27.770000000000003
36.50999999999999,96.89,12.45,28.24000000000001,-1.52,3.16,-9.06,60.19,1010.94,28.369999999999997
36.609999999999985,93.57,16.34,33.670000000000016,-2.52,3.8,-21.94,60.19,1010.87,29.060000000000002
36.70999999999998,92.57,16.81,38.5,-2.73,4.45,-8.0,60.19,1010.77,29.939999999999998
36.79999999999998,92.01,15.99,43.54000000000002,-4.49,3.53,6.47,60.2,1010.66,30.909999999999997
36.91,90.14,15.56,48.83000000000001,-5.07,3.51,-1.71,60.2,1010.54,31.939999999999998
37.0,89.69,14.51,52.030000000000015,-4.88,3.01,-0.13,60.19,1010.41,32.73
37.099999999999994,89.45,13.68,56.150000000000006,-7.07,3.47,3.4,60.18,1010.33,33.55
37.19999999999999,88.46,13.379999999999999,59.57000000000001,-6.02,3.53,-1.13,60.17,1010.24,34.27
37.29999999999998,87.84,11.99,58.77000000000001,-6.5,3.55,-2.53,60.16,1010.15,34.83
37.39999999999998,86.3,10.209999999999999,57.97000000000001,-5.65,3.04,1.66,60.16,1010.1,35.339999999999996
37.5,83.63,8.94,58.99000000000001,-6.94,2.7,-5.39,60.15,1010.03,35.78
37.599999999999994,80.58,8.73,59.38000000000001,-7.82,2.91,-7.07,60.14,1009.98,36.29
37.69999999999996,78.61,7.98,59.890000000000015,-6.9,2.59,-4.86,60.13,1009.93,36.79
37.79999999999998,76.72,6.6899999999999995,60.27000000000001,-6.63,2.26,0.78,60.12,1009.87,37.26
37.900000000000006,74.21,5.200000000000001,60.760000000000005,-6.95,2.19,-2.48,60.11,1009.81,37.53
37.99999999999997,71.46,4.1,61.57000000000001,-6.74,2.17,-6.96,60.1,1009.78,37.88
38.099999999999994,66.66,4.27,62.81000000000002,-7.69,2.21,-11.97,60.09,1009.75,37.94
38.19999999999996,62.35,4.540000000000001,64.12,-9.06,1.67,-14.99,60.08,1009.74,38.0
38.29999999999998,59.07,4.290000000000001,65.23,-7.46,1.3,-8.54,60.08,1009.74,38.03
38.400000000000006,55.48,4.4399999999999995,64.10000000000001,-7.32,2.03,-8.69,60.07,1009.73,38.08
38.49999999999997,52.47,4.220000000000001,62.540000000000006,-6.9,1.62,-7.63,60.06,1009.73,37.97
38.599999999999994,49.61,3.7899999999999996,62.21000000000001,-7.87,1.22,-6.72,60.05,1009.74,38.22
38.69999999999996,48.6,1.81,62.02000000000001,-6.49,1.29,-2.76,60.05,1009.72,38.23
38.79999999999998,46.25,0.18,62.60000000000001,-7.26,0.52,-3.71,60.03,1009.71,38.21
38.900000000000006,44.63,-2.43,62.10000000000001,-6.46,0.28,-1.81,60.03,1009.72,38.05
38.99999999999997,43.17,-5.390000000000001,62.63000000000001,-7.47,-0.22,1.07,60.02,1009.75,37.7
39.099999999999994,41.81,-8.46,62.640000000000015,-7.03,-1.04,1.84,60.02,1009.78,37.51
39.19999999999996,40.8,-11.0,59.18000000000001,-7.05,-1.17,1.76,60.01,1009.83,37.17
39.29999999999998,39.92,-13.41,56.010000000000005,-6.97,-1.77,5.57,60.01,1009.85,36.87
39.400000000000006,38.47,-15.13,51.43000000000001,-5.68,-1.8,0.22,60.0,1009.9,36.44
39.49999999999997,34.8,-15.34,45.73000000000002,-6.02,-1.28,-6.73,59.99,1009.96,35.9
39.599999999999994,30.03,-14.83,39.47,-5.71,-1.84,-12.36,59.98,1010.04,35.3
39.69999999999996,24.4,-12.84,34.76000000000002,-6.26,-0.96,-15.29,59.97,1010.11,34.45
39.79999999999998,19.49,-9.24,30.189999999999998,-5.37,-0.59,-18.61,59.96,1010.21,33.85
39.900000000000006,15.6,-4.890000000000001,26.55000000000001,-4.97,-0.48,-20.06,59.95,1010.28,33.16
39.99999999999997,12.41,-0.4,24.25,-4.3,0.27,-14.55,59.94,1010.33,32.97
40.109999999999985,10.34,2.5799999999999996,23.05000000000001,-2.86,1.26,-15.59,59.94,1010.36,32.72
40.21000000000001,8.99,4.48,19.920000000000016,-1.49,1.94,-13.54,59.95,1010.39,32.47
40.309999999999974,7.18,5.57,15.980000000000018,-2.0,2.08,-10.53,59.95,1010.41,32.589999999999996
40.41,5.26,4.720000000000001,10.900000000000006,-1.91,1.79,-1.62,59.96,1010.39,32.7
40.50999999999996,3.59,4.130000000000001,8.090000000000003,0.17,1.82,3.35,59.97,1010.37,32.82
40.599999999999994,2.16,3.57,4.130000000000024,-0.29,2.06,-0.14,59.97,1010.34,32.99
40.69999999999996,1.08,3.22,0.4000000000000057,-0.53,1.82,-2.39,59.98,1010.35,33.0
40.79999999999998,0.21,2.68,0.3800000000000239,-0.41,1.2,0.75,59.97,1010.33,33.32
40.900000000000006,0.07,1.39,-1.3499999999999943,0.49,1.44,2.83,59.96,1010.28,33.6
40.99999999999997,0.3,1.25,354.55,-0.32,0.83,4.01,59.95,1010.26,33.74
41.099999999999994,0.38,0.35,352.88,1.41,0.75,4.22,59.95,1010.26,33.79
41.19999999999996,0.71,0.010000000000000009,352.29,2.09,0.77,4.32,59.95,1010.23,33.89
41.309999999999974,0.77,-0.7,347.9,1.48,0.72,1.47,59.94,1010.23,33.88
41.400000000000006,0.27,-0.27,343.40999999999997,3.74,1.0,0.18,59.93,1010.23,33.91
41.49999999999997,359.09,-0.42999999999999994,340.46000000000004,2.97,1.13,1.8,59.93,1010.22,34.02
41.609999999999985,359.07,-0.5,341.49,0.76,0.84,-3.19,59.92,1010.22,34.05
41.71000000000001,360.0,-1.6599999999999997,341.24,3.39,0.75,1.9,59.91,1010.22,34.02
41.79999999999998,1.24,-2.31,341.57000000000005,2.67,0.6,2.9,59.91,1010.21,34.11
41.900000000000006,2.07,-3.07,342.18,3.02,0.69,1.62,59.9,1010.2,34.11
41.99999999999997,2.44,-2.81,345.26,1.72,0.64,-4.35,59.89,1010.2,34.12
42.099999999999994,2.85,-3.6700000000000004,346.25,1.07,0.57,1.45,59.88,1010.21,34.12
42.19999999999996,3.91,-3.7499999999999996,347.99,2.92,0.47,1.01,59.88,1010.21,34.04
42.29999999999998,4.8,-4.43,349.86,2.62,0.18,4.45,59.88,1010.23,33.91
42.400000000000006,5.44,-2.5799999999999996,351.90999999999997,0.99,0.42,-8.36,59.87,1010.24,33.9
42.49999999999997,4.98,-3.9,355.17,1.83,0.11,6.06,59.87,1010.23,33.89
42.599999999999994,4.85,-3.94,357.53,-0.63,-0.18,4.39,59.87,1010.24,33.75
42.71000000000001,5.02,-4.41,-1.1099999999999852,1.15,0.07,3.19,59.87,1010.26,33.53
42.809999999999974,5.37,-4.99,-0.8100000000000023,0.91,0.23,2.75,59.87,1010.27,33.61
42.900000000000006,5.56,-4.8100000000000005,0.4099999999999966,-0.86,-0.27,0.39,59.86,1010.28,33.6
43.00999999999996,5.62,-5.299999999999999,1.1000000000000227,0.87,0.05,-0.04,59.85,1010.28,33.57
43.109999999999985,5.61,-5.43,1.3600000000000136,-0.75,-0.17,0.2,59.84,1010.29,33.37
43.19999999999996,5.59,-5.890000000000001,2.1500000000000057,0.52,0.0,1.57,59.84,1010.31,33.19
43.29999999999998,5.6,-6.17,3.0900000000000034,-0.23,0.17,0.19,59.83,1010.33,33.07
43.400000000000006,5.51,-6.23,3.680000000000007,-0.47,-0.23,1.24,59.83,1010.34,32.91
43.49999999999997,5.17,-5.470000000000001,3.3400000000000034,0.01,0.36,-3.07,59.82,1010.37,32.56
43.599999999999994,4.68,-3.02,4.27000000000001,-0.25,0.45,-5.98,59.82,1010.42,32.36
43.69999999999996,4.43,-0.9099999999999999,5.550000000000011,-1.6,0.29,-4.49,59.82,1010.43,32.1
43.79999999999998,4.08,2.2,6.860000000000014,-0.61,1.03,-9.27,59.81,1010.47,32.0
43.900000000000006,3.91,5.370000000000001,9.75,-1.84,1.76,-7.69,59.81,1010.46,31.869999999999997
43.99999999999997,3.78,8.35,13.689999999999998,-0.53,1.94,-7.02,59.8,1010.49,31.810000000000002
44.099999999999994,3.9,9.43,16.370000000000005,-1.65,2.53,-3.43,59.8,1010.48,31.990000000000002
44.19999999999996,3.16,9.799999999999999,18.380000000000024,-0.43,2.59,-2.53,59.81,1010.46,32.17
44.29999999999998,1.85,8.82,18.159999999999997,-1.99,2.01,0.46,59.8,1010.43,32.35
44.400000000000006,0.04,8.31,18.99000000000001,-3.51,2.18,-0.51,59.8,1010.42,32.56
44.49999999999997,358.7,7.540000000000001,19.53,-2.03,2.01,-1.0,59.8,1010.39,32.78
44.599999999999994,357.47,6.92,20.670000000000016,-4.05,1.39,0.53,59.79,1010.37,32.86
44.69999999999996,356.45,6.370000000000001,22.100000000000023,-2.22,1.77,-0.53,59.79,1010.35,32.94
44.79999999999998,355.55,5.6899999999999995,22.100000000000023,-4.26,1.35,0.0,59.78,1010.34,33.17
44.900000000000006,354.73,5.029999999999999,22.360000000000014,-2.35,1.5,-0.54,59.77,1010.31,33.29
44.99999999999997,353.75,4.16,22.950000000000017,-3.97,0.76,4.22,59.77,1010.3,33.41
45.099999999999994,352.59,3.4,23.54000000000002,-2.75,1.18,-0.63,59.76,1010.29,33.42
45.19999999999996,351.25,2.8299999999999996,23.840000000000003,-2.48,0.78,1.68,59.76,1010.29,33.44
45.29999999999998,349.75,1.81,24.110000000000014,-4.3,0.58,1.09,59.75,1010.28,33.53
45.400000000000006,348.23,0.72,24.480000000000018,-3.03,0.47,2.32,59.75,1010.28,33.51
45.49999999999997,346.69,0.10999999999999999,24.620000000000005,-4.66,0.21,0.92,59.74,1010.28,33.42
45.599999999999994,345.26,-0.020000000000000018,25.04000000000002,-3.3,0.7,-2.04,59.74,1010.3,33.28
45.69999999999996,344.06,-0.020000000000000018,25.590000000000003,-3.26,0.33,-0.43,59.73,1010.31,33.26
45.79999999999998,343.21,-0.42000000000000004,26.180000000000007,-4.55,0.19,2.14,59.72,1010.32,33.11
45.900000000000006,341.19,0.81,26.810000000000002,-3.64,0.18,-4.09,59.72,1010.34,33.03
45.99999999999997,339.28,1.5,27.49000000000001,-4.43,0.95,-3.69,59.72,1010.34,32.93
46.099999999999994,337.14,2.45,27.860000000000014,-4.18,0.44,-4.26,59.71,1010.37,32.7
46.21000000000001,335.05,2.86,28.01000000000002,-3.61,1.35,-4.67,59.71,1010.38,32.51
46.309999999999974,332.51,3.8000000000000003,28.930000000000007,-5.11,0.9,-4.52,59.7,1010.4,32.55
46.400000000000006,330.09,4.779999999999999,29.360000000000014,-3.83,1.41,-5.06,59.69,1010.4,32.56
46.50999999999996,328.3,4.620000000000001,29.930000000000007,-3.84,0.85,0.63,59.68,1010.39,32.57
46.609999999999985,327.03,3.56,31.01000000000002,-4.97,1.06,2.01,59.68,1010.39,32.66
46.71000000000001,325.69,2.5799999999999996,29.340000000000003,-3.13,1.07,-0.8,59.67,1010.39,32.56
46.809999999999974,324.18,1.27,23.189999999999998,-4.14,1.03,-1.77,59.67,1010.4,32.45
46.900000000000006,322.13,0.13,18.420000000000016,-2.64,0.44,-0.54,59.66,1010.41,32.339999999999996
46.99999999999997,320.15,-0.5800000000000001,16.74000000000001,-3.74,0.36,3.23,59.65,1010.41,32.32
47.099999999999994,319.02,-0.76,15.939999999999998,-1.58,0.62,-0.12,59.65,1010.42,32.2
47.19999999999996,318.02,-0.20999999999999996,15.580000000000013,-3.26,0.9,-3.91,59.64,1010.44,32.03
47.29999999999998,317.21,0.39,13.990000000000009,-3.1,0.28,-2.52,59.64,1010.48,31.700000000000003
47.400000000000006,316.32,1.6300000000000001,11.990000000000009,-1.5,1.19,-4.51,59.63,1010.51,31.509999999999998
47.49999999999997,315.31,2.69,9.460000000000008,-1.59,0.75,-2.56,59.63,1010.53,31.43
47.599999999999994,314.09,4.52,7.280000000000001,-0.32,1.53,-3.86,59.62,1010.53,31.32
47.71000000000001,313.01,5.93,5.490000000000009,-1.95,1.19,-3.11,59.62,1010.55,31.21
47.809999999999974,312.01,7.3100000000000005,4.990000000000009,-0.91,2.12,-7.78,59.62,1010.57,31.159999999999997
47.900000000000006,311.29,8.53,3.6200000000000045,-1.04,1.42,-5.35,59.62,1010.56,31.29
48.00999999999996,311.2,9.03,2.710000000000008,-0.68,2.26,-1.85,59.62,1010.54,31.409999999999997
48.099999999999994,311.3,10.28,2.3500000000000227,-1.05,1.76,-2.65,59.62,1010.52,31.53
48.19999999999996,311.43,11.03,1.950000000000017,-0.54,2.44,-3.02,59.62,1010.52,31.53
48.29999999999998,311.66,11.49,3.210000000000008,0.64,2.23,-1.42,59.62,1010.51,31.82
48.400000000000006,312.06,10.95,4.170000000000016,-1.2,1.9,1.86,59.62,1010.47,32.08
48.49999999999997,312.24,11.08,5.510000000000019,-0.67,2.47,-0.57,59.62,1010.43,32.29
48.599999999999994,312.65,10.54,7.130000000000024,-1.91,1.79,2.63,59.61,1010.42,32.46
48.69999999999996,313.12,10.629999999999999,8.340000000000003,-0.04,2.3,-0.39,59.61,1010.39,32.65
48.79999999999998,313.59,10.379999999999999,10.610000000000014,-0.88,1.66,3.4,59.6,1010.37,33.01
48.900000000000006,313.72,10.19,12.060000000000002,-0.43,2.09,0.18,59.6,1010.33,33.16
48.99999999999997,313.31,10.09,12.430000000000007,-0.5,1.66,0.55,59.59,1010.31,33.21
49.109999999999985,312.37,9.73,14.380000000000024,-1.64,1.32,1.77,59.59,1010.31,33.38
49.21000000000001,310.69,9.07,16.51000000000002,-3.48,1.55,0.12,59.58,1010.3,33.54
49.29999999999998,308.93,8.49,17.830000000000013,-2.35,1.82,-0.37,59.58,1010.27,33.62
49.400000000000006,307.59,7.9,19.120000000000005,-3.76,1.03,2.29,59.57,1010.27,33.79
49.49999999999997,306.8,7.27,20.810000000000002,-4.03,1.49,-0.85,59.57,1010.24,33.83
49.599999999999994,306.34,6.85,21.689999999999998,-2.7,1.5,-2.32,59.56,1010.24,33.94
49.69999999999996,306.09,6.550000000000001,22.450000000000017,-2.85,0.95,0.3,59.56,1010.23,34.05
49.79999999999998,305.76,6.210000000000001,22.920000000000016,-4.01,0.61,0.65,59.55,1010.21,34.04
49.900000000000006,304.89,6.59,22.99000000000001,-2.95,0.65,0.22,59.55,1010.22,34.14
49.99999999999997,303.66,7.27,23.350000000000023,-3.93,0.84,-1.12,59.55,1010.2,34.22
50.099999999999994,302.11,8.03,23.580000000000013,-3.87,1.47,-4.17,59.54,1010.2,34.22
50.19999999999996,300.93,7.16,24.189999999999998,-3.01,1.15,1.37,59.53,1010.19,34.31
50.29999999999998,299.59,6.6899999999999995,25.150000000000006,-4.48,0.93,0.32,59.53,1010.18,34.39
50.400000000000006,298.32,6.200000000000001,26.850000000000023,-4.21,1.53,-2.93,59.52,1010.17,34.4
50.49999999999997,296.74,6.3100000000000005,29.189999999999998,-3.53,1.16,-4.72,59.52,1010.18,34.32
50.599999999999994,295.08,6.23,31.25,-4.99,0.84,-2.72,59.51,1010.19,34.23
50.69999999999996,292.96,7.42,33.18000000000001,-4.28,1.58,-6.25,59.51,1010.2,34.17
50.79999999999998,290.5,9.61,32.920000000000016,-4.16,1.47,-5.59,59.52,1010.19,34.21
50.900000000000006,288.96,10.89,31.659999999999997,-4.96,1.74,-6.41,59.52,1010.21,34.25
50.99999999999997,287.62,10.23,32.02000000000001,-2.7,1.95,-2.28,59.52,1010.19,34.31
51.099999999999994,286.03,8.86,32.80000000000001,-4.55,2.04,-2.21,59.51,1010.16,34.6
51.19999999999996,284.47,7.620000000000001,34.78,-4.01,1.84,-0.23,59.51,1010.14,34.6
51.29999999999998,282.58,6.720000000000001,36.85000000000002,-6.1,1.08,1.75,59.51,1010.13,34.81
51.400000000000006,281.89,5.59,37.18000000000001,-5.31,1.39,1.67,59.51,1010.12,34.99
51.49999999999997,281.04,5.49,37.34,-3.73,1.22,-1.94,59.51,1010.11,34.98
51.599999999999994,280.26,4.51,37.10000000000002,-4.92,1.11,-0.47,59.5,1010.1,35.05
51.69999999999996,278.41,3.0900000000000003,37.78,-4.01,0.91,0.68,59.49,1010.11,35.03
51.79999999999998,276.33,1.47,39.80000000000001,-6.39,0.34,0.12,59.49,1010.11,34.94
51.900000000000006,274.6,0.33,40.75,-6.41,0.54,-1.21,59.48,1010.1,35.1
51.99999999999997,273.58,-0.040000000000000036,42.73000000000002,-6.52,0.11,-0.54,59.47,1010.1,34.98
52.099999999999994,272.68,-0.13,43.26000000000002,-6.21,0.89,-2.32,59.47,1010.12,34.82
52.19999999999996,271.45,-0.71,43.34,-4.96,0.26,-0.16,59.47,1010.12,34.72
52.29999999999998,269.51,-1.3,44.04000000000002,-6.36,0.24,-0.86,59.46,1010.13,34.52
52.400000000000006,267.27,-1.9200000000000004,44.56,-6.64,0.35,-2.41,59.46,1010.16,34.45
52.49999999999997,264.5,-1.9300000000000002,44.77000000000001,-4.9,0.18,-3.67,59.46,1010.18,34.05
52.609999999999985,261.98,-2.0500000000000003,44.69,-6.47,-0.09,-4.58,59.46,1010.23,33.839999999999996
52.71000000000001,258.61,-2.23,44.76000000000002,-5.21,0.46,-8.65,59.46,1010.25,33.6
52.809999999999974,255.51,-2.28,44.900000000000006,-6.83,0.07,-8.76,59.46,1010.3,33.24
52.91,252.8,-2.1,46.47,-6.26,0.07,-4.29,59.46,1010.32,33.06
53.00999999999996,250.12,-1.7600000000000002,47.49000000000001,-5.26,0.76,-7.45,59.46,1010.35,32.88
53.099999999999994,248.08,-2.39,47.390000000000015,-6.52,0.28,-6.56,59.46,1010.37,32.58
53.21000000000001,245.78,-2.6700000000000004,49.06,-6.18,0.59,-0.08,59.45,1010.39,32.39
53.29999999999998,242.74,-1.8699999999999997,49.55000000000001,-6.45,0.4,-10.73,59.45,1010.43,31.979999999999997
53.400000000000006,239.41,-0.9199999999999999,49.08000000000001,-5.38,-0.1,-14.35,59.45,1010.5,31.54
53.49999999999997,236.52,-0.35,49.140000000000015,-6.45,1.54,-12.72,59.45,1010.52,31.47
53.599999999999994,235.86,-1.8000000000000003,49.71000000000001,-5.48,0.68,-2.16,59.45,1010.52,31.58
53.69999999999996,234.37,-2.82,49.77000000000001,-6.22,0.12,-5.06,59.44,1010.52,31.43
53.809999999999974,233.08,-4.51,49.57000000000002,-7.8,0.38,-2.81,59.43,1010.54,31.25
53.900000000000006,231.78,-5.66,47.96000000000001,-7.2,-0.09,0.36,59.43,1010.56,31.049999999999997
53.99999999999997,230.72,-6.539999999999999,48.20000000000002,-5.79,0.06,-3.85,59.43,1010.58,30.939999999999998
54.109999999999985,229.75,-7.550000000000001,47.03,-5.17,-0.31,1.5,59.42,1010.6,30.799999999999997
54.21000000000001,228.28,-8.34,45.140000000000015,-5.0,-0.2,4.21,59.42,1010.62,30.61
54.309999999999974,224.07,-6.359999999999999,44.890000000000015,-5.56,-0.15,-17.52,59.41,1010.64,30.259999999999998
54.400000000000006,220.68,-5.039999999999999,45.130000000000024,-6.26,0.39,-12.18,59.41,1010.69,29.950000000000003
54.49999999999997,216.33,-2.7100000000000004,45.69,-5.58,0.15,-14.88,59.41,1010.73,29.549999999999997
54.599999999999994,212.6,-1.3,45.04000000000002,-5.3,0.42,-16.36,59.41,1010.76,29.409999999999997
54.69999999999996,209.09,-0.24,44.99000000000001,-5.39,0.81,-13.53,59.41,1010.79,29.32
54.79999999999998,206.36,-0.18999999999999995,46.400000000000006,-5.82,1.28,-10.85,59.41,1010.79,29.36
54.900000000000006,203.92,-0.31999999999999995,46.120000000000005,-6.87,1.25,-5.44,59.42,1010.77,29.509999999999998
54.99999999999997,201.57,0.29000000000000004,46.400000000000006,-6.85,1.54,-7.14,59.42,1010.74,29.75
55.099999999999994,199.22,1.31,47.28,-6.78,1.6,-8.97,59.42,1010.72,29.950000000000003
55.21000000000001,198.17,0.78,47.860000000000014,-3.91,1.29,-2.9,59.41,1010.69,30.21
55.309999999999974,196.81,-0.52,47.360000000000014,-4.73,1.43,-0.33,59.41,1010.68,30.229999999999997
55.400000000000006,195.31,-2.6300000000000003,48.77000000000001,-7.11,0.5,0.58,59.41,1010.67,30.259999999999998
55.50999999999996,194.04,-4.41,51.84,-7.63,0.0,1.99,59.4,1010.67,30.32
55.609999999999985,193.38,-5.609999999999999,55.07000000000001,-7.23,0.07,-0.67,59.4,1010.66,30.380000000000003
55.69999999999996,192.68,-6.109999999999999,58.71000000000001,-6.59,0.12,-2.57,59.39,1010.65,30.380000000000003
55.79999999999998,192.11,-7.17,59.32000000000001,-7.9,0.37,-3.16,59.39,1010.67,30.200000000000003
55.900000000000006,191.53,-8.43,61.95000000000002,-6.6,-0.29,0.93,59.38,1010.68,30.17
55.99999999999997,189.89,-10.39,65.30000000000001,-7.29,-0.77,-0.87,59.38,1010.68,30.1
56.099999999999994,187.4,-12.8,69.36000000000001,-7.66,-0.98,-2.65,59.37,1010.69,29.83
56.19999999999996,183.7,-13.96,71.43,-7.36,-0.85,-6.29,59.37,1010.74,29.479999999999997
56.29999999999998,179.51,-14.24,71.80000000000001,-7.39,-1.4,-14.59,59.36,1010.79,29.07
56.400000000000006,176.24,-15.25,72.43,-7.63,-1.31,-10.53,59.35,1010.84,28.57
56.49999999999997,171.78,-15.750000000000004,71.05000000000001,-7.69,-1.18,-10.14,59.34,1010.9,28.020000000000003
56.599999999999994,166.5,-16.12,68.39000000000001,-8.23,-1.52,-13.01,59.35,1010.97,27.409999999999997
56.69999999999996,160.95,-16.240000000000002,67.10000000000001,-7.18,-2.5,-14.31,59.35,1011.04,26.92
56.79999999999998,155.03,-15.55,65.74000000000001,-6.24,-2.39,-20.64,59.35,1011.1,26.54
56.900000000000006,150.86,-15.61,66.04,-7.06,-1.41,-19.4,59.35,1011.14,26.14
56.99999999999997,146.82,-15.840000000000003,65.27000000000001,-5.74,-1.27,-14.34,59.36,1011.17,25.880000000000003
57.099999999999994,145.25,-18.14,62.09,-6.77,-1.81,-5.04,59.36,1011.21,25.619999999999997
57.19999999999996,143.67,-20.71,58.09,-8.12,-2.22,-5.88,59.36,1011.24,25.270000000000003
57.29999999999998,141.63,-22.340000000000003,50.45000000000002,-6.78,-2.2,-6.43,59.36,1011.3,24.7
57.400000000000006,139.13,-23.130000000000003,41.420000000000016,-5.7,-2.04,-10.15,59.36,1011.38,23.990000000000002
57.49999999999997,137.0,-24.330000000000002,33.22,-4.98,-2.66,0.88,59.35,1011.44,23.61
57.599999999999994,133.97,-24.680000000000003,24.29000000000002,-3.91,-2.32,-4.75,59.34,1011.5,23.189999999999998
57.69999999999996,131.95,-24.580000000000002,17.920000000000016,-2.68,-2.2,-1.23,59.34,1011.53,22.68
57.79999999999998,129.85,-20.28,11.670000000000016,-1.84,-1.91,-13.72,59.33,1011.62,21.98
57.900000000000006,128.02,-14.86,6.350000000000023,-1.76,-1.04,-22.84,59.33,1011.7,21.560000000000002
57.99999999999997,127.0,-12.22,2.530000000000001,-1.39,-0.08,-8.85,59.33,1011.74,21.310000000000002
58.099999999999994,126.81,-9.26,2.1100000000000136,-1.49,0.41,-6.73,59.33,1011.75,21.259999999999998
58.19999999999996,127.55,-9.25,2.1500000000000057,-0.71,0.21,-3.07,59.33,1011.76,21.240000000000002
58.29999999999998,128.61,-9.92,2.5500000000000114,0.54,0.16,1.46,59.33,1011.76,21.18
58.400000000000006,129.2,-10.57,3.3500000000000227,0.53,-0.09,3.92,59.33,1011.75,21.27
58.49999999999997,128.68,-12.67,2.6599999999999966,0.84,-0.15,8.79,59.33,1011.75,21.299999999999997
58.599999999999994,127.36,-13.700000000000001,4.260000000000019,-0.86,-0.77,6.86,59.33,1011.73,21.43
58.71000000000001,126.82,-14.23,5.350000000000023,-1.7,-0.76,3.26,59.32,1011.73,21.4
58.809999999999974,127.45,-14.790000000000001,6.810000000000002,-2.04,-0.61,-0.23,59.31,1011.74,21.369999999999997
58.900000000000006,128.67,-16.55,8.810000000000002,-1.59,-1.05,9.47,59.31,1011.74,21.32
59.00999999999996,129.53,-17.450000000000003,9.340000000000003,-1.41,-0.63,6.3,59.3,1011.74,21.22
59.109999999999985,129.39,-17.720000000000002,11.79000000000002,-0.44,-0.73,1.36,59.3,1011.78,20.88
59.21000000000001,129.35,-18.51,11.420000000000016,-1.67,-1.22,4.44,59.29,1011.81,20.61
59.309999999999974,129.22,-18.110000000000003,13.920000000000016,-1.53,-1.14,3.51,59.28,1011.84,20.54
59.41,129.4,-18.250000000000004,15.150000000000006,-2.46,-1.11,-0.68,59.28,1011.84,20.42
59.49999999999997,129.58,-18.82,15.350000000000023,-2.55,-1.19,4.61,59.27,1011.87,20.13
59.599999999999994,129.07,-18.590000000000003,18.909999999999997,-3.6,-1.12,2.19,59.26,1011.91,19.77
59.69999999999996,129.79,-18.680000000000003,18.700000000000017,-1.5,-1.17,-2.34,59.25,1011.95,19.4
59.79999999999998,130.27,-18.950000000000003,19.710000000000008,-1.82,-2.08,6.35,59.24,1012.0,19.049999999999997
59.900000000000006,129.58,-18.770000000000003,19.590000000000003,-1.92,-2.06,-2.97,59.24,1012.06,18.4
59.99999999999997,128.84,-19.900000000000002,19.76000000000002,-2.16,-3.31,-0.34,59.23,1012.11,17.97
60.099999999999994,128.08,-20.14,21.189999999999998,-2.48,-3.82,4.28,59.22,1012.16,17.740000000000002
60.21000000000001,127.82,-20.180000000000003,21.51000000000002,-2.02,-3.53,-2.82,59.21,1012.2,17.41
60.309999999999974,127.66,-21.000000000000004,20.53,-1.13,-4.01,0.81,59.2,1012.24,16.85
60.400000000000006,126.12,-21.220000000000002,14.990000000000009,-0.2,-3.59,-4.29,59.19,1012.31,16.39
60.50999999999996,123.84,-22.03,8.939999999999998,-3.21,-3.39,0.69,59.19,1012.35,16.18
60.609999999999985,123.33,-22.200000000000003,4.719999999999999,-1.81,-3.28,-1.64,59.18,1012.37,15.85
60.69999999999996,124.41,-21.23,0.29000000000002046,-0.61,-3.36,-3.27,59.18,1012.42,15.33
60.809999999999974,125.62,-20.560000000000002,357.27,1.57,-2.86,-3.37,59.17,1012.5,14.85
60.900000000000006,126.78,-17.85,353.20000000000005,2.7,-2.22,-12.15,59.16,1012.55,13.98
60.99999999999997,126.85,-12.93,349.6,2.2,-1.76,-14.38,59.16,1012.66,13.57
61.099999999999994,127.47,-6.09,349.73,2.31,-0.64,-26.06,59.16,1012.71,13.32
61.19999999999996,128.38,-4.199999999999999,348.49,2.04,0.1,-9.07,59.16,1012.71,13.16
61.29999999999998,129.55,-3.85,349.14,2.65,-0.01,-1.21,59.16,1012.72,13.309999999999999
61.400000000000006,130.49,-3.4099999999999997,350.15999999999997,3.0,-0.05,-2.58,59.16,1012.68,13.6
61.49999999999997,130.8,-4.99,351.22,2.34,-0.43,3.66,59.16,1012.67,13.67
61.609999999999985,130.95,-5.83,352.56,2.26,-1.13,8.49,59.17,1012.64,13.96
61.71000000000001,130.8,-6.15,355.15999999999997,1.14,0.1,-6.38,59.16,1012.62,14.23
61.809999999999974,130.41,-9.17,-0.01999999999998181,-0.88,-0.2,7.66,59.16,1012.57,14.48
61.91,130.82,-11.0,3.5800000000000125,-1.73,0.3,10.82,59.15,1012.54,14.67
61.99999999999997,131.81,-11.03,10.080000000000013,-2.18,0.75,3.02,59.14,1012.54,14.69
62.099999999999994,133.14,-10.72,17.200000000000017,-1.51,0.9,-1.2,59.13,1012.54,14.76
62.19999999999996,134.12,-10.98,22.24000000000001,-0.71,0.59,4.15,59.12,1012.53,14.620000000000001
62.29999999999998,132.83,-9.8,29.840000000000003,-4.96,1.09,-5.91,59.11,1012.57,14.28
62.400000000000006,130.72,-6.539999999999999,35.420000000000016,-4.83,1.62,-17.03,59.11,1012.6,14.09
62.49999999999997,129.0,-3.3299999999999996,41.69,-3.74,1.67,-10.93,59.11,1012.63,13.89
62.599999999999994,125.81,0.35,46.890000000000015,-3.6,2.2,-14.3,59.1,1012.65,13.85
62.69999999999996,121.73,2.9499999999999997,51.24000000000001,-5.22,2.96,-20.87,59.09,1012.64,13.89
62.79999999999998,116.92,5.27,57.97000000000001,-5.76,4.15,-12.12,59.09,1012.63,14.059999999999999
62.900000000000006,111.34,7.529999999999999,65.44000000000001,-5.6,4.01,-10.89,59.09,1012.58,14.45
62.99999999999997,104.71,7.800000000000001,64.57000000000001,-6.67,3.49,-20.38,59.09,1012.55,14.53
63.099999999999994,99.94,5.859999999999999,62.780000000000015,-6.84,3.3,-18.14,59.1,1012.55,14.82
63.19999999999996,95.24,4.68,62.750000000000014,-8.4,3.41,-10.85,59.1,1012.51,15.1
63.29999999999998,90.65,4.58,64.22000000000001,-8.76,2.53,-20.14,59.11,1012.47,15.27
63.400000000000006,86.57,5.16,64.87,-6.47,3.06,-13.68,59.11,1012.46,15.370000000000001
63.49999999999997,81.62,6.32,63.56000000000002,-6.56,2.15,-15.77,59.11,1012.45,15.52
63.599999999999994,75.74,7.26,61.94000000000001,-5.74,3.0,-16.84,59.12,1012.43,15.71
63.69999999999996,69.34,7.51,61.640000000000015,-7.11,2.75,-15.42,59.12,1012.41,15.8
63.79999999999998,64.48,7.460000000000001,62.150000000000006,-7.31,2.77,-13.14,59.11,1012.39,16.07
63.900000000000006,60.17,7.210000000000001,62.66000000000001,-6.33,2.69,-9.81,59.11,1012.34,16.48
63.99999999999997,56.27,6.93,62.08000000000001,-7.08,2.18,-8.36,59.1,1012.32,16.57
64.1,52.02,6.83,60.84,-6.99,2.36,-11.06,59.1,1012.3,16.79
64.19999999999996,48.26,6.17,59.400000000000006,-6.17,2.09,-8.85,59.1,1012.29,16.86
64.29999999999998,43.98,5.540000000000001,59.110000000000014,-6.25,2.17,-8.43,59.09,1012.27,17.02
64.4,39.95,4.77,57.890000000000015,-7.23,1.61,-8.01,59.09,1012.25,16.95
64.49999999999997,34.62,4.950000000000001,57.77000000000001,-7.61,1.9,-11.44,59.09,1012.26,17.0
64.6,28.31,6.3100000000000005,57.63000000000001,-7.55,2.0,-16.14,59.09,1012.28,16.68
64.69999999999996,22.28,7.83,57.58000000000001,-5.11,2.46,-13.65,59.09,1012.31,16.63
64.79999999999998,15.86,9.64,57.760000000000005,-5.17,2.65,-17.61,59.09,1012.31,16.59
64.9,9.24,11.18,57.80000000000001,-5.42,2.17,-15.97,59.09,1012.33,16.56
64.99999999999997,3.5,11.92,57.780000000000015,-6.41,2.66,-12.97,59.08,1012.31,16.52
65.10999999999999,358.25,12.41,56.63000000000001,-6.57,2.95,-15.5,59.08,1012.3,16.89
65.21000000000001,356.46,10.45,54.43000000000001,-6.63,2.42,-5.17,59.07,1012.26,17.04
65.30999999999997,353.92,8.83,52.730000000000004,-6.68,2.14,-4.2,59.06,1012.25,17.189999999999998
65.41,351.7,6.51,48.400000000000006,-6.94,1.55,-2.96,59.07,1012.24,17.1
65.50999999999996,349.21,4.4399999999999995,44.26000000000002,-5.06,1.64,-2.05,59.07,1012.27,16.990000000000002
65.60999999999999,346.67,2.1799999999999997,39.30000000000001,-4.86,1.27,-1.8,59.06,1012.27,16.869999999999997
65.71000000000001,344.66,-0.19999999999999996,34.0,-4.55,0.73,0.55,59.06,1012.28,16.71
65.80999999999997,342.47,-1.73,27.210000000000008,-4.09,0.56,-0.13,59.05,1012.3,16.78
65.9,340.59,-3.32,20.27000000000001,-2.69,0.15,0.32,59.04,1012.3,16.63
65.99999999999997,338.48,-3.53,12.689999999999998,-3.39,-0.34,-2.57,59.04,1012.32,16.41
66.1,336.61,-4.220000000000001,5.400000000000006,-2.57,0.05,-1.49,59.03,1012.34,16.2
66.19999999999996,334.9,-3.36,-0.8199999999999932,-0.24,0.62,-5.31,59.02,1012.37,16.03
66.29999999999998,333.9,-2.0900000000000003,354.08000000000004,0.25,0.58,-5.22,59.02,1012.39,15.79
66.4,333.93,-0.20999999999999996,350.5,-0.24,0.85,-6.84,59.02,1012.41,15.559999999999999
66.49999999999997,334.59,1.08,349.31,0.86,1.36,-2.58,59.02,1012.44,15.53
66.60999999999999,335.61,1.8800000000000001,349.65,2.01,1.24,-0.38,59.02,1012.44,15.35
66.71000000000001,336.78,1.91,349.62,2.82,1.36,1.0,59.02,1012.46,15.32
66.80999999999997,337.25,1.35,351.88,1.61,1.0,-0.05,59.02,1012.48,15.149999999999999
66.91,337.64,0.83,352.81,0.35,0.89,0.68,59.02,1012.47,15.25
66.99999999999997,338.06,0.43000000000000005,353.98,-0.01,0.89,0.12,59.01,1012.46,15.28
67.1,338.59,-0.24,354.42,0.88,0.76,1.61,59.01,1012.47,15.309999999999999
67.19999999999996,339.12,-0.76,355.59000000000003,1.16,0.79,0.97,59.01,1012.48,15.120000000000001
67.29999999999998,339.54,-1.04,356.88,0.87,0.18,1.7,59.01,1012.49,15.120000000000001
67.4,339.56,-0.5800000000000001,358.03,0.76,0.3,2.99,59.0,1012.49,15.02
67.49999999999997,339.46,0.39,-1.3699999999999761,-0.77,0.64,-2.04,59.0,1012.51,14.89
67.6,339.25,1.1400000000000001,357.94,-0.33,0.7,-3.8,58.99,1012.53,14.74
