time,heading,pitch,roll,xaccel,yaccel,zaccel,temp,pressure,altitude
0.0,123.43,0.0,-0.0,-0.01,-0.02,-0.05,67.76,1012.26,0.0
0.10000000000002274,123.5,0.0,-0.0,0.0,-0.02,-0.04,67.76,1012.27,-0.08999999999999986
0.19999999999998863,123.5,0.0,0.020000000000010232,0.0,-0.02,-0.03,67.76,1012.28,0.0
0.30000000000001137,123.46,0.0,-0.009999999999990905,0.0,-0.01,-0.02,67.75,1012.25,0.019999999999999574
0.39999999999997726,123.45,0.0,-0.009999999999990905,0.0,-0.02,-0.05,67.75,1012.26,0.0
0.5,123.45,0.0,-0.009999999999990905,-0.02,0.0,-0.02,67.76,1012.27,-0.030000000000001137
0.6000000000000227,123.45,0.0,-0.009999999999990905,0.19,-0.03,-0.16,67.76,1012.27,-0.11000000000000121
0.6999999999999886,123.44,0.0,-0.009999999999990905,0.0,0.0,-0.04,67.76,1012.27,-0.16999999999999993
0.8000000000000114,123.44,0.0,-0.009999999999990905,0.03,0.04,0.08,67.76,1012.28,-0.120000000000001
0.8899999999999864,123.44,0.0,-0.009999999999990905,-0.04,0.0,-0.15,67.76,1012.27,-0.019999999999999574
1.0,123.44,0.0,-0.009999999999990905,0.04,-0.07,0.05,67.76,1012.26,-0.08999999999999986
1.1000000000000227,123.44,-0.02999999999999936,-0.009999999999990905,-0.26,0.01,0.28,67.76,1012.27,-0.11000000000000121
1.1899999999999977,123.44,0.010000000000000675,0.009999999999990905,-0.52,-0.01,-0.16,67.76,1012.28,-0.11000000000000121
1.2900000000000205,123.44,-0.019999999999999574,0.009999999999990905,0.07,-0.04,0.09,67.77,1012.27,-0.0600000000000005
1.3899999999999864,123.44,0.010000000000000675,0.009999999999990905,0.03,0.02,0.33,67.77,1012.26,-0.030000000000001137
1.490000000000009,123.44,0.0,0.009999999999990905,-0.06,-0.01,-0.03,67.77,1012.27,-0.120000000000001
1.6000000000000227,123.44,0.0,-0.0,-0.12,-0.08,-0.26,67.77,1012.28,-0.08000000000000007
1.6999999999999886,123.45,-0.009999999999999787,0.009999999999990905,0.13,0.0,-0.16,67.77,1012.28,0.0
1.7900000000000205,123.48,0.010000000000000675,0.030000000000001137,0.0,0.07,-0.14,67.77,1012.27,-0.0600000000000005
1.8999999999999773,123.48,0.0,0.030000000000001137,-0.04,0.03,-0.11,67.77,1012.27,-0.019999999999999574
2.0,123.44,-0.02999999999999936,0.03999999999999204,-0.03,-0.04,-0.05,67.77,1012.27,-0.030000000000001137
2.1000000000000227,123.35,-0.02999999999999936,0.03999999999999204,0.04,0.03,-0.05,67.77,1012.27,0.009999999999999787
2.1999999999999886,123.2,-0.03999999999999915,0.060000000000002274,0.04,0.0,-0.01,67.77,1012.27,-0.030000000000001137
2.3000000000000114,122.81,-0.009999999999999787,-0.009999999999990905,-0.02,-0.09,-0.12,67.77,1012.27,-0.08000000000000007
2.3999999999999773,122.7,0.05000000000000071,-0.13999999999998636,0.0,0.11,-0.01,67.77,1012.27,-0.040000000000000924
2.5,122.84,0.020000000000000462,-0.03999999999999204,-0.09,0.21,-0.11,67.78,1012.27,-0.07000000000000028
2.6000000000000227,122.91,0.0,0.030000000000001137,-0.07,-0.31,0.0,67.77,1012.27,-0.030000000000001137
2.6899999999999977,123.18,-0.02999999999999936,-0.030000000000001137,0.02,0.48,0.05,67.77,1012.25,-0.030000000000001137
2.7900000000000205,123.06,-0.019999999999999574,0.060000000000002274,-0.09,-0.43,0.05,67.78,1012.26,0.02999999999999936
2.8899999999999864,123.39,0.14000000000000057,0.009999999999990905,0.86,-0.83,-0.32,67.78,1012.25,0.009999999999999787
2.990000000000009,123.8,0.08000000000000007,0.2599999999999909,0.33,-0.11,0.24,67.78,1012.27,0.0
3.1000000000000227,123.73,0.13000000000000078,0.28999999999999204,-0.04,-0.28,-0.06,67.78,1012.26,-0.05000000000000071
3.1999999999999886,123.5,0.10000000000000053,0.12000000000000455,0.1,0.26,-0.08,67.78,1012.26,0.03999999999999915
3.2900000000000205,123.43,0.13000000000000078,0.1699999999999875,0.07,-0.16,0.01,67.78,1012.27,0.009999999999999787
3.3999999999999773,123.4,0.13000000000000078,0.21000000000000796,-0.1,-0.03,0.0,67.78,1012.27,0.0
3.5,123.34,0.1200000000000001,0.09999999999999432,0.32,0.21,-0.56,67.78,1012.27,-0.040000000000000924
3.6000000000000227,123.32,0.11000000000000032,-0.03999999999999204,0.21,0.02,-0.12,67.78,1012.26,-0.0600000000000005
3.6999999999999886,123.33,0.10000000000000053,-0.05000000000001137,-0.14,-0.28,0.86,67.78,1012.28,-0.0600000000000005
3.8000000000000114,123.36,0.07000000000000028,0.03999999999999204,-0.46,-0.02,-0.36,67.78,1012.27,-0.07000000000000028
3.8999999999999773,123.39,0.07000000000000028,-0.030000000000001137,0.8,-0.37,-0.31,67.78,1012.27,0.0
4.0,123.32,0.07000000000000028,-0.4300000000000068,-0.29,0.52,-0.9,67.78,1012.26,-0.0600000000000005
4.089999999999975,123.37,0.020000000000000462,-0.1699999999999875,0.71,0.0,-0.05,67.78,1012.27,-0.019999999999999574
4.199999999999989,123.41,0.040000000000000036,-0.03999999999999204,0.69,-0.59,-0.35,67.78,1012.27,-0.019999999999999574
4.2900000000000205,123.39,0.05000000000000071,-0.22999999999998977,-0.4,0.2,-0.25,67.78,1012.29,-0.33000000000000007
4.389999999999986,123.45,0.03000000000000025,-0.05000000000001137,-0.24,-0.31,0.1,67.79,1012.3,-0.3800000000000008
4.5,123.49,0.040000000000000036,0.0800000000000125,0.66,0.16,-0.68,67.79,1012.31,-0.39000000000000057
4.600000000000023,123.51,0.040000000000000036,0.12000000000000455,0.85,-0.78,1.74,67.79,1012.32,-0.40000000000000036
4.699999999999989,123.51,0.05000000000000071,0.18999999999999773,0.3,-0.13,1.2,67.79,1012.31,-0.27000000000000046
4.800000000000011,123.51,0.07000000000000028,0.21000000000000796,0.63,0.07,0.36,67.78,1012.31,-0.3200000000000003
4.899999999999977,123.49,0.0600000000000005,0.27000000000001023,0.39,0.04,-0.66,67.79,1012.3,-0.33000000000000007
5.0,123.5,0.0600000000000005,0.28999999999999204,0.31,-0.46,0.54,67.78,1012.29,-0.08999999999999986
5.100000000000023,123.5,0.0600000000000005,0.25,-0.41,0.0,-0.28,67.79,1012.27,-0.05000000000000071
5.199999999999989,123.51,0.09000000000000075,0.21000000000000796,-0.09,-0.13,0.06,67.79,1012.27,-0.09999999999999964
5.300000000000011,123.51,0.13000000000000078,0.19999999999998863,0.05,-0.3,-0.03,67.79,1012.28,-0.040000000000000924
5.399999999999977,123.46,0.15000000000000036,0.15000000000000568,0.03,0.17,0.14,67.79,1012.27,-0.14000000000000057
5.5,123.34,0.020000000000000462,0.18999999999999773,-0.1,0.21,0.07,67.79,1012.28,-0.16999999999999993
5.589999999999975,123.15,-0.009999999999999787,0.19999999999998863,-0.08,-0.08,-0.03,67.79,1012.28,-0.07000000000000028
5.699999999999989,123.1,0.0600000000000005,0.18999999999999773,-0.02,-0.09,0.02,67.79,1012.27,-0.040000000000000924
5.7900000000000205,123.09,0.0600000000000005,0.18999999999999773,0.04,0.08,0.07,67.79,1012.27,-0.09999999999999964
5.889999999999986,123.14,0.05000000000000071,0.18000000000000682,0.04,0.0,-0.04,67.79,1012.27,0.009999999999999787
6.0,123.27,0.05000000000000071,0.22999999999998977,0.02,-0.11,0.0,67.79,1012.27,-0.16000000000000014
6.100000000000023,123.31,0.05000000000000071,0.22999999999998977,0.03,0.04,0.03,67.8,1012.28,-0.16999999999999993
6.199999999999989,123.3,0.040000000000000036,0.21999999999999886,-0.04,-0.09,0.02,67.8,1012.28,-0.13000000000000078
6.300000000000011,123.31,0.05000000000000071,0.25,-0.14,-0.07,-0.08,67.8,1012.27,-0.13000000000000078
6.389999999999986,123.29,0.05000000000000071,0.22999999999998977,0.03,0.01,-0.07,67.8,1012.27,-0.11000000000000121
6.490000000000009,123.15,0.0600000000000005,0.27000000000001023,0.1,0.0,0.03,67.8,1012.27,0.07000000000000028
6.600000000000023,123.11,0.07000000000000028,0.19999999999998863,0.1,-0.03,-0.01,67.8,1012.25,0.049999999999998934
6.689999999999998,123.19,0.0600000000000005,0.2400000000000091,0.01,0.01,-0.03,67.8,1012.27,0.02999999999999936
6.7900000000000205,123.19,0.0600000000000005,0.28999999999999204,-0.02,0.01,-0.05,67.8,1012.27,-0.030000000000001137
6.889999999999986,123.15,0.07000000000000028,0.21000000000000796,0.0,-0.03,-0.01,67.8,1012.27,0.009999999999999787
6.990000000000009,123.07,0.07000000000000028,0.18000000000000682,0.02,0.0,0.0,67.8,1012.27,-0.019999999999999574
7.089999999999975,123.09,0.07000000000000028,0.21999999999999886,-0.02,-0.01,-0.03,67.8,1012.27,-0.08999999999999986
7.199999999999989,123.15,0.07000000000000028,0.21999999999999886,-0.02,-0.02,-0.02,67.8,1012.27,-0.11000000000000121
7.2900000000000205,123.12,0.07000000000000028,0.21999999999999886,-0.02,0.02,-0.01,67.81,1012.28,-0.11000000000000121
7.389999999999986,123.07,0.07000000000000028,0.21999999999999886,0.0,-0.02,-0.02,67.81,1012.27,-0.05000000000000071
7.5,123.07,0.07000000000000028,0.21999999999999886,0.01,-0.01,-0.01,67.81,1012.27,-0.08000000000000007
7.600000000000023,123.07,0.07000000000000028,0.22999999999998977,-0.01,0.01,-0.02,67.81,1012.27,-0.07000000000000028
7.699999999999989,123.07,0.07000000000000028,0.22999999999998977,0.02,-0.03,0.0,67.81,1012.28,-0.07000000000000028
7.800000000000011,123.07,0.07000000000000028,0.22999999999998977,0.02,0.0,-0.01,67.81,1012.28,-0.08999999999999986
7.899999999999977,123.07,0.07000000000000028,0.22999999999998977,-0.01,0.0,-0.02,67.81,1012.27,-0.08999999999999986
8.0,123.07,0.07000000000000028,0.22999999999998977,-0.01,0.0,-0.06,67.81,1012.27,0.009999999999999787
8.100000000000023,123.07,0.07000000000000028,0.22999999999998977,0.01,0.0,-0.01,67.81,1012.27,0.0
8.199999999999989,123.03,0.07000000000000028,0.22999999999998977,-0.01,-0.01,-0.01,67.81,1012.27,0.05999999999999872
8.300000000000011,123.03,0.07000000000000028,0.22999999999998977,0.01,-0.01,-0.04,67.81,1012.26,0.1399999999999988
8.399999999999977,123.03,0.07000000000000028,0.22999999999998977,0.0,0.0,-0.02,67.81,1012.25,0.11999999999999922
8.5,123.03,0.07000000000000028,0.22999999999998977,0.0,0.0,-0.03,67.81,1012.25,0.07000000000000028
8.600000000000023,123.03,0.07000000000000028,0.22999999999998977,0.02,-0.02,-0.04,67.81,1012.25,0.03999999999999915
8.699999999999989,123.03,0.07000000000000028,0.22999999999998977,0.03,0.0,-0.04,67.81,1012.25,0.049999999999998934
8.79000000000002,123.03,0.07000000000000028,0.22999999999998977,0.0,0.0,-0.03,67.81,1012.26,0.009999999999999787
8.889999999999986,123.03,0.07000000000000028,0.22999999999998977,0.02,-0.01,-0.05,67.81,1012.26,0.019999999999999574
9.0,123.03,0.07000000000000028,0.22999999999998977,0.04,-0.02,-0.02,67.82,1012.26,0.0
9.089999999999975,123.03,0.07000000000000028,0.22999999999998977,-0.03,0.02,-0.04,67.81,1012.26,0.009999999999999787
9.199999999999989,123.03,0.07000000000000028,0.22999999999998977,0.02,-0.02,-0.06,67.81,1012.26,-0.07000000000000028
9.300000000000011,123.03,0.07000000000000028,0.22999999999998977,0.01,-0.02,-0.05,67.82,1012.26,-0.040000000000000924
9.389999999999986,123.03,0.07000000000000028,0.22999999999998977,0.02,0.0,-0.03,67.82,1012.27,-0.05000000000000071
9.5,123.03,0.07000000000000028,0.22999999999998977,0.03,-0.01,-0.05,67.82,1012.27,-0.019999999999999574
9.600000000000023,123.03,0.07000000000000028,0.22999999999998977,0.01,-0.01,-0.06,67.82,1012.25,0.10999999999999943
9.699999999999989,123.03,0.07000000000000028,0.22999999999998977,0.01,-0.01,-0.04,67.82,1012.26,0.02999999999999936
9.800000000000011,123.03,0.07000000000000028,0.22999999999998977,0.04,-0.01,-0.02,67.83,1012.27,-0.17999999999999972
9.899999999999977,123.03,0.07000000000000028,0.22999999999998977,0.0,-0.01,-0.03,67.83,1012.28,-0.16000000000000014
10.0,123.03,0.07000000000000028,0.22999999999998977,0.0,-0.02,-0.04,67.83,1012.29,-0.17999999999999972
10.100000000000023,123.03,0.07000000000000028,0.22999999999998977,0.0,-0.01,-0.03,67.83,1012.28,-0.14000000000000057
10.189999999999998,123.03,0.07000000000000028,0.22999999999998977,0.0,-0.03,-0.05,67.83,1012.28,-0.17999999999999972
10.29000000000002,123.03,0.07000000000000028,0.22999999999998977,0.0,0.0,-0.04,67.84,1012.27,-0.08999999999999986
10.389999999999986,123.03,0.07000000000000028,0.22999999999998977,0.02,-0.01,-0.01,67.84,1012.28,-0.16000000000000014
10.490000000000009,123.03,0.07000000000000028,0.22999999999998977,0.03,0.0,-0.04,67.84,1012.28,-0.120000000000001
10.589999999999975,123.03,0.07000000000000028,0.22999999999998977,-0.01,-0.02,-0.05,67.84,1012.28,-0.14000000000000057
10.699999999999989,123.03,0.07000000000000028,0.22999999999998977,-0.02,-0.01,-0.01,67.84,1012.27,-0.08999999999999986
10.79000000000002,123.03,0.07000000000000028,0.22999999999998977,0.02,-0.01,-0.01,67.84,1012.27,0.0
10.899999999999977,123.03,0.07000000000000028,0.22999999999998977,0.01,0.0,-0.01,67.84,1012.26,0.019999999999999574
11.0,123.03,0.07000000000000028,0.22999999999998977,0.01,-0.02,-0.04,67.84,1012.27,0.07000000000000028
11.100000000000023,123.03,0.07000000000000028,0.22999999999998977,0.02,0.0,-0.04,67.84,1012.26,0.05999999999999872
11.199999999999989,123.03,0.07000000000000028,0.22999999999998977,0.0,0.01,-0.01,67.83,1012.25,0.05999999999999872
11.300000000000011,123.03,0.07000000000000028,0.22999999999998977,0.0,-0.01,-0.04,67.84,1012.26,-0.16000000000000014
11.399999999999977,123.03,0.07000000000000028,0.22999999999998977,0.01,0.0,-0.02,67.84,1012.27,-0.120000000000001
11.5,123.03,0.07000000000000028,0.22999999999998977,0.0,0.0,0.0,67.84,1012.27,-0.030000000000001137
11.600000000000023,123.03,0.07000000000000028,0.22999999999998977,0.01,0.0,-0.03,67.84,1012.27,-0.14000000000000057
11.689999999999998,123.03,0.07000000000000028,0.22999999999998977,0.0,-0.01,0.0,67.84,1012.27,-0.21000000000000085
11.79000000000002,123.03,0.07000000000000028,0.22999999999998977,0.01,-0.02,-0.01,67.85,1012.29,-0.120000000000001
11.889999999999986,123.03,0.07000000000000028,0.22999999999998977,0.03,-0.01,-0.01,67.85,1012.28,-0.16999999999999993
11.990000000000009,123.03,0.07000000000000028,0.22999999999998977,0.03,0.01,-0.01,67.85,1012.28,-0.05000000000000071
12.100000000000023,123.03,0.07000000000000028,0.22999999999998977,0.02,0.0,-0.02,67.85,1012.28,-0.14000000000000057
12.199999999999989,123.03,0.07000000000000028,0.22999999999998977,0.03,0.0,-0.05,67.85,1012.28,-0.23000000000000043
12.29000000000002,123.03,0.07000000000000028,0.22999999999998977,0.0,0.0,-0.01,67.85,1012.29,-0.23000000000000043
12.399999999999977,123.03,0.07000000000000028,0.22999999999998977,0.01,-0.01,0.0,67.85,1012.29,-0.13000000000000078
12.5,123.03,0.07000000000000028,0.22999999999998977,0.0,-0.01,-0.03,67.85,1012.28,-0.08000000000000007
12.600000000000023,123.03,0.07000000000000028,0.22999999999998977,0.0,-0.01,-0.03,67.85,1012.28,-0.13000000000000078
12.699999999999989,123.03,0.07000000000000028,0.22999999999998977,0.01,-0.02,0.0,67.85,1012.26,-0.040000000000000924
12.800000000000011,123.03,0.07000000000000028,0.22999999999998977,0.0,-0.01,0.0,67.84,1012.27,0.019999999999999574
12.899999999999977,123.03,0.07000000000000028,0.22999999999998977,0.03,-0.02,0.0,67.85,1012.27,-0.13000000000000078
13.0,123.03,0.07000000000000028,0.22999999999998977,0.01,0.0,-0.03,67.85,1012.27,-0.08999999999999986
13.089999999999975,123.04,0.07000000000000028,0.22999999999998977,0.03,-0.01,-0.03,67.85,1012.27,-0.040000000000000924
13.189999999999998,123.04,0.07000000000000028,0.22999999999998977,0.0,-0.01,-0.03,67.85,1012.27,-0.05000000000000071
13.29000000000002,123.04,0.07000000000000028,0.22999999999998977,-0.05,-0.01,-0.09,67.85,1012.26,0.019999999999999574
13.389999999999986,123.04,0.07000000000000028,0.22999999999998977,0.0,-0.02,0.0,67.85,1012.25,0.049999999999998934
13.490000000000009,123.04,0.07000000000000028,0.22999999999998977,0.0,-0.02,-0.02,67.85,1012.26,-0.05000000000000071
13.600000000000023,123.04,0.07000000000000028,0.22999999999998977,0.02,0.0,-0.05,67.85,1012.27,-0.08999999999999986
13.699999999999989,123.04,0.07000000000000028,0.22999999999998977,0.05,0.0,0.0,67.85,1012.26,-0.14000000000000057
13.800000000000011,123.04,0.07000000000000028,0.22999999999998977,0.0,-0.02,0.0,67.86,1012.27,-0.16999999999999993
13.899999999999977,123.04,0.07000000000000028,0.22999999999998977,0.0,0.0,-0.03,67.86,1012.28,-0.16000000000000014
14.0,123.04,0.07000000000000028,0.22999999999998977,0.01,-0.01,-0.05,67.86,1012.28,-0.120000000000001
14.100000000000023,123.04,0.07000000000000028,0.22999999999998977,0.02,-0.01,0.0,67.86,1012.28,-0.16000000000000014
14.199999999999989,123.04,0.07000000000000028,0.22999999999998977,0.0,0.0,-0.02,67.87,1012.27,-0.09999999999999964
14.29000000000002,123.04,0.07000000000000028,0.22999999999998977,0.0,-0.03,-0.05,67.87,1012.27,-0.08999999999999986
14.389999999999986,123.04,0.07000000000000028,0.22999999999998977,0.01,-0.01,-0.06,67.87,1012.28,-0.2600000000000007
14.5,123.04,0.07000000000000028,0.22999999999998977,0.01,0.0,-0.03,67.86,1012.29,-0.16999999999999993
14.589999999999975,123.04,0.07000000000000028,0.22999999999998977,0.03,-0.03,-0.02,67.86,1012.28,-0.120000000000001
14.699999999999989,123.04,0.07000000000000028,0.22999999999998977,0.0,0.0,-0.03,67.87,1012.27,-0.19000000000000128
14.79000000000002,123.04,0.07000000000000028,0.22999999999998977,0.0,0.0,-0.01,67.87,1012.27,0.05999999999999872
14.889999999999986,123.04,0.07000000000000028,0.22999999999998977,0.01,0.0,-0.02,67.87,1012.26,-0.009999999999999787
15.0,123.04,0.07000000000000028,0.22999999999998977,0.0,-0.02,-0.03,67.87,1012.27,-0.030000000000001137
15.100000000000023,123.04,0.07000000000000028,0.22999999999998977,0.01,0.0,-0.03,67.87,1012.26,-0.030000000000001137
15.199999999999989,123.04,0.07000000000000028,0.22999999999998977,-0.02,0.0,-0.01,67.87,1012.27,-0.030000000000001137
15.300000000000011,123.04,0.07000000000000028,0.22999999999998977,0.02,0.0,-0.05,67.87,1012.25,0.019999999999999574
15.399999999999977,123.04,0.07000000000000028,0.22999999999998977,0.02,0.0,-0.01,67.87,1012.26,-0.009999999999999787
15.5,123.04,0.07000000000000028,0.22999999999998977,0.0,0.0,-0.02,67.87,1012.27,-0.09999999999999964
15.600000000000023,123.04,0.07000000000000028,0.22999999999998977,0.02,-0.02,-0.03,67.87,1012.26,0.11999999999999922
15.699999999999989,123.04,0.07000000000000028,0.22999999999998977,0.01,0.0,-0.03,67.88,1012.24,0.05999999999999872
15.800000000000011,123.04,0.07000000000000028,0.22999999999998977,0.0,0.0,-0.02,67.88,1012.26,0.0
15.899999999999977,123.04,0.07000000000000028,0.22999999999998977,-0.01,-0.02,-0.03,67.88,1012.27,-0.030000000000001137
16.0,123.04,0.07000000000000028,0.22999999999998977,0.0,0.0,-0.02,67.88,1012.27,-0.019999999999999574
16.100000000000023,123.04,0.07000000000000028,0.22999999999998977,0.01,-0.01,-0.05,67.88,1012.27,-0.030000000000001137
16.19999999999999,123.04,0.07000000000000028,0.22999999999998977,0.03,0.0,-0.01,67.88,1012.28,-0.040000000000000924
16.29000000000002,123.04,0.07000000000000028,0.22999999999998977,0.0,0.0,-0.02,67.88,1012.27,0.009999999999999787
16.389999999999986,123.04,0.07000000000000028,0.22999999999998977,0.0,0.0,-0.02,67.88,1012.27,-0.08000000000000007
16.5,123.04,0.07000000000000028,0.22999999999998977,0.01,0.0,-0.04,67.88,1012.27,-0.040000000000000924
16.600000000000023,123.04,0.07000000000000028,0.22999999999998977,0.02,-0.01,-0.02,67.88,1012.26,0.049999999999998934
16.69999999999999,123.04,0.07000000000000028,0.22999999999998977,0.01,-0.01,-0.04,67.88,1012.27,-0.0600000000000005
16.80000000000001,123.04,0.07000000000000028,0.22999999999998977,0.02,0.0,-0.06,67.89,1012.28,0.0
16.899999999999977,123.04,0.07000000000000028,0.22999999999998977,-0.02,-0.02,-0.05,67.88,1012.26,0.049999999999998934
17.0,123.04,0.07000000000000028,0.22999999999998977,-0.01,-0.01,-0.05,67.89,1012.26,0.02999999999999936
17.100000000000023,123.04,0.07000000000000028,0.22999999999998977,0.0,0.0,-0.03,67.88,1012.27,0.08000000000000007
17.19999999999999,123.04,0.07000000000000028,0.22999999999998977,0.03,-0.02,-0.06,67.88,1012.25,0.09999999999999964
17.30000000000001,123.04,0.07000000000000028,0.22999999999998977,0.03,0.0,-0.03,67.88,1012.25,0.019999999999999574
17.399999999999977,123.04,0.07000000000000028,0.22999999999998977,-0.01,0.01,-0.05,67.88,1012.26,-0.040000000000000924
17.5,123.04,0.07000000000000028,0.22999999999998977,0.01,0.0,-0.08,67.89,1012.26,0.07000000000000028
17.600000000000023,123.04,0.07000000000000028,0.22999999999998977,0.0,-0.01,0.0,67.89,1012.25,0.049999999999998934
17.69999999999999,123.04,0.07000000000000028,0.22999999999998977,0.01,0.0,-0.03,67.89,1012.26,0.02999999999999936
17.79000000000002,123.04,0.07000000000000028,0.22999999999998977,0.0,0.0,-0.05,67.89,1012.26,-0.030000000000001137
17.889999999999986,123.04,0.07000000000000028,0.22999999999998977,0.0,-0.02,-0.04,67.89,1012.28,-0.15000000000000036
18.0,123.04,0.07000000000000028,0.22999999999998977,0.0,0.0,-0.07,67.89,1012.27,-0.040000000000000924
18.089999999999975,123.04,0.07000000000000028,0.22999999999998977,0.0,-0.02,-0.04,67.89,1012.26,0.009999999999999787
18.19999999999999,123.04,0.07000000000000028,0.22999999999998977,0.0,-0.01,-0.03,67.89,1012.27,-0.05000000000000071
18.30000000000001,123.04,0.07000000000000028,0.22999999999998977,-0.01,0.01,-0.03,67.89,1012.27,0.03999999999999915
18.389999999999986,123.04,0.07000000000000028,0.22999999999998977,0.02,-0.01,-0.02,67.89,1012.25,0.05999999999999872
18.5,123.04,0.07000000000000028,0.22999999999998977,0.01,-0.02,-0.02,67.89,1012.24,0.2699999999999996
18.600000000000023,123.04,0.07000000000000028,0.22999999999998977,0.0,-0.01,0.0,67.89,1012.23,0.29999999999999893
18.69999999999999,123.04,0.07000000000000028,0.22999999999998977,0.03,-0.03,-0.03,67.9,1012.23,0.1899999999999995
18.80000000000001,123.04,0.07000000000000028,0.22999999999998977,0.0,0.0,-0.01,67.9,1012.23,0.2400000000000002
18.899999999999977,123.04,0.07000000000000028,0.22999999999998977,0.01,0.01,-0.07,67.9,1012.23,0.3099999999999987
19.0,123.04,0.07000000000000028,0.22999999999998977,0.01,-0.01,-0.01,67.9,1012.24,0.17999999999999972
19.100000000000023,123.04,0.07000000000000028,0.22999999999998977,0.0,0.0,-0.04,67.91,1012.25,0.02999999999999936
19.189999999999998,123.04,0.07000000000000028,0.22999999999998977,0.01,-0.01,-0.04,67.91,1012.25,0.08000000000000007
19.29000000000002,123.04,0.07000000000000028,0.22999999999998977,0.0,-0.01,0.0,67.91,1012.25,0.049999999999998934
19.389999999999986,123.04,0.07000000000000028,0.22999999999998977,0.02,0.0,-0.04,67.9,1012.24,0.2599999999999998
19.49000000000001,123.04,0.07000000000000028,0.22999999999998977,0.0,-0.01,-0.01,67.9,1012.23,0.049999999999998934
19.589999999999975,123.04,0.07000000000000028,0.22999999999998977,0.02,0.0,0.0,67.91,1012.25,0.129999999999999
19.69999999999999,123.04,0.07000000000000028,0.22999999999998977,0.01,-0.01,-0.03,67.91,1012.25,0.07000000000000028
19.79000000000002,123.04,0.07000000000000028,0.22999999999998977,0.02,0.0,-0.01,67.91,1012.26,-0.0600000000000005
19.889999999999986,123.04,0.07000000000000028,0.22999999999998977,0.02,-0.01,-0.03,67.92,1012.29,-0.120000000000001
20.0,123.04,0.07000000000000028,0.22999999999998977,0.0,-0.03,-0.03,67.92,1012.27,-0.13000000000000078
20.100000000000023,123.04,0.07000000000000028,0.22999999999998977,0.02,-0.01,-0.02,67.91,1012.26,0.08000000000000007
20.19999999999999,123.04,0.07000000000000028,0.22999999999998977,0.02,0.0,-0.03,67.91,1012.24,0.08000000000000007
20.30000000000001,123.04,0.07000000000000028,0.22999999999998977,0.0,0.0,-0.02,67.91,1012.26,-0.009999999999999787
20.399999999999977,123.04,0.07000000000000028,0.22999999999998977,0.02,0.0,0.0,67.92,1012.26,-0.13000000000000078
20.5,123.04,0.07000000000000028,0.22999999999998977,0.0,0.0,-0.02,67.92,1012.27,-0.14000000000000057
20.600000000000023,123.04,0.07000000000000028,0.22999999999998977,0.01,0.0,-0.01,67.92,1012.28,-0.14000000000000057
20.689999999999998,123.04,0.07000000000000028,0.22999999999998977,0.01,-0.01,-0.01,67.92,1012.28,-0.23000000000000043
20.79000000000002,123.04,0.07000000000000028,0.22999999999998977,0.02,0.0,-0.02,67.92,1012.28,-0.09999999999999964
20.889999999999986,123.04,0.07000000000000028,0.22999999999998977,0.02,0.0,-0.02,67.93,1012.28,0.0
20.99000000000001,123.04,0.07000000000000028,0.22999999999998977,-0.01,0.0,-0.01,67.92,1012.25,0.049999999999998934
21.100000000000023,123.04,0.07000000000000028,0.22999999999998977,0.0,-0.03,-0.02,67.92,1012.25,0.15000000000000036
21.19999999999999,123.04,0.07000000000000028,0.22999999999998977,0.0,-0.01,-0.04,67.92,1012.25,0.1399999999999988
21.29000000000002,123.04,0.07000000000000028,0.22999999999998977,0.01,-0.01,-0.03,67.92,1012.26,0.07000000000000028
21.399999999999977,123.04,0.07000000000000028,0.22999999999998977,0.04,0.0,-0.02,67.93,1012.25,0.17999999999999972
21.5,123.04,0.07000000000000028,0.22999999999998977,0.0,-0.02,0.0,67.93,1012.25,0.08999999999999986
21.589999999999975,123.04,0.07000000000000028,0.22999999999998977,0.02,-0.01,-0.04,67.93,1012.26,0.03999999999999915
21.69999999999999,123.04,0.07000000000000028,0.18000000000000682,-0.46,-0.21,0.18,67.93,1012.26,0.02999999999999936
21.79000000000002,122.95,0.0600000000000005,-0.18000000000000682,0.18,-0.23,-0.58,67.93,1012.26,-0.16000000000000014
21.889999999999986,122.66,-0.05999999999999961,-0.5099999999999909,-0.05,-3.58,0.06,67.93,1012.29,-0.34000000000000075
22.0,122.33,-0.1299999999999999,-0.05000000000001137,1.23,-5.6,-0.62,67.93,1012.31,-0.22000000000000064
22.100000000000023,121.28,0.0600000000000005,-0.13999999999998636,1.66,-7.54,-1.59,67.93,1012.27,-0.11000000000000121
22.189999999999998,119.74,0.9200000000000004,0.789999999999992,1.69,-6.59,-3.7,67.93,1012.29,-0.40000000000000036
22.29000000000002,118.81,0.21000000000000085,0.3400000000000034,2.31,-6.91,2.15,67.92,1012.33,-0.47000000000000064
22.389999999999986,117.34,0.9000000000000004,0.05000000000001137,0.91,-8.83,1.33,67.91,1012.32,-0.6400000000000006
22.49000000000001,115.73,1.2500000000000004,0.37000000000000455,2.14,-6.59,3.83,67.9,1012.34,-0.6900000000000004
22.600000000000023,114.53,1.6600000000000006,0.06999999999999318,3.13,-4.44,2.82,67.89,1012.36,-0.8600000000000003
22.69999999999999,108.68,2.3400000000000003,0.4300000000000068,4.44,-3.24,-5.5,67.89,1012.37,-1.0200000000000005
22.79000000000002,104.28,4.380000000000001,-0.37000000000000455,-0.15,-7.41,2.65,67.88,1012.4,-1.2400000000000002
22.899999999999977,101.7,8.32,-0.9499999999999886,1.21,-6.08,-0.2,67.87,1012.41,-1.4300000000000006
23.0,100.05,12.81,-0.710000000000008,1.29,-5.36,-1.14,67.87,1012.45,-1.62
23.100000000000023,99.17,16.72,1.25,0.64,-5.18,-4.63,67.86,1012.46,-1.6600000000000001
23.19999999999999,98.17,20.5,3.5999999999999943,1.3,-4.88,-4.52,67.85,1012.47,-1.6500000000000004
23.30000000000001,98.05,25.37,6.050000000000011,1.39,-3.57,-6.48,67.85,1012.46,-1.6100000000000003
23.399999999999977,99.8,30.59,10.189999999999998,2.39,-2.22,-6.57,67.83,1012.45,-1.33
23.5,101.46,34.760000000000005,15.120000000000005,2.8,-2.24,-7.25,67.82,1012.41,-0.9900000000000002
23.600000000000023,103.05,37.739999999999995,20.24000000000001,2.76,-1.3,-4.19,67.81,1012.35,-0.5800000000000001
23.69999999999999,102.89,38.67,23.840000000000003,2.82,-0.14,-4.58,67.8,1012.32,-0.2600000000000007
23.80000000000001,101.89,38.17,25.19999999999999,2.92,-0.13,-2.01,67.8,1012.27,0.3699999999999992
23.889999999999986,101.77,36.709999999999994,26.74000000000001,2.33,-0.23,-0.09,67.79,1012.2,0.8499999999999996
24.0,100.81,30.14,28.960000000000008,4.25,-1.29,8.15,67.79,1012.11,1.5099999999999998
24.100000000000023,101.41,23.72,30.389999999999986,5.14,-2.66,7.88,67.79,1012.04,1.9499999999999993
24.19999999999999,102.58,19.009999999999998,32.25999999999999,5.13,-2.53,5.05,67.79,1012.0,2.469999999999999
24.30000000000001,102.58,13.5,32.75,5.11,-2.68,5.34,67.8,1011.95,2.5599999999999987
24.399999999999977,105.12,11.89,32.24000000000001,5.6,-3.46,1.44,67.8,1011.94,2.66
24.5,109.66,13.77,31.159999999999997,5.26,-3.11,-3.68,67.81,1011.94,2.789999999999999
24.600000000000023,116.48,17.62,31.49000000000001,4.83,-3.03,-10.74,67.81,1011.94,2.709999999999999
24.69999999999999,122.22,20.08,33.78999999999999,4.72,-3.13,-11.3,67.81,1011.94,2.6799999999999997
24.80000000000001,125.93,19.69,35.41,5.75,-2.45,-7.47,67.81,1011.93,2.9399999999999995
24.899999999999977,126.73,17.27,36.55000000000001,5.78,-2.05,-3.17,67.81,1011.88,3.4299999999999997
25.0,124.7,11.64,34.52000000000001,5.21,-2.77,5.78,67.81,1011.83,3.8099999999999987
25.099999999999966,124.27,6.090000000000001,26.710000000000008,4.76,-3.92,9.64,67.81,1011.78,4.17
25.19999999999999,125.48,0.4300000000000006,16.75,3.52,-4.18,6.5,67.8,1011.75,4.359999999999999
25.30000000000001,128.96,-1.8599999999999994,5.52000000000001,2.14,-4.67,-0.73,67.8,1011.74,4.199999999999999
25.390000000000043,133.13,2.4300000000000006,355.31,1.18,-3.88,-8.13,67.81,1011.78,3.83
25.500000000000057,137.55,12.47,347.23,0.88,-4.1,-19.14,67.81,1011.83,3.619999999999999
25.589999999999975,140.41,21.68,341.94,1.77,-2.23,-18.75,67.8,1011.83,3.67
25.689999999999998,140.81,28.61,339.35,1.29,0.16,-11.8,67.79,1011.8,3.9800000000000004
25.80000000000001,138.78,33.29,334.66999999999996,1.5,0.82,-14.08,67.78,1011.75,4.49
25.900000000000034,136.18,34.260000000000005,328.40999999999997,-0.04,1.66,-5.59,67.77,1011.68,5.16
26.000000000000057,132.66,34.769999999999996,317.71000000000004,-1.58,1.42,-3.05,67.76,1011.6,6.039999999999999
26.099999999999966,131.22,33.11,309.41999999999996,-2.8,1.56,-1.61,67.76,1011.5,6.85
26.19999999999999,130.91,29.98,301.21,-3.8,0.85,3.49,67.76,1011.38,7.73
26.30000000000001,130.83,26.580000000000002,294.33,-5.32,0.28,3.18,67.76,1011.3,8.39
26.400000000000034,131.54,22.87,290.78,-6.15,-0.13,6.5,67.76,1011.19,9.27
26.500000000000057,131.75,19.560000000000002,288.43,-7.1,0.34,3.38,67.77,1011.11,9.98
26.599999999999966,130.44,17.77,286.26,-6.8,-0.19,8.3,67.77,1011.03,10.48
26.69999999999999,128.27,17.07,285.02,-7.34,0.45,1.39,67.77,1010.97,10.93
26.79000000000002,122.6,17.08,283.59000000000003,-8.51,1.1,-8.57,67.78,1010.94,11.129999999999999
26.900000000000034,114.63,17.28,282.63,-8.12,1.12,-12.58,67.78,1010.92,11.370000000000001
27.000000000000057,107.34,16.98,282.67,-7.89,0.66,-13.81,67.77,1010.88,11.620000000000001
27.089999999999975,101.65,16.130000000000003,283.90999999999997,-7.27,0.85,-11.01,67.77,1010.85,11.86
27.19999999999999,99.12,13.76,286.04,-7.41,0.54,-6.56,67.76,1010.82,12.099999999999998
27.29000000000002,96.11,11.010000000000002,289.28,-7.01,0.13,-7.12,67.76,1010.81,12.129999999999999
27.390000000000043,93.55,8.370000000000001,298.15,-6.91,-0.76,-5.86,67.75,1010.8,12.309999999999999
27.500000000000057,89.53,5.180000000000001,304.35,-6.68,-1.12,-7.79,67.75,1010.79,12.18
27.589999999999975,85.16,1.8400000000000003,308.66999999999996,-6.37,-1.28,-2.69,67.75,1010.8,12.280000000000001
27.689999999999998,81.0,-0.9799999999999995,313.88,-5.94,-1.53,-4.06,67.75,1010.78,12.36
27.79000000000002,76.56,-2.4799999999999995,318.94,-6.05,-1.36,-3.59,67.75,1010.78,12.379999999999999
27.900000000000034,72.74,-3.6999999999999993,322.39,-5.83,-1.59,-1.1,67.74,1010.78,12.349999999999998
27.989999999999952,69.3,-4.09,325.15,-5.64,-1.55,-2.6,67.75,1010.8,12.259999999999998
28.089999999999975,66.43,-3.4299999999999997,330.02,-4.19,-1.2,-3.4,67.74,1010.8,12.059999999999999
28.19999999999999,64.04,-2.2299999999999995,336.12,-2.81,-0.68,-5.42,67.74,1010.83,11.84
28.29000000000002,61.5,-1.13,341.0,-2.69,-0.63,-6.22,67.74,1010.86,11.620000000000001
28.400000000000034,58.73,-0.4499999999999993,344.99,-2.7,-0.9,-4.89,67.74,1010.87,11.579999999999998
28.500000000000057,57.05,-0.1299999999999999,346.32,-2.46,-0.76,-0.05,67.73,1010.85,11.690000000000001
28.589999999999975,56.97,0.5000000000000004,347.9,-3.31,-0.58,-2.46,67.73,1010.85,11.8
28.69999999999999,57.9,1.4500000000000006,349.06,-1.66,0.23,-1.46,67.73,1010.85,11.64
28.79000000000002,58.29,3.0600000000000005,351.36,-0.82,0.49,-8.23,67.73,1010.86,11.54
28.890000000000043,57.26,4.37,354.7,0.24,0.32,-4.78,67.73,1010.9,11.54
29.000000000000057,55.28,5.48,-2.509999999999991,-0.49,0.53,-2.41,67.73,1010.88,11.649999999999999
29.089999999999975,53.8,7.1000000000000005,0.21999999999999886,0.01,0.92,-4.2,67.73,1010.86,11.8
29.189999999999998,53.24,7.3500000000000005,-0.37999999999999545,-0.01,1.31,-0.28,67.73,1010.83,12.149999999999999
29.29000000000002,53.74,8.17,-2.719999999999999,-0.19,1.49,-5.54,67.73,1010.8,12.309999999999999
29.390000000000043,54.77,8.34,355.84000000000003,-1.4,0.97,1.2,67.73,1010.78,12.509999999999998
29.489999999999952,56.88,9.0,355.73,0.0,1.33,0.66,67.72,1010.75,12.719999999999999
29.589999999999975,58.59,9.89,353.78999999999996,0.41,1.7,-1.91,67.72,1010.72,12.86
29.689999999999998,59.31,10.81,350.96000000000004,-0.19,1.9,-3.0,67.72,1010.7,13.09
29.79000000000002,59.0,11.73,348.7,-0.24,1.88,-2.72,67.72,1010.68,13.41
29.900000000000034,58.25,12.38,347.84000000000003,-0.78,1.49,-1.27,67.72,1010.64,13.57
29.989999999999952,57.42,12.97,347.15999999999997,-1.09,1.75,-0.41,67.71,1010.62,13.849999999999998
30.089999999999975,56.66,13.49,344.13,-2.2,2.42,-2.4,67.7,1010.59,14.099999999999998
30.19999999999999,56.08,14.18,340.01,-2.11,2.32,-2.49,67.7,1010.56,14.39
30.29000000000002,55.91,14.4,337.57,-2.0,1.7,1.07,67.71,1010.51,14.7
30.400000000000034,55.34,14.81,337.36,-1.9,1.84,-0.42,67.71,1010.49,15.02
30.500000000000057,54.2,15.05,336.68,-1.71,2.17,-0.41,67.71,1010.44,15.41
30.599999999999966,52.45,14.52,336.64,-2.26,2.07,1.1,67.71,1010.4,15.599999999999998
30.69999999999999,50.42,13.97,336.13,-2.2,2.05,2.04,67.7,1010.37,15.89
30.80000000000001,48.98,13.52,334.78,-3.0,1.61,-0.02,67.7,1010.35,16.07
30.900000000000034,47.89,13.83,330.07,-3.62,1.37,1.3,67.7,1010.34,16.19
31.000000000000057,47.33,13.790000000000001,328.5,-3.69,1.71,-0.18,67.7,1010.3,16.37
31.099999999999966,46.34,14.21,328.03,-3.88,1.82,-0.61,67.7,1010.29,16.66
31.19999999999999,44.75,15.13,327.37,-3.63,2.35,-2.5,67.7,1010.25,16.849999999999998
31.30000000000001,42.74,16.17,327.95,-3.73,2.41,-2.39,67.7,1010.23,16.99
31.400000000000034,39.93,17.86,326.63,-3.32,2.57,-5.27,67.69,1010.22,17.05
31.489999999999952,37.02,19.04,326.09000000000003,-3.18,2.64,-5.25,67.69,1010.21,17.24
31.589999999999975,33.47,20.46,326.68,-3.7,2.38,-6.09,67.69,1010.18,17.49
31.69999999999999,30.15,20.94,327.62,-3.36,2.32,-6.42,67.69,1010.16,17.63
31.79000000000002,27.91,19.91,328.74,-3.56,2.56,-1.49,67.68,1010.14,17.78
31.900000000000034,25.59,19.43,327.83000000000004,-4.16,2.7,-3.53,67.68,1010.12,18.009999999999998
32.00000000000006,24.07,18.759999999999998,326.15,-2.89,2.14,1.86,67.67,1010.09,18.21
32.089999999999975,21.93,19.15,325.89,-3.82,2.37,-0.25,67.67,1010.07,18.34
32.19999999999999,19.37,19.64,324.91999999999996,-3.87,2.7,-4.51,67.66,1010.06,18.47
32.30000000000001,17.0,19.61,324.48,-3.61,2.5,-3.64,67.66,1010.04,18.56
32.400000000000034,14.79,19.130000000000003,325.43,-3.27,2.19,-3.87,67.66,1010.02,18.84
32.50000000000006,12.28,18.39,326.52,-3.34,2.0,-3.61,67.66,1010.0,18.89
32.599999999999966,9.98,17.04,327.69,-3.04,1.98,-3.45,67.66,1009.98,19.099999999999998
32.69999999999999,7.37,16.46,328.76,-3.2,1.82,-6.54,67.66,1009.95,19.419999999999998
32.80000000000001,4.36,15.41,331.07,-3.01,1.54,-1.6,67.65,1009.92,19.69
32.89000000000004,1.54,14.25,333.23,-3.53,1.42,1.19,67.64,1009.89,20.0
32.98999999999995,358.86,13.35,332.36,-3.42,1.15,0.18,67.64,1009.85,20.25
33.089999999999975,356.6,12.76,331.72,-3.72,1.46,1.14,67.64,1009.81,20.48
33.19,355.06,11.82,332.24,-4.28,0.88,1.91,67.64,1009.78,20.86
33.29000000000002,354.14,11.71,331.75,-3.76,1.26,-0.83,67.64,1009.74,21.07
33.400000000000034,353.77,11.66,331.90999999999997,-2.89,1.18,1.03,67.64,1009.74,21.15
33.50000000000006,352.68,12.41,334.01,-2.58,1.48,-1.93,67.63,1009.72,21.16
33.599999999999966,351.53,12.690000000000001,336.56,-2.57,0.68,-1.65,67.64,1009.73,21.23
33.69999999999999,350.42,12.790000000000001,339.06,-2.05,0.93,-3.78,67.63,1009.71,21.34
33.80000000000001,349.18,12.38,340.09000000000003,-1.71,1.17,-3.0,67.63,1009.69,21.47
33.900000000000034,347.4,13.860000000000001,342.55,-1.67,1.07,-5.98,67.63,1009.69,21.52
34.00000000000006,345.2,16.22,343.81,-2.35,2.0,-8.11,67.63,1009.69,21.57
34.099999999999966,343.56,16.450000000000003,343.33000000000004,-2.14,2.0,-2.58,67.62,1009.66,21.83
34.19999999999999,342.45,16.09,342.23,-2.43,2.03,0.51,67.61,1009.63,22.11
34.30000000000001,341.75,15.72,340.13,-2.05,2.02,2.2,67.61,1009.61,22.349999999999998
34.39000000000004,341.3,15.68,339.11,-2.84,2.06,1.59,67.6,1009.57,22.68
34.50000000000006,341.51,14.5,338.23,-2.44,1.84,1.13,67.6,1009.53,22.919999999999998
34.589999999999975,341.46,14.65,335.59000000000003,-2.5,1.89,-0.42,67.6,1009.51,23.099999999999998
34.69,341.21,14.620000000000001,335.6,-1.93,1.56,-0.03,67.6,1009.48,23.38
34.79000000000002,340.96,13.1,338.3,-1.44,1.37,0.63,67.6,1009.46,23.55
34.900000000000034,339.51,14.07,338.03,-2.24,1.67,-2.38,67.61,1009.42,23.68
35.00000000000006,338.13,14.8,337.31,-2.28,1.69,-3.14,67.61,1009.41,24.01
35.089999999999975,336.6,14.93,337.32,-2.6,1.97,-1.58,67.61,1009.38,24.209999999999997
35.19,335.1,14.450000000000001,336.32,-2.49,1.85,-1.57,67.6,1009.35,24.45
35.29000000000002,333.43,14.440000000000001,335.81,-2.13,2.02,-2.76,67.59,1009.32,24.639999999999997
35.400000000000034,332.12,13.68,336.49,-2.23,1.9,0.5,67.59,1009.29,24.88
35.48999999999995,330.34,13.41,336.1,-2.32,1.75,-1.27,67.59,1009.26,25.150000000000002
35.589999999999975,328.67,12.81,335.72,-2.3,1.69,-7.0,67.59,1009.25,25.24
35.69999999999999,326.79,12.41,333.62,-2.95,1.32,-0.94,67.58,1009.22,25.569999999999997
35.79000000000002,325.23,11.940000000000001,333.05,-2.51,1.93,1.74,67.58,1009.17,25.999999999999996
35.89000000000004,323.36,11.24,333.82,-3.37,1.82,1.15,67.58,1009.13,26.27
36.00000000000006,321.79,10.45,334.5,-3.3,1.77,1.06,67.58,1009.1,26.429999999999996
36.089999999999975,320.57,10.05,336.52,-2.44,1.67,-0.65,67.58,1009.07,26.790000000000003
36.19,319.24,9.870000000000001,338.02,-2.08,1.28,-2.06,67.58,1009.04,26.98
36.29000000000002,317.8,9.5,337.75,-0.32,0.89,2.3,67.57,1009.01,27.110000000000003
36.39000000000004,315.47,8.93,337.40999999999997,-1.88,1.14,1.47,67.57,1009.01,27.319999999999997
36.50000000000006,312.93,8.05,338.08000000000004,-2.7,0.97,1.65,67.57,1008.98,27.49
36.589999999999975,311.08,7.430000000000001,336.5,-2.95,0.7,0.68,67.56,1008.96,27.62
36.69,310.21,6.930000000000001,336.05,-2.26,0.76,1.8,67.56,1008.94,27.819999999999997
36.79000000000002,309.44,6.5,336.16999999999996,-2.57,0.72,1.86,67.56,1008.91,27.88
36.900000000000034,308.48,6.37,333.53999999999996,-3.75,0.4,-5.39,67.56,1008.93,27.84
36.98999999999995,307.73,6.16,331.49,-4.77,1.45,-3.37,67.56,1008.92,27.999999999999996
37.089999999999975,307.49,6.16,331.1,-3.33,1.27,0.0,67.56,1008.9,28.19
37.19999999999999,307.3,6.800000000000001,332.35,-2.3,1.09,-1.29,67.56,1008.88,28.249999999999996
37.29000000000002,306.56,6.44,333.15999999999997,-1.73,0.82,-0.39,67.56,1008.88,28.26
37.400000000000034,304.78,5.710000000000001,332.6,-3.69,0.52,0.53,67.56,1008.87,28.389999999999997
37.50000000000006,302.98,4.91,332.6,-4.03,0.61,1.07,67.56,1008.85,28.529999999999998
37.589999999999975,301.79,4.550000000000001,331.6,-3.6,0.72,-0.41,67.56,1008.85,28.51
37.69999999999999,300.99,4.4,331.81,-3.34,1.1,-0.13,67.55,1008.84,28.62
37.79000000000002,300.06,4.140000000000001,330.71000000000004,-3.17,1.13,-2.74,67.55,1008.83,28.62
37.900000000000034,298.77,3.6900000000000004,328.81,-3.65,0.99,1.07,67.55,1008.83,28.59
38.00000000000006,297.77,3.1700000000000004,326.45,-3.79,1.39,0.19,67.55,1008.84,28.63
38.099999999999966,295.62,4.0600000000000005,328.52,-4.1,1.31,-0.66,67.55,1008.82,28.749999999999996
38.19999999999999,294.53,3.3200000000000003,327.87,-4.31,1.1,0.42,67.55,1008.82,28.650000000000002
38.30000000000001,293.84,2.5400000000000005,328.37,-3.99,0.84,2.92,67.55,1008.83,28.529999999999998
38.400000000000034,293.03,2.7600000000000007,327.90999999999997,-3.29,1.01,-1.37,67.55,1008.85,28.45
38.50000000000006,292.28,2.4400000000000004,329.99,-3.39,0.89,0.68,67.54,1008.86,28.31
38.599999999999966,291.36,2.1900000000000004,329.78999999999996,-3.11,0.56,0.1,67.54,1008.87,28.209999999999997
38.69999999999999,290.41,1.8200000000000003,330.33000000000004,-3.45,0.45,-0.2,67.54,1008.9,28.069999999999997
38.79000000000002,289.32,1.6900000000000004,330.95,-3.22,0.36,-4.21,67.54,1008.9,27.959999999999997
38.900000000000034,287.52,1.7000000000000006,334.68,-2.34,0.73,-2.22,67.54,1008.92,27.87
38.98999999999995,284.85,2.4000000000000004,339.1,-2.8,1.32,-4.56,67.54,1008.94,27.749999999999996
39.089999999999975,282.56,3.1700000000000004,341.11,-2.42,1.1,-5.1,67.54,1008.95,27.59
39.19999999999999,280.84,3.7100000000000004,343.26,-2.41,1.34,-1.37,67.53,1008.96,27.56
39.29000000000002,280.1,3.8100000000000005,342.22,-2.64,1.42,-2.68,67.53,1008.97,27.360000000000003
39.400000000000034,279.91,3.9600000000000004,344.73,-1.51,0.92,2.64,67.53,1008.99,27.319999999999997
39.50000000000006,279.5,4.800000000000001,349.07,-0.68,1.53,-0.98,67.53,1008.99,27.360000000000003
39.589999999999975,278.63,5.24,353.4,-0.29,1.91,-1.65,67.52,1008.99,27.13
39.69999999999999,277.39,5.65,355.66999999999996,-0.32,1.54,-1.3,67.52,1009.01,27.110000000000003
39.80000000000001,276.95,5.78,-3.740000000000009,-0.44,1.35,0.18,67.51,1009.02,26.98
39.900000000000034,277.05,7.82,-2.6699999999999875,-0.49,2.45,-6.41,67.5,1009.02,27.069999999999997
40.00000000000006,277.48,11.9,0.11000000000001364,0.61,2.83,-9.18,67.5,1009.02,26.91
40.099999999999966,277.99,15.540000000000001,2.7700000000000102,-0.33,3.35,-13.11,67.5,1009.03,26.91
40.19999999999999,278.55,17.86,3.740000000000009,0.06,4.43,-9.41,67.5,1009.03,27.220000000000002
40.30000000000001,279.3,18.4,4.27000000000001,0.26,3.67,-3.49,67.5,1008.98,27.569999999999997
40.400000000000034,280.99,18.93,5.110000000000014,1.94,4.72,-5.69,67.49,1008.94,27.91
40.48999999999995,282.21,19.55,6.439999999999998,2.5,4.02,-2.96,67.49,1008.9,28.290000000000003
40.589999999999975,282.18,20.28,5.72999999999999,2.69,3.77,-3.38,67.48,1008.86,28.529999999999998
40.69999999999999,281.68,21.3,4.9199999999999875,2.26,4.93,-6.82,67.48,1008.83,28.94
40.79000000000002,281.24,22.0,3.5900000000000034,0.44,4.31,-2.02,67.48,1008.76,29.56
40.900000000000034,281.53,22.04,2.4199999999999875,0.7,4.86,-0.72,67.47,1008.69,30.01
41.00000000000006,282.52,21.79,2.4000000000000057,0.89,4.13,3.41,67.46,1008.63,30.63
41.089999999999975,283.77,21.830000000000002,2.5600000000000023,1.32,4.15,0.66,67.46,1008.56,31.2
41.19999999999999,284.14,21.91,6.1699999999999875,1.24,4.07,1.78,67.46,1008.49,31.849999999999998
41.30000000000001,283.71,20.450000000000003,9.099999999999994,1.91,3.71,2.11,67.45,1008.41,32.349999999999994
41.400000000000034,283.56,19.700000000000003,12.449999999999989,2.1,2.99,3.63,67.46,1008.36,32.769999999999996
41.50000000000006,283.93,19.39,14.889999999999986,1.57,3.1,2.59,67.46,1008.31,33.19
41.599999999999966,285.45,18.66,16.22999999999999,2.67,3.31,1.05,67.45,1008.26,33.67999999999999
41.69999999999999,287.35,17.759999999999998,16.22999999999999,4.05,2.73,1.68,67.45,1008.2,34.010000000000005
41.80000000000001,288.93,16.75,12.77000000000001,3.33,2.77,2.04,67.45,1008.17,34.349999999999994
41.89000000000004,291.02,15.76,4.569999999999993,1.71,2.49,-0.08,67.44,1008.13,34.66
41.98999999999995,293.66,15.110000000000001,-3.6200000000000045,0.62,2.81,0.09,67.44,1008.1,34.870000000000005
42.089999999999975,295.95,15.26,348.15999999999997,0.4,2.87,0.0,67.44,1008.07,35.099999999999994
42.19,296.66,15.32,340.12,-0.96,2.41,-1.62,67.44,1008.06,35.17
42.29000000000002,296.07,15.31,336.03,-2.32,2.46,2.1,67.44,1008.03,35.42
42.400000000000034,293.82,18.42,333.11,-3.12,3.18,-6.12,67.44,1008.0,35.599999999999994
42.50000000000006,291.48,21.39,331.72,-3.02,3.69,-9.81,67.44,1008.0,35.620000000000005
42.599999999999966,288.74,24.12,328.87,-3.74,3.85,-9.07,67.44,1007.97,36.019999999999996
42.69999999999999,286.25,25.12,326.21000000000004,-3.47,3.92,-5.18,67.44,1007.94,36.379999999999995
42.79000000000002,284.69,24.3,324.97,-4.1,3.38,-0.56,67.43,1007.88,36.83
42.900000000000034,283.54,23.05,324.63,-4.37,3.14,-0.31,67.43,1007.83,37.31999999999999
43.00000000000006,282.92,21.42,323.56,-4.11,2.95,3.41,67.43,1007.77,37.78
43.089999999999975,281.67,20.69,322.81,-4.23,2.83,0.8,67.43,1007.72,38.209999999999994
43.19999999999999,280.35,19.560000000000002,323.05,-4.16,3.05,-0.31,67.43,1007.67,38.42999999999999
43.29000000000002,278.86,18.59,322.34000000000003,-3.78,2.78,0.57,67.43,1007.62,38.92999999999999
43.39000000000004,277.1,17.72,321.51,-4.16,2.59,-0.56,67.43,1007.58,39.34
43.50000000000006,275.35,16.509999999999998,321.2,-4.23,2.42,0.9,67.43,1007.53,39.540000000000006
43.589999999999975,273.72,14.85,321.98,-4.2,2.12,1.78,67.43,1007.51,39.75
43.69,271.37,14.26,321.35,-4.67,1.79,-1.81,67.43,1007.5,39.8
43.79000000000002,268.03,15.23,319.86,-5.27,2.11,-5.69,67.43,1007.49,39.89
43.900000000000034,265.1,16.4,319.16999999999996,-5.74,2.05,-5.41,67.43,1007.47,40.06999999999999
43.98999999999995,262.89,17.46,318.19,-4.55,2.32,-4.98,67.42,1007.46,40.209999999999994
44.089999999999975,261.68,17.05,318.13,-4.34,2.42,-1.75,67.41,1007.44,40.42999999999999
44.19999999999999,260.47,15.64,318.25,-4.74,2.21,-0.6,67.41,1007.41,40.629999999999995
44.29000000000002,258.75,14.34,316.43,-5.5,1.88,-0.59,67.41,1007.4,40.69
44.400000000000034,257.25,12.870000000000001,315.57,-5.56,1.73,0.0,67.4,1007.38,40.760000000000005
44.50000000000006,255.95,11.46,315.74,-5.97,1.27,0.84,67.4,1007.37,40.879999999999995
44.589999999999975,254.82,10.18,315.03999999999996,-5.29,0.74,0.79,67.4,1007.37,40.980000000000004
44.69999999999999,253.66,9.11,314.15999999999997,-4.73,0.52,1.09,67.4,1007.35,41.019999999999996
44.79000000000002,252.05,8.4,314.66999999999996,-4.65,0.66,-1.37,67.39,1007.37,40.94
44.89000000000004,249.39,8.24,314.47,-4.94,0.87,-3.6,67.39,1007.37,40.64
45.00000000000006,245.08,9.27,313.22,-5.92,1.42,-8.54,67.39,1007.4,40.53
45.089999999999975,240.92,10.170000000000002,312.23,-5.47,1.08,-7.23,67.39,1007.41,40.489999999999995
45.19,236.51,11.52,311.97,-5.97,1.25,-9.67,67.39,1007.42,40.290000000000006
45.30000000000001,233.22,12.05,311.02,-5.68,1.95,-7.13,67.38,1007.44,40.120000000000005
45.400000000000034,230.45,12.81,306.69,-6.36,1.8,-7.24,67.38,1007.45,40.11
45.50000000000006,228.21,13.620000000000001,300.49,-5.93,1.64,-7.42,67.37,1007.47,40.05
45.599999999999966,225.89,14.06,294.74,-6.42,1.96,-7.7,67.36,1007.47,40.019999999999996
45.69999999999999,225.15,12.51,291.06,-5.68,1.44,-1.35,67.36,1007.45,40.11
45.80000000000001,223.37,10.09,289.47,-6.19,0.51,0.87,67.36,1007.45,40.099999999999994
45.900000000000034,218.91,8.15,289.14,-7.47,0.63,-6.69,67.35,1007.47,39.629999999999995
46.00000000000006,211.75,7.800000000000001,288.15,-7.73,1.22,-15.15,67.35,1007.53,39.269999999999996
46.099999999999966,204.67,8.01,286.97,-8.3,0.38,-17.27,67.35,1007.56,39.129999999999995
46.19999999999999,199.36,7.5200000000000005,286.15999999999997,-7.58,0.4,-14.4,67.34,1007.59,39.03
46.29000000000002,197.65,5.550000000000001,286.45,-7.54,0.59,-6.08,67.33,1007.6,38.989999999999995
46.400000000000034,196.91,2.6800000000000006,286.78,-7.11,0.11,-1.4,67.33,1007.61,38.75
46.50000000000006,195.41,-0.45999999999999996,292.22,-7.09,-0.45,-1.22,67.33,1007.65,38.41
46.589999999999975,193.29,-3.9000000000000004,302.21,-7.08,-0.77,-2.47,67.33,1007.69,38.09
46.69999999999999,190.53,-7.48,311.03,-6.45,-1.22,0.21,67.33,1007.72,37.86
46.80000000000001,187.83,-9.969999999999999,314.97,-6.56,-2.0,0.49,67.33,1007.73,37.650000000000006
46.900000000000034,184.76,-9.559999999999999,317.74,-6.54,-1.02,-3.95,67.33,1007.79,37.03
47.00000000000006,179.24,-4.0,319.26,-6.6,-1.14,-17.13,67.33,1007.86,36.42
47.099999999999966,175.34,1.0900000000000003,320.58000000000004,-5.27,-0.18,-22.96,67.32,1007.93,35.97
47.19999999999999,173.79,3.1900000000000004,322.31,-4.77,1.24,-10.36,67.32,1007.97,35.67999999999999
47.30000000000001,173.23,3.1400000000000006,322.65999999999997,-4.63,0.55,-2.01,67.31,1008.0,35.599999999999994
47.400000000000034,172.27,2.5100000000000007,322.39,-4.29,0.62,-0.22,67.31,1008.02,35.44
47.50000000000006,171.38,1.3100000000000005,321.63,-4.57,0.2,1.37,67.3,1008.03,35.239999999999995
47.599999999999966,170.39,0.6300000000000003,321.51,-4.95,0.8,-1.54,67.3,1008.06,35.06999999999999
47.69999999999999,169.73,-0.2599999999999998,320.73,-4.31,0.11,-0.94,67.29,1008.06,34.94
47.79000000000002,169.32,-0.8199999999999994,318.65999999999997,-4.38,0.47,-1.42,67.29,1008.1,34.730000000000004
47.900000000000034,168.93,-1.2799999999999994,314.22,-4.64,0.07,-1.3,67.29,1008.13,34.44
47.98999999999995,168.32,-1.8199999999999994,312.05,-5.57,-0.12,-1.78,67.3,1008.15,34.230000000000004
48.089999999999975,167.45,-2.88,309.02,-5.1,-0.05,0.62,67.29,1008.16,34.120000000000005
48.19999999999999,166.28,-4.279999999999999,304.91999999999996,-5.58,-0.64,0.87,67.29,1008.19,33.89
48.29000000000002,165.22,-5.75,301.31,-5.44,-0.45,-0.48,67.29,1008.21,33.480000000000004
48.400000000000034,164.0,-7.279999999999999,299.82,-6.62,-1.04,-0.38,67.3,1008.27,33.16
48.50000000000006,162.92,-9.27,299.42,-6.78,-1.18,-1.49,67.29,1008.29,32.989999999999995
48.599999999999966,162.06,-10.9,299.51,-6.73,-1.25,-1.42,67.29,1008.35,32.5
48.69999999999999,160.7,-12.32,300.03,-7.21,-1.19,-3.12,67.29,1008.39,31.919999999999998
48.80000000000001,158.13,-12.280000000000001,299.67,-6.8,-0.92,-8.15,67.29,1008.47,31.360000000000003
48.900000000000034,156.2,-12.57,300.23,-6.66,-0.86,-3.85,67.29,1008.54,30.830000000000002
49.00000000000006,153.13,-12.149999999999999,300.79,-6.89,-0.13,-10.82,67.29,1008.6,30.13
49.099999999999966,148.8,-10.73,300.99,-7.21,-0.76,-14.97,67.28,1008.67,29.62
49.19999999999999,144.36,-9.01,302.78,-6.67,0.53,-14.91,67.28,1008.77,28.94
49.29000000000002,140.8,-7.889999999999999,303.98,-5.83,0.0,-10.82,67.27,1008.82,28.360000000000003
49.400000000000034,136.57,-6.639999999999999,305.18,-6.44,0.47,-14.97,67.27,1008.89,27.860000000000003
49.48999999999995,135.57,-8.4,305.93,-5.8,0.08,-1.47,67.26,1008.95,27.389999999999997
49.589999999999975,133.79,-9.93,305.3,-6.58,0.13,-6.92,67.26,1008.98,27.169999999999998
49.69999999999999,133.02,-11.940000000000001,303.54,-6.17,-0.82,1.74,67.26,1009.02,26.919999999999998
49.79000000000002,131.8,-13.219999999999999,303.01,-6.8,-1.13,-1.3,67.26,1009.07,26.37
49.900000000000034,131.19,-14.530000000000001,303.02,-6.02,-1.29,2.05,67.26,1009.11,26.09
50.00000000000006,130.67,-15.59,303.28,-6.27,-1.56,1.34,67.26,1009.16,25.51
50.089999999999975,129.76,-16.5,305.95,-5.51,-1.38,-2.91,67.25,1009.22,25.02
50.19999999999999,128.92,-18.04,309.63,-5.19,-1.18,0.65,67.25,1009.29,24.400000000000002
50.29000000000002,126.89,-19.37,315.31,-5.74,-1.28,-2.48,67.25,1009.37,23.849999999999998
50.39000000000004,125.18,-20.99,322.77,-4.99,-2.19,0.5,67.24,1009.44,23.169999999999998
50.50000000000006,123.41,-21.64,326.12,-4.21,-1.78,-0.42,67.24,1009.53,22.43
50.589999999999975,120.66,-18.89,327.43,-4.57,-0.66,-17.93,67.24,1009.61,21.599999999999998
50.69,117.75,-14.009999999999998,329.15999999999997,-4.86,0.53,-18.12,67.23,1009.73,20.72
50.79000000000002,115.6,-9.709999999999999,329.14,-5.45,0.45,-18.8,67.22,1009.82,20.259999999999998
50.900000000000034,116.09,-10.459999999999999,329.57,-3.33,0.6,-3.72,67.22,1009.86,19.88
50.98999999999995,115.61,-11.059999999999999,329.32,-3.33,-0.3,1.88,67.22,1009.89,19.55
51.089999999999975,114.38,-11.129999999999999,329.28999999999996,-3.55,-0.53,-6.08,67.21,1009.96,19.03
51.19,113.72,-12.61,326.91999999999996,-1.89,-2.34,3.67,67.21,1010.0,18.7
51.29000000000002,112.47,-14.21,324.33000000000004,-4.34,-3.51,9.12,67.21,1010.03,18.53
51.400000000000034,111.84,-14.21,323.2,-4.43,-2.18,-8.67,67.21,1010.08,17.99
51.48999999999995,112.66,-14.759999999999998,322.48,-3.91,-2.22,1.33,67.21,1010.13,17.58
51.589999999999975,113.43,-15.04,321.69,-2.97,-2.83,4.79,67.21,1010.18,17.16
51.69999999999999,112.59,-13.93,321.34000000000003,-3.24,-2.21,-5.36,67.2,1010.22,16.74
51.79000000000002,105.73,-7.66,321.94,-4.98,-0.66,-31.3,67.19,1010.3,16.09
51.89000000000004,101.35,-3.869999999999999,323.21000000000004,-3.45,0.41,-19.75,67.19,1010.36,15.79
52.00000000000006,100.89,-4.58,323.23,-2.63,-0.32,0.64,67.18,1010.38,15.54
52.089999999999975,98.98,-4.609999999999999,323.65999999999997,-3.4,-0.48,-2.38,67.17,1010.41,15.57
52.19,98.96,-7.59,326.05,-3.51,-1.33,6.38,67.17,1010.39,15.669999999999998
52.29000000000002,97.58,-8.95,333.0,-3.36,-1.24,7.86,67.16,1010.39,15.52
52.39000000000004,95.75,-9.07,341.03,-2.61,-0.39,-2.18,67.16,1010.4,15.379999999999999
52.50000000000006,93.72,-8.91,349.33000000000004,-1.76,-0.47,-5.19,67.16,1010.42,15.29
52.589999999999975,91.99,-9.87,-2.6599999999999966,0.54,-0.08,-0.6,67.16,1010.44,15.07
52.69999999999999,90.3,-9.45,5.1200000000000045,2.16,-0.21,-1.44,67.16,1010.47,14.919999999999998
52.80000000000001,89.48,-8.389999999999999,11.460000000000008,1.09,0.03,-9.89,67.16,1010.49,14.809999999999999
52.900000000000034,89.8,-9.2,14.870000000000005,1.74,-1.24,9.47,67.15,1010.49,14.739999999999998
53.00000000000006,90.93,-10.11,16.69999999999999,4.79,-1.95,11.6,67.15,1010.5,14.530000000000001
53.099999999999966,92.35,-9.86,16.19999999999999,2.23,-0.48,-10.7,67.14,1010.54,14.099999999999998
53.19999999999999,93.02,-11.08,17.129999999999995,4.21,-2.17,2.95,67.14,1010.58,13.759999999999998
53.30000000000001,95.02,-7.879999999999999,17.430000000000007,3.32,0.63,-11.51,67.13,1010.65,13.21
53.400000000000034,96.86,-4.09,17.539999999999992,3.67,1.38,-19.28,67.13,1010.71,12.84
53.50000000000006,96.84,-5.18,16.389999999999986,5.42,1.36,-1.3,67.12,1010.73,12.759999999999998
53.589999999999975,96.63,-5.699999999999999,16.139999999999986,2.58,-0.06,6.23,67.11,1010.74,12.79
53.69999999999999,96.94,-5.07,14.569999999999993,1.59,0.7,-10.47,67.11,1010.75,12.669999999999998
53.80000000000001,98.19,-6.629999999999999,9.949999999999989,-1.44,-1.38,4.09,67.1,1010.74,12.77
53.89000000000004,100.55,-8.969999999999999,1.5999999999999943,0.01,-0.88,5.33,67.1,1010.73,12.849999999999998
54.00000000000006,103.96,-9.02,354.0,0.33,-0.1,0.61,67.09,1010.72,12.629999999999999
54.089999999999975,105.08,-9.25,354.63,2.03,-0.66,-12.58,67.08,1010.76,12.239999999999998
54.19999999999999,104.24,-10.309999999999999,353.41999999999996,0.66,-0.97,10.84,67.08,1010.81,12.04
54.30000000000001,104.03,-10.01,351.99,0.36,-0.36,5.83,67.08,1010.82,12.079999999999998
54.400000000000034,104.11,-9.73,350.40999999999997,0.35,0.69,-8.61,67.07,1010.81,12.18
54.50000000000006,104.68,-9.75,348.65999999999997,-2.08,2.17,4.92,67.06,1010.82,11.759999999999998
54.599999999999966,105.74,-6.889999999999999,343.63,-2.63,1.32,-10.82,67.05,1010.86,11.489999999999998
54.69999999999999,105.73,-3.84,333.13,-2.45,2.52,-20.73,67.04,1010.91,11.280000000000001
54.80000000000001,106.16,-3.0299999999999994,321.98,-5.55,4.05,10.24,67.04,1010.9,11.14
54.900000000000034,106.36,-0.3899999999999997,314.52,-3.92,1.17,3.55,67.03,1010.93,10.899999999999999
55.00000000000006,104.26,2.87,305.8,-4.99,3.16,-26.1,67.03,1010.97,10.7
55.089999999999975,102.9,4.300000000000001,298.82,-4.1,3.03,-12.31,67.03,1010.99,10.41
55.19999999999999,96.22,7.700000000000001,292.90999999999997,-5.74,3.62,-31.77,67.03,1011.03,10.329999999999998
55.29000000000002,89.87,9.55,287.75,-6.62,3.53,-35.4,67.02,1011.02,10.399999999999999
55.39000000000004,85.7,9.34,290.02,-5.55,3.64,-10.94,67.01,1011.0,10.5
55.50000000000006,77.83,9.8,291.35,-7.86,3.59,-24.81,67.01,1010.99,10.870000000000001
55.589999999999975,72.66,9.96,290.86,-7.17,3.71,-24.09,67.01,1010.93,11.25
55.69999999999999,68.59,10.65,292.03,-7.41,3.57,-13.38,67.01,1010.88,11.66
55.80000000000001,62.0,12.38,290.97,-7.05,4.27,-25.17,67.01,1010.84,12.0
55.900000000000034,57.41,12.89,290.13,-7.94,4.21,-20.23,67.01,1010.8,12.52
56.00000000000006,54.18,13.07,290.07,-7.75,4.08,-10.49,67.01,1010.73,12.93
56.099999999999966,48.9,13.780000000000001,288.64,-7.56,4.26,-19.7,67.0,1010.67,13.469999999999999
56.19999999999999,45.36,13.700000000000001,288.84000000000003,-7.6,4.02,-16.3,67.0,1010.62,13.940000000000001
56.30000000000001,41.44,13.55,288.56,-7.25,4.0,-11.5,66.99,1010.56,14.43
56.400000000000034,36.83,13.610000000000001,289.47,-7.03,3.73,-10.38,66.99,1010.51,14.77
56.50000000000006,33.06,13.07,288.94,-7.14,3.28,-13.22,66.99,1010.46,15.120000000000001
56.599999999999966,29.46,12.16,289.0,-7.63,3.19,-8.13,66.99,1010.43,15.52
56.69999999999999,26.14,11.06,288.4,-7.64,2.91,-8.45,66.99,1010.38,15.86
56.79000000000002,23.22,9.81,288.18,-7.22,2.75,-9.55,66.99,1010.33,16.3
56.900000000000034,20.65,8.42,288.40999999999997,-6.96,2.53,-8.76,66.99,1010.29,16.64
57.00000000000006,18.47,6.630000000000001,287.21,-7.6,2.52,-2.04,66.99,1010.25,16.78
57.089999999999975,16.21,4.58,287.34000000000003,-7.49,1.7,-4.07,66.98,1010.24,17.009999999999998
57.19999999999999,13.74,2.5000000000000004,287.57,-7.28,1.52,-4.9,66.98,1010.22,17.13
57.30000000000001,11.24,0.6600000000000006,287.6,-7.93,1.5,-6.13,66.97,1010.2,17.24
57.400000000000034,7.65,0.010000000000000675,289.2,-8.54,1.25,-9.97,66.97,1010.19,17.21
57.50000000000006,2.69,0.17000000000000082,290.71,-7.45,1.55,-11.6,66.97,1010.21,17.009999999999998
57.589999999999975,357.05,0.7600000000000002,292.73,-7.34,1.8,-16.14,66.97,1010.23,16.919999999999998
57.69,353.23,0.34000000000000075,295.46,-7.35,1.35,-13.85,66.97,1010.24,16.71
57.79000000000002,348.4,-0.10999999999999943,301.88,-6.99,1.28,-14.81,66.96,1010.26,16.73
57.89000000000004,343.38,-0.8599999999999994,306.63,-6.68,0.73,-12.35,66.95,1010.28,16.53
57.98999999999995,339.22,-1.71,311.27,-6.28,1.57,-8.65,66.94,1010.29,16.259999999999998
58.089999999999975,334.79,-0.6299999999999999,317.21000000000004,-6.09,0.47,-9.43,66.94,1010.32,16.05
58.19,330.51,1.2300000000000004,322.21000000000004,-5.62,1.72,-10.06,66.94,1010.36,15.629999999999999
58.29000000000002,325.17,5.0,325.93,-4.9,2.0,-12.28,66.94,1010.39,15.59
58.400000000000034,319.88,9.71,329.14,-5.37,1.33,-21.0,66.94,1010.41,15.43
58.48999999999995,315.38,13.81,330.26,-5.24,2.42,-21.33,66.93,1010.39,15.690000000000001
58.589999999999975,311.88,17.85,330.1,-4.17,3.24,-15.44,66.93,1010.37,15.899999999999999
58.69999999999999,309.22,21.78,328.45,-4.78,5.01,-15.29,66.92,1010.35,16.31
58.79000000000002,308.52,22.62,326.58000000000004,-4.5,4.15,-5.88,66.92,1010.27,16.94
58.900000000000034,307.94,23.34,326.12,-3.75,3.96,-3.04,66.91,1010.2,17.64
59.00000000000006,307.74,22.490000000000002,327.0,-3.27,3.46,4.5,66.91,1010.11,18.23
59.089999999999975,306.12,21.59,327.9,-3.62,3.38,3.14,66.91,1010.05,18.69
59.19999999999999,303.79,19.8,327.68,-4.35,2.86,-2.12,66.9,1010.01,19.09
59.29000000000002,301.67,18.35,330.2,-3.94,2.78,-2.25,66.9,1009.94,19.56
59.39000000000004,300.04,17.259999999999998,333.15999999999997,-3.47,2.4,0.55,66.9,1009.89,20.08
59.50000000000006,298.79,16.53,337.08000000000004,-2.76,2.45,-3.12,66.89,1009.84,20.57
59.589999999999975,297.08,16.05,341.65,-2.21,2.57,-3.41,66.89,1009.79,20.8
59.69,294.45,15.17,343.76,-1.55,2.21,1.28,66.89,1009.75,21.23
59.79000000000002,291.71,14.66,346.38,-1.81,1.98,-3.33,66.88,1009.68,21.71
59.900000000000034,289.42,14.610000000000001,350.06,-1.79,1.93,0.01,66.88,1009.64,22.05
60.00000000000006,288.4,14.22,351.3,-1.47,2.16,-0.34,66.87,1009.58,22.44
60.099999999999966,288.51,13.31,351.65999999999997,-1.23,2.32,2.23,66.87,1009.55,22.96
60.19999999999999,289.01,13.09,353.26,-0.21,1.93,-0.6,66.87,1009.48,23.3
60.29000000000002,289.73,12.170000000000002,352.84000000000003,0.03,1.31,6.46,66.87,1009.44,23.77
60.400000000000034,290.26,12.0,351.86,-0.02,1.28,-2.25,66.87,1009.4,24.040000000000003
60.50000000000006,290.56,11.38,351.78,-0.54,1.55,0.35,66.87,1009.36,24.45
60.599999999999966,290.6,11.260000000000002,351.15,0.82,1.69,0.6,66.87,1009.31,24.87
60.69999999999999,289.93,10.63,351.61,-0.28,1.77,-1.26,66.87,1009.28,25.16
60.80000000000001,288.94,9.88,352.2,0.07,1.56,-1.18,66.87,1009.22,25.45
60.900000000000034,288.23,9.45,353.0,-0.35,0.99,1.21,66.87,1009.2,25.73
61.00000000000006,287.74,9.27,354.49,0.47,1.93,0.19,66.87,1009.16,26.080000000000002
61.089999999999975,287.31,8.74,354.83000000000004,0.16,1.37,0.76,66.86,1009.11,26.349999999999998
61.19,286.73,8.280000000000001,354.31,-0.07,1.03,1.89,66.87,1009.08,26.77
61.29000000000002,286.81,7.66,355.82,0.2,0.42,6.62,66.87,1009.03,27.16
61.39000000000004,287.42,6.44,354.55,0.0,0.11,4.85,66.86,1008.96,27.55
61.48999999999995,288.42,6.2700000000000005,354.44,-0.35,0.51,-0.2,66.86,1008.95,27.74
61.589999999999975,289.16,5.45,352.66999999999996,0.59,0.42,0.91,66.85,1008.93,27.889999999999997
61.69999999999999,289.07,5.3100000000000005,352.0,0.59,0.77,0.96,66.86,1008.91,28.13
61.80000000000001,288.49,4.970000000000001,352.61,0.78,0.45,0.47,66.86,1008.89,28.279999999999998
