time,heading,pitch,roll,xaccel,yaccel,zaccel,temp,pressure,altitude
0.0,125.17,0.0,0.0,-0.09,-0.01,-0.02,68.98,1011.73,0.0
0.10000000000002274,125.17,0.0,0.0,-0.15,0.0,-0.05,68.97,1011.72,0.0
0.20000000000004547,125.17,0.010000000000000231,0.009999999999990905,-0.12,-0.02,-0.03,68.97,1011.73,0.08999999999999986
0.3000000000000682,125.16,0.0,0.060000000000002274,-0.13,-0.01,-0.05,68.97,1011.73,-0.009999999999999787
0.40000000000009095,125.11,0.0,0.060000000000002274,-0.12,-0.02,-0.04,68.98,1011.72,0.10999999999999943
0.5,125.12,0.0,0.060000000000002274,-0.11,0.0,-0.03,68.97,1011.72,0.049999999999998934
0.6000000000000227,125.12,0.0,0.060000000000002274,-0.16,-0.02,-0.06,68.97,1011.73,-0.030000000000001137
0.7000000000000455,125.11,0.0,0.09999999999999432,-0.16,-0.01,-0.07,68.98,1011.74,0.10999999999999943
0.8000000000000682,125.12,0.0,0.15000000000000568,-0.08,-0.03,-0.05,68.98,1011.73,0.019999999999999574
0.900000000000091,125.12,0.0,0.15000000000000568,-0.14,-0.01,-0.01,68.98,1011.73,-0.040000000000000924
1.0,125.12,0.0,0.20000000000001705,-0.14,-0.01,-0.04,68.98,1011.73,0.049999999999998934
1.1000000000000227,125.08,0.0,0.22999999999998977,-0.13,-0.03,-0.03,68.98,1011.72,0.10999999999999943
1.2000000000000455,125.07,0.0,0.2400000000000091,-0.18,0.0,-0.04,68.98,1011.72,0.0
1.3000000000000682,125.09,0.0,0.2599999999999909,-0.13,-0.01,0.0,68.98,1011.74,-0.040000000000000924
1.400000000000091,125.01,0.0,0.2599999999999909,-0.16,-0.02,-0.02,68.97,1011.74,0.02999999999999936
1.5,124.98,0.0,0.28999999999999204,-0.14,0.01,-0.04,68.97,1011.74,-0.08000000000000007
1.6000000000000227,125.02,0.0,0.30000000000001137,-0.16,-0.02,-0.02,68.97,1011.75,-0.14000000000000057
1.7000000000000455,125.02,0.0,0.30000000000001137,-0.17,-0.02,-0.03,68.98,1011.74,-0.07000000000000028
1.8000000000000682,125.01,0.0,0.3100000000000023,-0.16,0.0,-0.04,68.98,1011.75,-0.10000000000000142
1.900000000000091,125.01,0.0,0.3100000000000023,-0.16,-0.01,-0.02,68.98,1011.74,-0.0600000000000005
2.0,125.02,0.0,0.3100000000000023,-0.17,0.0,-0.04,68.98,1011.75,-0.05000000000000071
2.1000000000000227,125.02,0.0,0.3100000000000023,-0.17,-0.01,-0.04,68.98,1011.75,0.019999999999999574
2.2000000000000455,125.02,0.0,0.3100000000000023,-0.18,-0.03,-0.03,68.97,1011.74,-0.040000000000000924
2.300000000000068,125.02,0.0,0.3100000000000023,-0.16,0.0,-0.05,68.97,1011.74,-0.08000000000000007
2.400000000000091,125.02,0.0,0.3100000000000023,-0.17,-0.02,-0.04,68.97,1011.74,-0.16999999999999993
2.5,125.02,0.0,0.3100000000000023,-0.16,-0.02,-0.02,68.97,1011.76,-0.15000000000000036
2.6000000000000227,125.02,0.0,0.3100000000000023,-0.13,0.0,-0.06,68.97,1011.76,-0.14000000000000057
2.7000000000000455,125.02,0.0,0.3100000000000023,-0.16,-0.02,-0.05,68.97,1011.75,-0.17999999999999972
2.800000000000068,125.02,0.0,0.3100000000000023,-0.17,-0.01,-0.04,68.98,1011.77,-0.2400000000000002
2.900000000000091,125.02,0.0,0.3100000000000023,-0.16,0.0,-0.04,68.97,1011.76,-0.20000000000000107
3.0,125.02,0.0,0.3100000000000023,-0.17,-0.02,-0.03,68.98,1011.77,-0.2599999999999998
3.1000000000000227,125.02,0.0,0.3100000000000023,-0.18,-0.01,-0.01,68.98,1011.77,-0.370000000000001
3.2000000000000455,125.02,0.0,0.3100000000000023,-0.17,-0.02,-0.06,68.98,1011.77,-0.27000000000000135
3.300000000000068,125.02,0.0,0.3100000000000023,-0.17,0.0,-0.04,68.97,1011.77,-0.25
3.400000000000091,125.02,0.0,0.3100000000000023,-0.13,0.0,-0.05,68.97,1011.76,-0.16999999999999993
3.5,125.02,0.0,0.3100000000000023,-0.16,-0.01,-0.04,68.98,1011.76,-0.15000000000000036
3.6000000000000227,125.02,0.0,0.3100000000000023,-0.13,-0.02,0.0,68.98,1011.76,-0.23000000000000043
3.7000000000000455,125.02,0.0,0.3100000000000023,-0.13,-0.02,-0.04,68.98,1011.76,-0.2900000000000009
3.800000000000068,125.02,0.0,0.3100000000000023,-0.16,-0.02,-0.02,68.98,1011.76,-0.33999999999999986
3.900000000000091,125.02,0.0,0.3100000000000023,-0.15,0.0,-0.05,68.99,1011.78,-0.3500000000000014
4.0,125.02,0.0,0.3100000000000023,-0.14,-0.02,-0.05,68.99,1011.77,-0.3600000000000012
4.100000000000023,125.02,0.0,0.3100000000000023,-0.18,0.0,-0.06,68.99,1011.78,-0.39000000000000057
4.2000000000000455,125.02,0.0,0.3100000000000023,-0.34,0.11,-0.08,68.99,1011.76,-0.23000000000000043
4.300000000000068,124.95,0.010000000000000231,0.5800000000000125,0.63,-0.32,0.16,68.99,1011.76,-0.33000000000000007
4.400000000000091,124.82,-0.03999999999999959,0.9000000000000057,-0.23,-0.73,-0.24,68.98,1011.78,-0.45000000000000107
4.5,124.71,-0.23999999999999977,0.7199999999999989,0.84,-3.79,0.52,68.99,1011.79,-0.40000000000000036
4.600000000000023,124.57,-0.36999999999999966,-0.29999999999998295,-0.4,-6.23,-2.92,68.99,1011.8,-0.6100000000000012
4.7000000000000455,124.16,-0.5299999999999998,358.53,1.87,-7.52,7.02,68.98,1011.83,-0.7900000000000009
4.800000000000068,123.93,-0.7899999999999996,-0.8599999999999852,0.78,-8.25,5.45,68.96,1011.83,-0.9500000000000011
4.900000000000091,123.99,-0.1599999999999997,-0.9099999999999966,1.31,-10.17,1.78,68.94,1011.84,-1.0500000000000007
5.0,122.34,-0.3799999999999999,358.46000000000004,0.58,-8.48,3.87,68.93,1011.87,-1.040000000000001
5.100000000000023,119.39,-0.5599999999999996,358.05,-0.94,-4.82,4.51,68.91,1011.85,-0.9600000000000009
5.2000000000000455,116.4,-0.22999999999999998,357.88,-2.97,-5.44,4.34,68.9,1011.86,-1.0700000000000003
5.300000000000068,113.28,-0.2999999999999998,357.9,-1.13,-0.25,-6.43,68.89,1011.86,-1.1900000000000013
5.400000000000091,110.5,0.040000000000000036,357.37,-1.29,-4.63,-1.81,68.88,1011.89,-1.3000000000000007
5.5,108.12,0.3200000000000003,357.6,9.61,-5.8,-0.91,68.88,1011.89,-1.200000000000001
5.600000000000023,105.74,0.17000000000000037,357.61,-5.34,-4.42,-1.84,68.86,1011.89,-1.1900000000000013
5.7000000000000455,103.68,0.15000000000000036,357.56,1.3,-6.78,0.47,68.85,1011.88,-1.2200000000000006
5.800000000000068,102.95,0.3900000000000001,357.86,-1.83,-5.21,0.19,68.84,1011.9,-1.42
5.900000000000091,103.02,1.4700000000000006,357.77,3.62,-2.38,-0.41,68.82,1011.92,-1.6500000000000004
6.0,103.69,3.33,357.92,4.23,-4.07,1.11,68.81,1011.94,-1.7599999999999998
6.100000000000023,105.12,6.390000000000001,357.38,-0.05,-5.37,-0.66,68.8,1011.94,-1.870000000000001
6.2000000000000455,105.94,9.13,354.89,1.17,-4.27,-4.99,68.79,1011.97,-2.2200000000000006
6.300000000000068,106.1,11.82,351.84000000000003,1.33,-4.51,-6.12,68.79,1012.02,-2.4000000000000004
6.400000000000091,106.36,13.76,351.76,2.38,-3.67,-2.59,68.78,1012.03,-2.1799999999999997
6.5,106.94,14.979999999999999,351.02,1.25,-2.86,-6.28,68.77,1011.99,-2.1500000000000004
6.600000000000023,107.09,14.65,348.14,1.92,-2.93,-2.15,68.76,1011.97,-1.83
6.7000000000000455,105.85,14.959999999999999,349.57,2.9,-2.87,-3.52,68.75,1011.92,-1.4400000000000013
6.800000000000068,104.82,15.520000000000001,351.61,2.28,-2.07,-2.34,68.74,1011.91,-1.25
6.900000000000091,104.11,16.15,353.15,2.71,-2.08,-0.59,68.74,1011.86,-0.9800000000000004
7.0,103.62,16.770000000000003,355.36,1.66,-1.43,-2.1,68.73,1011.83,-0.75
7.100000000000023,103.26,17.28,358.48,0.3,-1.32,-1.84,68.71,1011.8,-0.41999999999999993
7.2000000000000455,103.64,17.939999999999998,2.719999999999999,-0.81,-2.09,-2.99,68.7,1011.77,-0.21000000000000085
7.300000000000068,106.32,18.15,2.490000000000009,1.19,-0.92,0.0,68.69,1011.74,0.20999999999999908
7.400000000000091,108.46,19.229999999999997,2.219999999999999,0.45,-0.63,-2.31,68.69,1011.68,0.7400000000000002
7.5,109.06,20.58,2.4099999999999966,1.54,-0.99,-1.02,68.68,1011.62,1.1399999999999988
7.600000000000023,108.59,22.18,5.539999999999992,1.27,-0.55,-1.43,68.66,1011.58,1.4799999999999986
7.7000000000000455,107.4,24.33,9.530000000000001,-0.05,0.02,-4.94,68.65,1011.53,1.8499999999999996
7.800000000000068,106.07,25.82,15.240000000000009,-0.31,0.58,-5.5,68.64,1011.5,2.17
7.900000000000091,104.92,27.270000000000003,19.450000000000017,-1.34,0.43,-2.96,68.63,1011.45,2.6799999999999997
8.0,104.34,28.97,23.819999999999993,-1.89,0.0,-3.76,68.61,1011.39,3.09
8.100000000000023,103.11,30.71,27.569999999999993,-2.09,0.42,-4.94,68.61,1011.34,3.460000000000001
8.200000000000045,101.11,31.240000000000002,31.700000000000017,-1.61,1.49,1.4,68.6,1011.28,4.079999999999998
8.300000000000068,98.57,31.810000000000002,36.09,-2.96,1.44,-0.03,68.59,1011.21,4.669999999999998
8.400000000000091,95.5,32.42,38.920000000000016,-3.51,1.46,-5.45,68.58,1011.13,5.169999999999998
8.5,92.73,32.42,40.80000000000001,-4.26,1.87,-5.83,68.56,1011.08,5.75
8.600000000000023,89.39,31.82,43.900000000000006,-5.06,2.4,-2.76,68.55,1011.02,6.379999999999999
8.700000000000045,86.13,30.980000000000004,47.360000000000014,-4.99,2.34,-1.06,68.54,1010.94,6.849999999999998
8.800000000000068,83.05,30.32,49.22,-4.85,2.91,-2.82,68.53,1010.88,7.32
8.900000000000091,80.41,29.71,49.74000000000001,-4.47,1.74,-3.76,68.52,1010.84,7.710000000000001
9.0,79.27,27.92,49.28,-4.48,2.37,-0.61,68.52,1010.78,8.09
9.100000000000023,78.93,25.36,50.05000000000001,-5.03,2.09,0.48,68.51,1010.74,8.469999999999999
9.200000000000045,77.02,22.67,50.980000000000004,-5.35,1.36,0.85,68.5,1010.7,8.780000000000001
9.300000000000068,75.1,19.89,51.81,-5.89,0.9,0.63,68.5,1010.66,9.079999999999998
9.400000000000091,72.38,17.509999999999998,52.730000000000004,-6.05,0.82,-0.39,68.5,1010.64,9.219999999999999
9.5,69.57,15.389999999999999,52.540000000000006,-6.18,0.18,-2.09,68.49,1010.6,9.530000000000001
9.600000000000023,70.34,13.49,49.349999999999994,-5.92,-0.4,-1.24,68.48,1010.58,9.55
9.700000000000045,70.42,12.21,44.81999999999999,-5.97,-0.37,-0.73,68.47,1010.59,9.61
9.800000000000068,69.0,12.040000000000001,36.72999999999999,-4.83,0.18,-0.12,68.45,1010.56,9.77
9.900000000000091,66.15,10.85,33.129999999999995,-3.96,-0.09,-0.52,68.44,1010.56,9.71
10.0,62.83,9.52,31.30000000000001,-4.52,-0.74,-1.01,68.43,1010.56,9.7
10.100000000000023,59.24,8.88,27.150000000000006,-3.83,-0.27,-1.49,68.42,1010.58,9.57
10.200000000000045,54.68,9.61,25.0,-3.74,-0.45,-4.08,68.41,1010.6,9.32
10.300000000000068,49.97,11.46,23.580000000000013,-3.44,-0.83,-6.49,68.4,1010.62,9.11
10.400000000000091,45.55,14.26,22.659999999999997,-3.75,-0.08,-7.67,68.39,1010.66,8.91
10.5,41.77,17.259999999999998,21.920000000000016,-2.25,-0.21,-8.62,68.37,1010.67,8.649999999999999
10.600000000000023,38.38,20.130000000000003,20.370000000000005,-1.22,0.06,-9.35,68.37,1010.71,8.57
10.700000000000045,38.46,22.5,18.039999999999992,-2.34,0.41,-9.25,68.35,1010.7,8.599999999999998
10.800000000000068,35.8,24.15,16.060000000000002,-2.32,0.26,-7.07,68.35,1010.71,8.7
10.900000000000091,33.24,24.39,14.120000000000005,-0.95,1.28,-4.42,68.34,1010.68,8.93
11.0,30.66,23.93,11.599999999999994,-1.16,1.56,-2.14,68.33,1010.65,9.239999999999998
11.100000000000023,30.15,23.840000000000003,8.319999999999993,-1.34,1.34,-2.08,68.32,1010.61,9.43
11.200000000000045,31.57,23.590000000000003,5.780000000000001,-0.68,1.22,-0.86,68.32,1010.6,9.54
11.300000000000068,33.9,23.689999999999998,3.1899999999999977,-0.79,1.12,-1.4,68.31,1010.59,9.55
11.400000000000091,35.61,23.68,0.6899999999999977,-0.24,1.41,-2.01,68.3,1010.59,9.77
11.5,37.81,23.86,358.61,0.28,1.76,-1.13,68.3,1010.55,9.969999999999999
11.600000000000023,37.96,24.43,358.53999999999996,0.77,1.88,-1.61,68.29,1010.52,10.169999999999998
11.700000000000045,40.38,25.04,-0.9099999999999966,0.76,1.54,-2.65,68.28,1010.5,10.419999999999998
11.800000000000068,43.08,25.72,-0.1699999999999875,0.23,1.6,-2.21,68.27,1010.47,10.629999999999999
11.900000000000091,44.76,26.439999999999998,0.11000000000001364,0.5,1.61,-3.09,68.26,1010.45,10.829999999999998
12.0,44.97,27.259999999999998,0.950000000000017,0.61,1.95,-3.27,68.25,1010.42,11.11
12.100000000000023,44.9,27.89,2.1200000000000045,1.03,2.35,-2.24,68.24,1010.37,11.39
12.200000000000045,44.7,28.68,3.4000000000000057,0.41,2.51,-2.59,68.23,1010.35,11.629999999999999
12.300000000000068,44.45,29.54,4.289999999999992,0.03,2.59,-3.32,68.22,1010.31,12.030000000000001
12.400000000000091,43.92,30.18,6.360000000000014,-0.05,2.37,-2.06,68.21,1010.27,12.370000000000001
12.5,45.2,30.510000000000005,7.8799999999999955,-0.19,2.39,-1.73,68.2,1010.23,12.84
12.600000000000023,47.01,30.120000000000005,8.900000000000006,-0.25,2.08,-1.53,68.18,1010.16,13.21
12.700000000000045,48.2,28.990000000000002,9.599999999999994,-0.28,2.11,0.01,68.17,1010.13,13.489999999999998
12.800000000000068,49.19,27.910000000000004,10.550000000000011,-0.52,2.38,0.71,68.16,1010.1,13.86
12.900000000000091,49.93,26.660000000000004,11.789999999999992,-0.13,2.4,0.38,68.15,1010.05,14.280000000000001
13.0,50.39,25.189999999999998,13.009999999999991,-0.72,2.0,1.4,68.14,1009.99,14.739999999999998
13.100000000000023,50.3,23.700000000000003,14.259999999999991,-0.9,1.41,1.48,68.13,1009.95,15.030000000000001
13.200000000000045,50.55,22.35,14.960000000000008,-1.75,1.12,1.48,68.12,1009.92,15.439999999999998
13.300000000000068,50.41,20.619999999999997,16.810000000000002,-1.68,1.62,3.07,68.11,1009.87,15.61
13.400000000000091,50.66,19.29,18.25,-2.21,1.29,1.82,68.1,1009.84,15.919999999999998
13.5,50.82,18.07,19.78,-2.24,1.63,1.6,68.1,1009.8,16.27
13.600000000000023,51.23,17.049999999999997,20.370000000000005,-2.39,1.1,1.47,68.1,1009.78,16.36
13.700000000000045,51.71,17.240000000000002,21.379999999999995,-1.87,1.14,-0.12,68.09,1009.77,16.46
13.800000000000068,50.86,17.910000000000004,22.039999999999992,-1.98,1.68,-0.97,68.08,1009.75,16.71
13.900000000000091,49.51,18.619999999999997,22.55000000000001,-1.94,2.01,2.44,68.07,1009.73,16.7
14.0,48.22,19.64,22.680000000000007,-2.32,1.81,-2.01,68.06,1009.73,16.73
14.100000000000023,46.6,20.29,26.22999999999999,-3.43,2.02,-3.2,68.05,1009.73,16.62
14.200000000000045,45.26,21.259999999999998,27.409999999999997,-4.01,2.54,-3.61,68.04,1009.73,16.66
14.300000000000068,43.88,22.85,28.580000000000013,-3.05,2.82,-4.07,68.03,1009.75,16.64
14.400000000000091,42.28,24.42,29.02000000000001,-2.89,2.35,-4.47,68.02,1009.74,16.72
14.5,40.15,25.58,30.060000000000002,-3.19,2.56,-5.93,68.01,1009.74,16.63
14.600000000000023,37.54,26.450000000000003,31.430000000000007,-2.41,2.93,-5.13,68.0,1009.73,16.689999999999998
14.700000000000045,35.46,26.990000000000002,31.400000000000006,-2.57,2.62,-6.19,67.99,1009.74,16.78
14.800000000000068,33.55,26.590000000000003,31.75999999999999,-3.71,2.24,-5.0,67.98,1009.7,17.02
14.900000000000091,32.61,26.270000000000003,32.370000000000005,-3.52,2.59,-3.07,67.95,1009.69,17.05
15.0,31.78,24.54,31.830000000000013,-3.54,2.76,-3.63,67.94,1009.69,17.16
15.100000000000023,29.63,24.33,33.610000000000014,-4.21,2.6,-3.81,67.93,1009.67,17.38
15.200000000000045,28.15,23.700000000000003,34.18000000000001,-3.95,2.33,-2.49,67.92,1009.63,17.689999999999998
15.300000000000068,27.24,23.090000000000003,34.860000000000014,-3.89,1.89,-1.94,67.91,1009.59,17.91
15.400000000000091,26.57,22.64,35.28,-4.1,2.0,-1.73,67.9,1009.58,17.91
15.5,26.6,21.83,33.72999999999999,-3.85,2.28,-1.44,67.9,1009.57,18.11
15.600000000000023,25.84,20.880000000000003,32.55000000000001,-3.63,2.2,-1.7,67.9,1009.55,18.31
15.700000000000045,24.43,20.020000000000003,31.650000000000006,-3.82,1.6,-1.95,67.88,1009.53,18.509999999999998
15.800000000000068,22.73,19.21,31.22,-3.6,1.48,-2.79,67.87,1009.51,18.52
15.900000000000091,21.57,18.57,30.390000000000015,-4.1,1.62,-2.23,67.87,1009.5,18.669999999999998
16.0,20.88,17.619999999999997,27.439999999999998,-3.07,1.72,-2.33,67.86,1009.49,18.78
16.100000000000023,19.34,17.25,26.150000000000006,-3.34,1.27,-2.48,67.85,1009.49,18.68
16.200000000000045,17.74,16.67,24.77000000000001,-2.61,0.93,-2.14,67.84,1009.49,18.83
16.300000000000068,15.96,16.4,23.099999999999994,-2.98,1.08,-2.37,67.83,1009.49,18.81
16.40000000000009,14.5,16.15,21.25999999999999,-2.32,1.45,-3.1,67.82,1009.49,18.82
16.5,13.36,15.270000000000001,19.05000000000001,-1.66,1.59,-1.69,67.81,1009.46,19.099999999999998
16.600000000000023,11.9,15.28,16.700000000000017,-1.81,1.1,-3.69,67.79,1009.45,18.99
16.700000000000045,10.48,14.569999999999999,15.259999999999991,-2.37,1.04,-0.99,67.78,1009.45,19.099999999999998
16.800000000000068,9.25,14.65,14.75,-2.57,0.94,-2.2,67.77,1009.43,19.25
16.90000000000009,8.75,14.51,13.140000000000015,-1.73,1.58,-1.64,67.76,1009.43,19.24
17.0,8.62,14.590000000000002,12.009999999999991,-0.95,1.46,-0.28,67.75,1009.43,19.27
17.100000000000023,8.64,14.590000000000002,10.02000000000001,-0.05,1.18,-0.34,67.74,1009.41,19.5
17.200000000000045,8.41,14.33,7.77000000000001,-0.48,1.12,1.13,67.73,1009.38,19.67
17.300000000000068,8.25,14.700000000000001,6.950000000000017,-0.49,1.27,-0.15,67.73,1009.37,19.740000000000002
17.40000000000009,8.87,14.799999999999999,6.400000000000006,-0.93,1.32,-1.83,67.72,1009.37,19.85
17.5,8.98,15.08,6.189999999999998,-0.43,0.94,-2.16,67.71,1009.35,19.939999999999998
17.600000000000023,9.09,15.430000000000001,5.360000000000014,-0.25,0.59,-2.96,67.71,1009.35,20.019999999999996
17.700000000000045,8.92,15.67,4.8300000000000125,-0.14,1.42,-1.38,67.7,1009.33,20.130000000000003
17.800000000000068,8.4,15.450000000000001,5.300000000000011,-0.52,1.65,1.08,67.69,1009.3,20.43
17.90000000000009,8.29,15.28,6.920000000000016,-0.81,1.11,0.78,67.68,1009.27,20.689999999999998
18.0,8.71,15.049999999999999,6.75,-0.59,0.41,-0.49,67.68,1009.26,20.61
18.100000000000023,9.43,15.26,6.8799999999999955,-0.5,1.01,0.64,67.67,1009.26,20.759999999999998
18.200000000000045,9.95,15.38,8.280000000000001,-0.85,1.26,0.02,67.66,1009.24,20.769999999999996
18.300000000000068,10.29,15.660000000000002,9.120000000000005,-0.65,1.46,0.73,67.66,1009.23,20.950000000000003
18.40000000000009,9.92,15.639999999999999,11.009999999999991,-0.87,1.37,-0.63,67.65,1009.22,20.979999999999997
18.5,9.12,16.18,11.370000000000005,-1.38,1.14,-3.27,67.64,1009.2,21.15
18.600000000000023,8.34,16.509999999999998,12.580000000000013,-1.46,1.33,-1.81,67.64,1009.19,21.229999999999997
18.700000000000045,8.3,16.310000000000002,13.280000000000001,-1.64,2.01,0.72,67.64,1009.18,21.4
18.800000000000068,7.87,16.560000000000002,13.800000000000011,-1.15,2.03,-0.43,67.63,1009.16,21.490000000000002
18.90000000000009,7.2,16.92,14.22999999999999,-0.75,1.55,-1.33,67.63,1009.15,21.64
19.0,6.45,16.950000000000003,15.819999999999993,-1.76,1.29,-1.61,67.62,1009.13,21.729999999999997
19.100000000000023,5.71,17.14,17.47,-1.91,1.93,-0.16,67.61,1009.12,21.92
19.200000000000045,5.56,17.4,17.689999999999998,-1.88,1.95,-0.4,67.6,1009.09,22.17
19.300000000000068,5.31,17.910000000000004,18.960000000000008,-1.85,1.49,-2.03,67.59,1009.07,22.43
19.40000000000009,4.84,17.97,20.189999999999998,-2.35,1.79,-0.26,67.58,1009.05,22.43
19.5,3.81,18.240000000000002,21.900000000000006,-2.76,2.02,-1.03,67.58,1009.05,22.439999999999998
19.600000000000023,2.92,18.32,23.039999999999992,-2.14,2.15,-1.22,67.57,1009.02,22.509999999999998
19.700000000000045,1.88,18.08,24.22,-2.32,1.6,-0.29,67.56,1009.03,22.68
19.800000000000068,0.5,18.090000000000003,25.319999999999993,-2.96,1.57,-2.32,67.55,1009.01,22.759999999999998
19.90000000000009,359.05,18.28,25.960000000000008,-3.43,1.86,-4.72,67.54,1009.02,22.810000000000002
20.0,357.78,18.770000000000003,26.950000000000017,-3.53,2.33,-6.62,67.53,1009.0,22.92
20.100000000000023,357.11,20.009999999999998,27.159999999999997,-3.57,1.85,-7.81,67.52,1008.98,23.009999999999998
20.200000000000045,356.37,20.740000000000002,26.78,-2.82,1.47,-5.96,67.51,1008.96,23.25
20.300000000000068,354.63,21.090000000000003,27.310000000000002,-3.09,1.98,-3.81,67.5,1008.93,23.369999999999997
20.40000000000009,352.49,21.020000000000003,28.860000000000014,-3.09,2.0,-2.82,67.49,1008.92,23.65
20.5,350.73,20.47,29.430000000000007,-3.75,2.42,-3.08,67.49,1008.88,23.86
20.600000000000023,349.11,20.07,31.25,-3.74,2.26,-1.83,67.48,1008.85,24.159999999999997
20.700000000000045,347.98,19.39,32.80000000000001,-3.48,1.63,-1.66,67.47,1008.81,24.490000000000002
20.800000000000068,346.78,19.04,33.47999999999999,-4.21,1.61,-1.98,67.46,1008.79,24.82
20.90000000000009,345.84,18.490000000000002,34.27000000000001,-3.71,1.71,-1.32,67.45,1008.74,25.019999999999996
21.0,345.42,17.479999999999997,33.53999999999999,-3.85,1.86,-2.2,67.44,1008.71,25.32
21.100000000000023,344.28,17.0,34.420000000000016,-4.34,1.34,-3.13,67.43,1008.69,25.61
21.200000000000045,343.31,16.47,35.120000000000005,-4.13,0.97,-1.96,67.42,1008.66,25.79
21.300000000000068,342.24,15.979999999999999,35.46000000000001,-4.54,0.69,-2.38,67.42,1008.63,25.93
21.40000000000009,341.36,15.340000000000002,35.56,-4.61,0.98,-0.27,67.41,1008.62,26.119999999999997
21.5,340.71,14.590000000000002,34.58000000000001,-4.03,1.27,-0.67,67.41,1008.58,26.42
21.600000000000023,339.58,13.94,33.53,-3.48,1.13,-0.09,67.41,1008.55,26.689999999999998
21.700000000000045,337.8,13.49,33.19,-3.78,0.96,-1.77,67.4,1008.52,26.9
21.800000000000068,336.38,12.540000000000001,34.02000000000001,-3.54,0.59,-1.77,67.39,1008.5,26.97
21.90000000000009,334.83,11.76,34.81999999999999,-4.52,0.38,-1.44,67.38,1008.5,27.03
22.0,333.8,10.88,33.55000000000001,-3.7,0.4,-1.39,67.37,1008.49,27.14
22.100000000000023,332.74,10.3,32.49000000000001,-3.92,0.58,-1.4,67.36,1008.47,27.35
22.200000000000045,331.43,9.64,31.920000000000016,-3.76,0.67,-1.26,67.35,1008.46,27.54
22.300000000000068,330.13,8.96,31.289999999999992,-3.95,-0.14,-1.59,67.33,1008.42,27.65
22.40000000000009,327.65,9.370000000000001,32.03999999999999,-3.72,0.01,-4.32,67.32,1008.42,27.740000000000002
22.5,324.85,9.790000000000001,32.19,-3.87,0.81,-4.73,67.31,1008.4,27.740000000000002
22.600000000000023,321.61,10.11,32.19,-4.01,0.32,-4.8,67.31,1008.4,27.990000000000002
22.700000000000045,318.85,10.19,33.08000000000001,-4.35,0.48,-5.32,67.3,1008.37,28.089999999999996
22.800000000000068,316.87,10.35,33.09,-4.85,0.21,-3.9,67.3,1008.35,28.189999999999998
22.90000000000009,314.49,10.59,33.25,-4.43,0.39,-2.92,67.28,1008.33,28.369999999999997
23.0,312.92,10.6,33.50999999999999,-3.75,0.87,-2.74,67.27,1008.33,28.46
23.100000000000023,311.92,10.290000000000001,33.91,-4.08,0.59,-1.13,67.27,1008.31,28.68
23.200000000000045,310.51,10.51,34.640000000000015,-3.86,0.43,-4.16,67.26,1008.28,29.060000000000002
23.300000000000068,309.33,10.14,34.97,-4.73,0.33,-1.42,67.25,1008.25,29.22
23.40000000000009,306.87,10.01,36.140000000000015,-5.14,0.53,-1.16,67.25,1008.22,29.490000000000002
23.5,304.56,9.65,36.70000000000002,-4.71,1.02,-2.12,67.24,1008.19,29.700000000000003
23.600000000000023,302.55,9.540000000000001,35.53999999999999,-3.52,0.36,-0.57,67.24,1008.16,30.0
23.700000000000045,300.76,8.72,34.94,-4.05,0.08,-0.29,67.22,1008.15,30.04
23.800000000000068,298.12,7.779999999999999,35.34,-4.65,0.07,-0.77,67.21,1008.14,30.060000000000002
23.90000000000009,295.73,7.01,35.49000000000001,-4.94,0.48,-1.09,67.21,1008.14,30.089999999999996
24.0,294.74,6.41,35.860000000000014,-4.18,0.29,-0.72,67.2,1008.13,30.11
24.100000000000023,292.5,5.84,36.879999999999995,-4.86,-0.29,-0.26,67.2,1008.12,30.229999999999997
24.200000000000045,291.71,5.57,36.33000000000001,-4.39,-0.39,-0.91,67.19,1008.11,30.380000000000003
24.300000000000068,290.56,5.18,36.170000000000016,-4.37,0.13,-1.06,67.18,1008.1,30.42
24.40000000000009,289.57,5.210000000000001,32.52000000000001,-3.8,0.01,-1.09,67.17,1008.09,30.42
24.5,287.6,5.17,32.620000000000005,-3.6,-0.22,-2.41,67.16,1008.11,30.380000000000003
24.600000000000023,285.58,5.0,32.400000000000006,-3.77,-0.43,-4.14,67.15,1008.1,30.35
24.700000000000045,281.85,4.59,32.28999999999999,-4.29,-0.49,-3.22,67.15,1008.1,30.32
24.800000000000068,277.45,4.48,32.610000000000014,-4.04,0.22,-3.79,67.14,1008.1,30.269999999999996
24.90000000000009,272.67,4.620000000000001,33.31999999999999,-4.42,0.19,-4.0,67.13,1008.1,30.130000000000003
25.0,268.97,4.630000000000001,33.670000000000016,-4.54,-0.1,-3.26,67.12,1008.11,30.17
25.100000000000023,265.07,5.0600000000000005,34.03,-4.05,-0.57,-4.05,67.11,1008.12,30.119999999999997
25.200000000000045,262.31,5.790000000000001,33.620000000000005,-4.03,-0.02,-3.78,67.1,1008.11,30.35
25.300000000000068,260.23,6.4399999999999995,34.19,-4.08,0.43,-4.54,67.09,1008.11,30.240000000000002
25.40000000000009,258.15,6.870000000000001,34.47,-4.1,0.27,-5.71,67.08,1008.12,30.18
25.5,255.77,6.960000000000001,35.650000000000006,-4.86,0.22,-3.99,67.08,1008.12,30.240000000000002
25.600000000000023,253.46,7.1,36.47999999999999,-4.61,0.69,-4.3,67.07,1008.11,30.299999999999997
25.700000000000045,251.27,7.26,36.69,-4.58,0.82,-4.06,67.06,1008.1,30.42
25.800000000000068,249.02,7.390000000000001,37.02000000000001,-4.68,0.27,-3.88,67.06,1008.09,30.490000000000002
25.90000000000009,246.93,7.370000000000001,37.59,-4.38,0.34,-3.25,67.06,1008.08,30.519999999999996
26.0,245.0,7.300000000000001,38.06,-4.71,0.74,-4.18,67.05,1008.08,30.689999999999998
26.100000000000023,243.43,7.15,36.21000000000001,-4.34,0.88,-3.16,67.04,1008.05,30.86
26.200000000000045,239.33,6.779999999999999,35.890000000000015,-4.21,0.55,-2.3,67.03,1008.03,30.979999999999997
26.300000000000068,237.38,6.98,35.25,-4.18,0.22,-4.39,67.03,1008.01,31.049999999999997
26.40000000000009,235.64,7.109999999999999,33.58000000000001,-3.87,0.55,-3.38,67.02,1008.02,30.93
26.5,233.51,7.35,33.06,-3.98,0.93,-3.68,67.01,1008.03,30.939999999999998
26.600000000000023,231.01,7.880000000000001,33.43000000000001,-3.94,0.83,-3.98,67.0,1008.02,30.93
26.700000000000045,228.71,8.290000000000001,32.670000000000016,-4.4,0.35,-4.92,66.99,1008.01,31.04
26.800000000000068,226.39,8.82,33.620000000000005,-4.49,0.7,-5.24,66.99,1008.0,31.229999999999997
26.90000000000009,224.13,9.32,34.21000000000001,-3.68,1.32,-4.18,66.98,1007.99,31.310000000000002
27.0,221.33,9.9,34.099999999999994,-3.76,1.06,-2.11,66.98,1007.97,31.479999999999997
27.100000000000023,219.4,10.58,34.650000000000006,-4.18,0.56,-3.4,66.96,1007.96,31.509999999999998
27.200000000000045,217.91,11.24,34.66,-4.21,1.37,-2.76,66.96,1007.95,31.65
27.300000000000068,215.15,11.8,33.97999999999999,-4.34,1.58,-3.84,66.95,1007.95,31.659999999999997
27.40000000000009,212.44,12.39,34.83000000000001,-3.97,1.28,-5.55,66.95,1007.95,31.689999999999998
27.5,209.66,12.930000000000001,35.349999999999994,-4.7,1.07,-5.45,66.94,1007.94,31.810000000000002
27.600000000000023,207.09,13.42,35.47999999999999,-4.62,1.24,-4.87,66.92,1007.91,32.03
27.700000000000045,204.5,14.229999999999999,36.20000000000002,-4.77,1.89,-6.09,66.9,1007.88,32.089999999999996
27.800000000000068,201.93,15.49,36.420000000000016,-3.48,1.61,-7.31,66.9,1007.88,32.21
27.90000000000009,199.11,16.33,36.56999999999999,-4.23,1.01,-7.33,66.89,1007.88,32.24
28.0,194.84,16.759999999999998,36.620000000000005,-4.59,1.57,-6.72,66.89,1007.84,32.61
28.100000000000023,189.1,17.04,38.16,-4.71,2.08,-5.62,66.88,1007.82,32.69
28.200000000000045,184.58,17.369999999999997,38.52000000000001,-4.33,2.13,-5.49,66.87,1007.8,32.76
28.300000000000068,179.98,17.61,39.0,-4.43,2.07,-6.24,66.85,1007.8,32.93
28.40000000000009,175.4,17.590000000000003,40.379999999999995,-5.04,1.96,-6.49,66.84,1007.77,33.25
28.5,171.84,17.479999999999997,42.28,-4.81,2.15,-5.0,66.83,1007.73,33.6
28.600000000000023,168.38,17.490000000000002,44.25,-4.87,2.33,-4.17,66.82,1007.69,33.96
28.700000000000045,166.09,17.18,43.84,-5.02,1.74,-4.63,66.81,1007.66,34.11
28.800000000000068,163.8,16.36,45.05000000000001,-4.95,1.47,-1.97,66.8,1007.64,34.37
28.90000000000009,161.69,15.770000000000001,46.20000000000002,-4.83,1.64,-1.09,66.79,1007.6,34.62
29.0,158.52,15.410000000000002,48.59,-5.68,1.84,-4.53,66.79,1007.59,34.58
29.100000000000023,154.65,14.92,51.32000000000001,-5.43,2.05,-4.7,66.79,1007.59,34.75
29.200000000000045,151.45,14.62,52.620000000000005,-5.66,1.46,-6.13,66.77,1007.55,34.88
29.300000000000068,147.62,14.569999999999999,53.21000000000001,-5.38,0.84,-7.92,66.77,1007.56,34.94
29.40000000000009,143.96,13.680000000000001,55.290000000000006,-5.66,1.12,-5.67,66.77,1007.54,34.96
29.5,140.82,12.63,57.120000000000005,-6.56,1.16,-5.69,66.76,1007.54,35.03
29.600000000000023,139.39,10.68,58.480000000000004,-6.36,0.91,-1.74,66.75,1007.52,35.22
29.700000000000045,138.08,8.290000000000001,58.14,-6.28,0.63,-1.27,66.75,1007.51,35.17
29.800000000000068,136.57,6.109999999999999,56.33,-6.42,-0.29,-0.5,66.73,1007.52,35.28
29.90000000000009,135.67,3.87,55.790000000000006,-6.17,-0.35,-0.34,66.73,1007.51,35.28
30.0,134.09,1.7000000000000002,54.81,-5.73,-0.21,-0.76,66.72,1007.51,35.26
30.100000000000023,132.68,-0.6999999999999997,53.85000000000001,-6.13,-1.09,-0.77,66.71,1007.53,34.91
30.200000000000045,131.39,-3.0799999999999996,52.980000000000004,-6.55,-1.4,-0.8,66.7,1007.56,34.67
30.300000000000068,130.23,-4.88,52.75,-6.74,-1.63,-0.29,66.69,1007.59,34.37
30.40000000000009,129.55,-6.05,52.61,-6.71,-1.52,-2.7,66.68,1007.64,34.07
30.5,129.03,-7.369999999999999,50.81,-5.44,-1.58,-0.28,66.68,1007.67,33.79
30.600000000000023,128.72,-9.17,50.47,-6.09,-2.24,1.33,66.66,1007.7,33.57
30.700000000000045,127.65,-10.8,49.08000000000001,-6.0,-2.69,1.23,66.66,1007.74,33.08
30.800000000000068,126.48,-12.69,47.52000000000001,-5.8,-2.46,1.82,66.65,1007.8,32.65
30.90000000000009,125.52,-14.33,46.31999999999999,-5.36,-2.1,-2.25,66.65,1007.86,32.01
31.0,123.76,-15.36,44.28999999999999,-5.18,-2.5,-3.25,66.65,1007.93,31.369999999999997
31.100000000000023,120.61,-14.549999999999999,42.06,-4.94,-2.27,-9.5,66.64,1008.02,30.560000000000002
31.200000000000045,117.75,-14.2,41.96000000000001,-5.41,-1.53,-4.95,66.63,1008.11,29.950000000000003
31.300000000000068,113.86,-12.44,39.78,-5.91,-1.73,-12.84,66.63,1008.19,29.019999999999996
31.40000000000009,111.4,-10.78,38.370000000000005,-5.91,-0.92,-9.33,66.62,1008.29,28.339999999999996
31.5,110.55,-10.25,35.629999999999995,-4.78,-0.59,-7.28,66.61,1008.36,27.79
31.600000000000023,109.8,-10.03,33.21000000000001,-4.31,-0.31,-5.51,66.61,1008.42,27.409999999999997
31.700000000000045,109.17,-10.0,32.099999999999994,-3.29,-1.24,-4.96,66.6,1008.5,26.89
31.800000000000068,108.23,-11.24,31.25,-3.71,-0.39,0.11,66.59,1008.54,26.509999999999998
31.90000000000009,106.73,-11.9,30.72,-4.11,-1.0,1.03,66.59,1008.58,26.049999999999997
32.0,105.3,-12.59,30.890000000000015,-3.74,-1.98,-0.49,66.57,1008.63,25.64
32.10000000000002,105.17,-13.14,31.560000000000002,-3.24,-1.98,-1.15,66.56,1008.68,25.200000000000003
32.200000000000045,104.69,-12.94,31.430000000000007,-2.61,-2.02,-0.82,66.55,1008.74,24.79
32.30000000000007,104.37,-13.34,31.409999999999997,-2.91,-1.53,-0.74,66.54,1008.79,24.310000000000002
32.40000000000009,103.77,-14.41,29.390000000000015,-2.66,-1.89,2.21,66.53,1008.84,23.880000000000003
32.5,102.2,-14.959999999999999,24.680000000000007,-2.34,-1.8,0.92,66.52,1008.91,23.22
32.60000000000002,101.76,-15.81,21.099999999999994,-2.85,-2.27,-1.39,66.51,1008.98,22.619999999999997
32.700000000000045,100.98,-16.53,16.140000000000015,-2.12,-2.06,-0.48,66.49,1009.04,22.200000000000003
32.80000000000007,99.97,-16.53,11.909999999999997,-0.85,-2.13,-3.75,66.48,1009.11,21.729999999999997
32.90000000000009,99.9,-17.95,7.689999999999998,-0.97,-2.52,8.26,66.46,1009.16,21.200000000000003
33.0,99.53,-17.619999999999997,6.22999999999999,0.71,-2.37,3.82,66.45,1009.23,20.64
33.10000000000002,99.76,-17.869999999999997,4.909999999999997,1.13,-2.01,0.28,66.45,1009.29,20.11
33.200000000000045,100.0,-18.48,4.819999999999993,0.89,-2.05,6.47,66.44,1009.37,19.47
33.30000000000007,100.21,-17.4,3.5900000000000034,0.41,-0.96,-1.36,66.44,1009.43,18.759999999999998
33.40000000000009,99.59,-17.32,0.5200000000000102,-0.36,-1.34,-3.39,66.42,1009.52,18.08
33.5,99.62,-18.29,357.22,2.43,-1.42,4.94,66.41,1009.6,17.23
33.60000000000002,99.3,-17.34,354.70000000000005,0.15,-1.06,-3.01,66.4,1009.71,16.439999999999998
33.700000000000045,99.69,-16.73,352.64,0.33,-1.47,-9.77,66.39,1009.8,15.66
33.80000000000007,100.3,-16.740000000000002,351.35,2.89,-1.4,-0.63,66.38,1009.91,14.620000000000001
33.90000000000009,100.8,-13.81,347.63,3.18,-0.89,-10.65,66.38,1010.03,13.849999999999998
34.0,101.25,-10.57,346.15999999999997,2.89,-0.69,-20.05,66.37,1010.1,13.379999999999999
34.10000000000002,101.48,-9.85,343.96000000000004,2.1,0.21,-6.7,66.36,1010.16,12.780000000000001
34.200000000000045,103.54,-8.17,342.73,2.8,0.22,-2.07,66.35,1010.25,12.189999999999998
34.30000000000007,105.66,-6.539999999999999,342.13,3.64,0.23,-10.8,66.34,1010.28,11.91
34.40000000000009,106.69,-7.46,343.82,2.92,0.31,1.47,66.34,1010.32,11.55
34.5,107.81,-8.219999999999999,345.21000000000004,3.58,0.74,1.74,66.34,1010.37,11.2
34.60000000000002,109.11,-7.31,346.65,2.35,0.53,-3.7,66.33,1010.4,11.059999999999999
34.700000000000045,109.99,-7.68,347.07,2.37,0.76,-8.57,66.33,1010.43,10.809999999999999
34.80000000000007,110.86,-8.73,349.86,3.27,-0.27,7.83,66.32,1010.44,10.419999999999998
34.90000000000009,111.83,-7.47,351.58000000000004,1.32,0.26,-2.91,66.31,1010.5,10.25
35.0,112.79,-7.89,353.57,0.64,0.08,-1.22,66.31,1010.52,9.969999999999999
35.10000000000002,113.9,-9.05,354.97,1.64,-0.24,7.77,66.3,1010.54,9.89
35.200000000000045,114.82,-8.25,356.49,2.7,0.64,1.93,66.29,1010.56,9.629999999999999
35.30000000000007,115.31,-7.63,-0.549999999999983,0.53,0.99,-7.52,66.28,1010.58,9.39
35.40000000000009,115.7,-8.559999999999999,4.150000000000006,1.61,0.38,5.26,66.27,1010.62,9.05
35.5,116.01,-7.79,7.090000000000003,1.21,0.41,7.43,66.26,1010.65,8.84
35.60000000000002,115.89,-6.59,10.620000000000005,-1.11,0.96,-3.92,66.25,1010.69,8.54
35.700000000000045,115.58,-6.029999999999999,15.409999999999997,1.73,0.86,-6.6,66.25,1010.73,8.059999999999999
35.80000000000007,114.46,-2.82,17.080000000000013,0.14,1.74,-9.28,66.23,1010.79,7.609999999999999
35.90000000000009,112.62,1.5099999999999998,19.039999999999992,-1.52,0.8,-23.68,66.22,1010.84,7.349999999999998
36.0,111.22,3.9700000000000006,21.069999999999993,-2.44,1.84,-6.48,66.22,1010.86,7.120000000000001
36.10000000000002,110.59,6.24,25.099999999999994,-1.72,2.72,-6.83,66.22,1010.89,6.949999999999999
36.200000000000045,108.2,10.040000000000001,31.200000000000017,-3.2,2.58,-14.46,66.22,1010.9,7.0
36.30000000000007,106.73,12.9,36.94,-2.89,3.09,-14.25,66.22,1010.89,7.210000000000001
36.40000000000009,105.08,14.37,41.56,-1.72,3.33,-2.71,66.21,1010.85,7.439999999999998
36.5,101.06,16.35,48.170000000000016,-3.02,3.22,-12.67,66.2,1010.83,7.73
36.60000000000002,97.33,17.200000000000003,53.06,-4.48,2.64,-17.27,66.2,1010.79,8.030000000000001
36.700000000000045,93.71,18.18,58.35000000000001,-4.66,3.17,-10.4,66.19,1010.76,8.280000000000001
36.80000000000007,88.44,19.740000000000002,63.09,-4.78,3.37,-16.98,66.18,1010.72,8.55
36.90000000000009,83.09,20.840000000000003,64.97,-4.78,3.82,-24.93,66.17,1010.69,9.09
37.0,78.79,20.92,65.58,-5.56,4.47,-10.03,66.16,1010.61,9.64
37.10000000000002,72.77,20.310000000000002,67.37,-5.65,5.07,-17.26,66.16,1010.53,10.280000000000001
37.200000000000045,66.54,19.840000000000003,71.12,-7.94,4.81,-20.95,66.15,1010.48,10.759999999999998
37.30000000000007,61.62,19.97,74.69,-6.65,4.96,-14.77,66.15,1010.41,11.34
37.40000000000009,55.53,20.89,75.33,-6.43,3.74,-22.63,66.15,1010.34,11.89
37.5,50.92,20.630000000000003,76.36,-5.63,4.11,-14.68,66.14,1010.26,12.579999999999998
37.60000000000002,45.77,19.840000000000003,77.3,-8.18,4.43,-14.21,66.13,1010.2,13.030000000000001
37.700000000000045,40.77,18.560000000000002,78.29,-7.25,3.84,-13.03,66.13,1010.15,13.29
37.80000000000007,35.22,17.450000000000003,79.47,-7.6,3.65,-14.58,66.12,1010.12,13.64
37.90000000000009,30.64,16.200000000000003,80.35000000000001,-7.95,3.56,-13.65,66.12,1010.08,13.95
38.0,26.02,14.959999999999999,81.2,-8.4,2.9,-14.99,66.12,1010.04,14.45
38.10000000000002,22.69,13.06,81.41,-7.05,2.36,-11.55,66.12,1009.99,14.79
38.200000000000045,20.18,10.53,80.60000000000001,-8.3,1.82,-6.85,66.12,1009.94,15.079999999999998
38.30000000000007,17.72,7.74,78.66,-7.7,1.45,-5.77,66.11,1009.9,15.280000000000001
38.40000000000009,14.86,4.92,76.95,-8.22,1.18,-9.08,66.11,1009.89,15.419999999999998
38.5,12.53,1.9400000000000004,73.95,-8.07,0.23,-6.64,66.1,1009.88,15.66
38.60000000000002,9.66,-0.5499999999999998,72.24000000000001,-7.89,0.03,-8.83,66.1,1009.85,15.57
38.700000000000045,6.89,-3.0599999999999996,69.62,-7.7,-0.87,-5.54,66.09,1009.87,15.57
38.80000000000007,3.47,-5.39,66.12,-7.62,-0.69,-6.53,66.09,1009.87,15.43
38.90000000000009,359.08,-7.33,61.35000000000001,-6.28,-1.13,-7.36,66.08,1009.9,15.259999999999998
39.0,354.0,-8.379999999999999,54.11,-6.47,-1.32,-9.51,66.07,1009.91,15.07
39.10000000000002,348.86,-8.91,49.25,-6.99,-1.85,-12.98,66.07,1009.96,14.629999999999999
39.200000000000045,342.98,-8.899999999999999,44.96000000000001,-5.25,-2.35,-15.64,66.06,1009.99,14.280000000000001
39.30000000000007,337.55,-8.219999999999999,40.41,-4.88,-2.84,-14.71,66.06,1010.03,14.030000000000001
39.40000000000009,332.68,-6.63,35.610000000000014,-5.96,-2.54,-14.35,66.05,1010.06,13.86
39.5,328.58,-4.58,30.379999999999995,-5.82,-1.59,-10.53,66.04,1010.07,13.79
39.60000000000002,325.59,-1.2799999999999998,22.30000000000001,-3.13,-1.74,-16.8,66.03,1010.08,13.77
39.700000000000045,323.38,1.0,17.52000000000001,-2.83,-0.86,-9.22,66.02,1010.08,13.84
39.80000000000007,321.11,2.6400000000000006,13.009999999999991,-1.79,-0.99,-8.91,66.02,1010.07,14.120000000000001
39.90000000000009,319.64,1.63,9.069999999999993,-2.41,0.14,-2.61,66.01,1010.02,14.599999999999998
40.0,318.69,1.8600000000000003,6.75,-2.12,-0.4,2.5,66.0,1009.96,15.04
40.10000000000002,319.28,0.5300000000000002,4.22999999999999,-0.59,-0.7,5.27,65.99,1009.9,15.5
40.200000000000045,320.17,-0.05999999999999961,1.4699999999999989,0.03,-0.75,4.98,65.98,1009.85,15.86
40.30000000000007,320.65,-1.0199999999999996,-0.19999999999998863,0.42,-1.43,4.8,65.97,1009.81,16.169999999999998
40.40000000000009,322.45,-1.6999999999999997,357.28,0.44,-1.2,2.61,65.97,1009.79,16.47
40.5,322.45,-2.92,353.89,0.75,-1.25,5.06,65.96,1009.75,16.55
40.60000000000002,322.5,-3.9099999999999997,350.69,0.89,-1.6,4.45,65.96,1009.74,16.78
40.700000000000045,323.07,-5.26,346.48,1.78,-2.01,3.75,65.95,1009.7,16.86
40.80000000000007,324.27,-6.34,341.3,3.58,-1.68,1.86,65.94,1009.72,16.939999999999998
40.90000000000009,325.03,-7.3,335.84000000000003,4.87,-2.06,-0.77,65.93,1009.7,16.96
41.0,326.29,-8.08,329.8,4.67,-2.57,0.55,65.92,1009.7,16.99
41.10000000000002,327.66,-8.469999999999999,324.62,4.97,-2.04,-0.16,65.91,1009.69,16.95
41.200000000000045,328.31,-9.25,319.08000000000004,5.34,-2.34,2.23,65.9,1009.7,17.15
41.30000000000007,329.82,-10.94,315.45000000000005,5.72,-2.66,3.59,65.89,1009.65,17.48
41.40000000000009,332.36,-12.81,312.25,6.11,-2.69,-0.45,65.88,1009.64,17.32
41.5,336.05,-14.74,309.19,6.24,-2.8,-1.67,65.87,1009.66,17.099999999999998
41.60000000000002,340.03,-15.14,307.18,6.21,-3.39,-6.14,65.87,1009.7,16.59
41.700000000000045,345.6,-14.74,305.13,7.02,-2.82,-11.84,65.86,1009.77,16.18
41.80000000000007,349.93,-14.07,305.21000000000004,6.6,-2.95,-11.2,65.85,1009.79,15.95
41.90000000000009,356.68,-11.95,308.1,6.05,-2.78,-16.46,65.84,1009.84,15.489999999999998
42.0,4.8,-8.54,309.86,4.99,-2.81,-23.37,65.83,1009.91,14.89
42.10000000000002,14.85,-3.7399999999999998,310.81,5.52,-3.29,-25.58,65.82,1009.97,14.509999999999998
42.200000000000045,23.99,0.3700000000000001,310.21000000000004,6.58,-2.55,-27.36,65.81,1010.02,14.219999999999999
42.30000000000007,32.6,3.74,308.26,7.94,-1.78,-26.12,65.8,1010.04,14.259999999999998
42.40000000000009,41.28,6.83,306.94,7.52,-2.71,-28.43,65.8,1010.02,14.45
42.5,47.15,7.98,306.03,6.9,-0.23,-16.75,65.8,1009.99,14.79
42.60000000000002,50.06,7.890000000000001,305.1,8.41,0.25,-10.49,65.8,1009.94,15.349999999999998
42.700000000000045,52.15,7.84,302.29,8.11,0.12,-6.38,65.8,1009.86,15.969999999999999
42.80000000000007,53.51,7.57,298.5,7.35,0.57,-2.88,65.79,1009.77,16.64
42.90000000000009,54.59,6.77,294.02,7.68,0.62,-1.47,65.79,1009.71,17.28
43.0,55.22,4.640000000000001,290.52,7.34,-0.21,-0.05,65.79,1009.63,17.73
43.10000000000002,56.2,0.96,294.33,8.31,-0.78,2.15,65.79,1009.59,17.99
43.200000000000045,59.0,-2.6199999999999997,297.75,8.51,-1.08,0.23,65.79,1009.57,18.05
43.30000000000007,62.98,-5.21,304.15999999999997,8.1,-1.64,-1.88,65.79,1009.6,17.689999999999998
43.40000000000009,68.63,-5.64,314.14,7.26,-2.01,-7.02,65.78,1009.62,17.419999999999998
43.5,74.87,-5.72,324.37,6.91,-1.85,-7.22,65.77,1009.65,17.37
43.60000000000002,80.98,-4.38,331.97,6.55,-2.32,-8.5,65.76,1009.66,17.27
43.700000000000045,85.7,-1.42,339.45000000000005,5.4,-1.74,-8.69,65.75,1009.66,17.259999999999998
43.80000000000007,89.2,3.66,347.05,3.89,-0.74,-11.58,65.75,1009.67,17.169999999999998
43.90000000000009,92.04,10.290000000000001,353.95000000000005,2.87,-0.83,-13.18,65.74,1009.67,17.18
44.0,94.6,17.299999999999997,-0.799999999999983,2.62,0.15,-13.41,65.73,1009.68,17.189999999999998
44.10000000000002,96.53,23.810000000000002,5.300000000000011,1.13,1.32,-11.92,65.72,1009.66,17.509999999999998
44.200000000000045,96.93,30.11,12.060000000000002,2.31,2.38,-11.32,65.72,1009.6,17.95
44.30000000000007,95.57,35.54,18.620000000000005,1.79,2.42,-12.47,65.71,1009.55,18.5
44.40000000000009,92.78,39.02,23.77000000000001,-0.16,3.0,-10.57,65.7,1009.49,19.03
44.5,89.01,40.03,27.27000000000001,-0.21,3.61,-6.55,65.69,1009.42,19.6
44.60000000000002,82.49,42.59,33.78999999999999,-2.13,3.98,-8.47,65.69,1009.36,20.18
44.700000000000045,75.89,44.96,43.5,-2.11,3.54,-8.84,65.68,1009.27,21.049999999999997
44.80000000000007,73.71,44.38,50.93000000000001,-2.25,4.18,-3.03,65.67,1009.16,21.9
44.90000000000009,71.35,43.440000000000005,57.97,-3.02,3.95,-1.86,65.66,1009.05,22.82
45.0,69.1,41.620000000000005,65.42,-3.87,3.83,-0.5,65.66,1008.95,23.58
45.10000000000002,65.81,39.45,71.15,-4.52,3.62,-2.1,65.66,1008.87,24.28
45.200000000000045,63.05,36.71,71.60000000000001,-5.1,3.22,-3.82,65.65,1008.79,24.89
45.30000000000007,60.63,33.440000000000005,72.62,-5.65,2.47,-3.45,65.64,1008.72,25.560000000000002
45.40000000000009,57.92,30.07,73.57000000000001,-6.06,1.88,-2.88,65.63,1008.64,25.96
45.5,54.21,27.020000000000003,74.55,-6.61,1.42,-4.04,65.62,1008.6,26.380000000000003
45.60000000000002,49.85,24.410000000000004,75.37,-6.79,0.82,-5.19,65.61,1008.55,26.799999999999997
45.700000000000045,46.5,21.78,75.52000000000001,-7.2,1.06,-4.51,65.6,1008.49,27.21
45.80000000000007,44.08,19.549999999999997,74.15,-7.11,0.79,-3.68,65.58,1008.46,27.36
45.90000000000009,41.88,16.68,72.68,-7.25,0.49,-3.18,65.58,1008.45,27.64
46.0,39.72,13.65,71.22,-7.23,-0.5,-4.15,65.57,1008.4,27.92
46.10000000000002,38.38,10.67,68.61,-7.24,-1.11,-3.5,65.56,1008.39,28.049999999999997
46.200000000000045,36.58,6.890000000000001,66.56,-6.75,-1.56,-3.26,65.55,1008.36,28.229999999999997
46.30000000000007,35.69,3.1100000000000003,64.0,-7.26,-1.92,-0.79,65.54,1008.35,28.22
46.40000000000009,34.55,-1.25,60.84,-6.76,-2.21,-0.29,65.54,1008.34,28.35
46.5,33.01,-5.3999999999999995,57.540000000000006,-6.78,-2.99,-0.86,65.53,1008.34,28.21
46.60000000000002,32.21,-9.29,54.13000000000001,-6.64,-3.73,-0.27,65.52,1008.36,28.089999999999996
46.700000000000045,31.17,-12.68,50.41,-6.68,-4.32,-0.36,65.52,1008.36,28.009999999999998
46.80000000000007,30.14,-15.51,47.400000000000006,-6.02,-4.19,0.62,65.5,1008.38,27.769999999999996
46.90000000000009,29.24,-18.04,43.96000000000001,-5.57,-4.33,1.17,65.49,1008.43,27.42
47.0,28.66,-19.839999999999996,40.74000000000001,-5.03,-5.37,0.49,65.49,1008.48,26.86
47.10000000000002,27.56,-21.189999999999998,37.96000000000001,-5.05,-5.38,-0.58,65.48,1008.54,26.43
47.200000000000045,25.57,-21.11,34.55000000000001,-4.7,-5.31,-4.7,65.48,1008.6,25.83
47.30000000000007,23.12,-20.799999999999997,32.599999999999994,-4.62,-5.7,-6.41,65.48,1008.68,25.15
47.40000000000009,21.07,-20.299999999999997,30.74000000000001,-4.11,-4.98,-3.22,65.47,1008.76,24.32
47.5,18.71,-18.509999999999998,30.110000000000014,-3.64,-4.98,-8.04,65.46,1008.85,23.700000000000003
47.60000000000002,16.01,-15.049999999999999,29.849999999999994,-3.79,-4.32,-9.28,65.46,1008.94,23.04
47.700000000000045,12.68,-9.77,28.849999999999994,-3.83,-3.79,-17.4,65.45,1009.01,22.35
47.80000000000007,9.68,-5.01,28.28,-3.61,-3.45,-18.6,65.44,1009.08,21.89
47.90000000000009,6.87,-1.17,27.620000000000005,-3.46,-1.84,-15.35,65.43,1009.12,21.57
48.0,3.98,1.6400000000000006,26.5,-4.02,-1.29,-12.3,65.42,1009.15,21.659999999999997
48.10000000000002,2.37,2.5600000000000005,25.99000000000001,-2.86,-1.26,-8.5,65.41,1009.14,21.68
48.200000000000045,1.05,3.29,24.939999999999998,-2.12,0.0,-7.28,65.41,1009.12,22.009999999999998
48.30000000000007,0.18,-1.0699999999999998,13.700000000000017,-1.73,0.65,5.16,65.4,1009.06,22.53
48.40000000000009,356.58,-0.8599999999999999,8.370000000000005,-1.75,0.04,-3.99,65.4,1009.03,22.729999999999997
48.5,355.23,-1.6599999999999997,11.259999999999991,-3.01,-0.96,2.05,65.4,1009.0,22.869999999999997
48.60000000000002,355.94,-0.8799999999999999,12.180000000000007,-2.31,-1.57,-0.99,65.4,1008.99,22.880000000000003
48.700000000000045,357.32,0.10000000000000009,13.450000000000017,-1.26,-1.0,-1.27,65.4,1008.97,22.950000000000003
48.80000000000007,357.5,3.17,14.620000000000005,-1.25,-0.87,-6.1,65.39,1008.98,23.049999999999997
48.90000000000009,356.91,6.620000000000001,16.620000000000005,-0.92,-0.76,-10.34,65.38,1008.97,23.03
49.0,356.33,9.32,18.360000000000014,-1.37,0.28,-7.88,65.37,1008.96,23.259999999999998
49.10000000000002,355.69,11.620000000000001,20.080000000000013,-1.96,0.19,-7.12,65.37,1008.91,23.630000000000003
49.200000000000045,354.9,13.889999999999999,22.349999999999994,-2.46,0.73,-8.09,65.36,1008.89,23.909999999999997
49.30000000000007,353.26,15.85,26.170000000000016,-2.35,0.84,-7.74,65.36,1008.84,24.509999999999998
49.40000000000009,352.01,16.729999999999997,28.450000000000017,-2.55,0.7,-5.34,65.35,1008.77,25.119999999999997
49.5,351.03,16.410000000000004,29.0,-1.4,1.25,-3.1,65.35,1008.68,25.810000000000002
49.60000000000002,350.31,13.62,28.00999999999999,-2.64,1.07,3.58,65.34,1008.61,26.4
49.700000000000045,348.04,12.930000000000001,29.370000000000005,-2.74,0.57,1.13,65.34,1008.54,26.869999999999997
49.80000000000007,346.61,11.68,29.840000000000003,-3.07,-0.02,-1.18,65.33,1008.47,27.47
49.90000000000009,345.46,10.370000000000001,31.05000000000001,-3.38,0.21,1.13,65.32,1008.39,28.189999999999998
50.0,344.45,9.83,31.700000000000017,-4.24,0.0,-0.45,65.32,1008.33,28.65
50.10000000000002,343.89,8.69,32.53,-4.1,-0.16,1.57,65.31,1008.3,28.990000000000002
50.200000000000045,344.33,6.77,30.72999999999999,-3.66,0.38,3.58,65.31,1008.23,29.57
50.30000000000007,344.62,2.55,18.02000000000001,-2.43,0.94,7.45,65.3,1008.16,30.009999999999998
50.40000000000009,342.02,1.8600000000000003,13.849999999999994,-1.78,-0.16,2.44,65.29,1008.11,30.43
50.5,340.34,1.0099999999999998,13.180000000000007,-1.55,-0.5,-0.81,65.29,1008.07,30.740000000000002
50.60000000000002,339.72,-0.25,9.469999999999999,-1.36,-0.56,3.09,65.28,1008.02,30.97
50.700000000000045,339.54,-0.2599999999999998,10.939999999999998,-0.76,-1.47,1.68,65.27,1008.0,31.269999999999996
50.80000000000007,339.75,-0.8899999999999997,12.780000000000001,-0.84,-1.86,3.01,65.26,1007.98,31.46
50.90000000000009,339.68,-1.1999999999999997,14.129999999999995,-1.48,-2.26,3.75,65.26,1007.96,31.619999999999997
51.0,339.53,-1.8899999999999997,14.629999999999995,-0.93,-2.22,2.19,65.25,1007.94,31.82
51.10000000000002,339.03,-2.32,15.310000000000002,-1.76,-1.78,0.66,65.25,1007.93,31.869999999999997
51.200000000000045,339.08,-2.8899999999999997,16.03,-2.0,-2.04,1.1,65.24,1007.91,31.78
51.30000000000007,339.05,-3.2899999999999996,16.47999999999999,-1.17,-1.69,2.45,65.23,1007.92,31.769999999999996
51.40000000000009,339.23,-3.5599999999999996,17.539999999999992,-2.67,-2.04,0.38,65.23,1007.93,31.880000000000003
51.5,339.19,-3.5,17.840000000000003,-1.34,-1.5,-0.47,65.22,1007.91,31.93
51.60000000000002,338.84,-3.78,17.72,-1.72,-1.91,-0.33,65.22,1007.92,31.880000000000003
51.700000000000045,337.98,-3.6799999999999997,17.200000000000017,-1.36,-1.56,-0.43,65.21,1007.9,31.96
51.80000000000007,336.84,-4.21,17.80000000000001,-1.85,-1.53,-0.84,65.2,1007.9,31.979999999999997
51.90000000000009,335.93,-4.58,19.200000000000017,-1.86,-1.81,-0.42,65.19,1007.91,31.950000000000003
52.0,335.29,-4.859999999999999,19.210000000000008,-1.69,-1.44,0.99,65.18,1007.9,32.01
52.10000000000002,334.57,-5.13,19.379999999999995,-2.03,-1.62,1.43,65.17,1007.9,31.92
52.200000000000045,333.78,-5.34,19.97,-2.11,-1.66,1.28,65.16,1007.9,31.909999999999997
52.30000000000007,333.01,-5.109999999999999,20.110000000000014,-1.05,-1.02,-1.36,65.15,1007.91,31.93
52.40000000000009,331.27,-3.9499999999999997,21.05000000000001,-2.43,-0.81,-4.1,65.15,1007.93,31.869999999999997
52.5,329.5,-2.8299999999999996,22.400000000000006,-2.95,-1.14,-2.86,65.14,1007.92,31.85
52.60000000000002,328.29,-1.8399999999999999,23.189999999999998,-2.93,-0.18,-3.46,65.13,1007.91,31.9
52.700000000000045,327.82,-1.5,23.590000000000003,-2.36,-0.47,-0.28,65.13,1007.92,31.689999999999998
52.80000000000007,326.75,-0.2999999999999998,23.789999999999992,-1.67,-0.86,-4.82,65.13,1007.94,31.68
52.90000000000009,325.26,-0.20999999999999996,23.25,-2.05,-0.19,-3.4,65.12,1007.95,31.549999999999997
53.0,323.05,-0.13999999999999968,23.75,-2.67,-0.22,-3.04,65.12,1007.94,31.64
53.10000000000002,321.28,0.29000000000000004,23.24000000000001,-2.32,-0.67,-5.85,65.12,1007.93,31.67
53.200000000000045,320.16,0.03000000000000025,23.819999999999993,-2.69,-0.31,-2.28,65.11,1007.93,31.759999999999998
53.30000000000007,319.0,0.16000000000000014,24.120000000000005,-2.43,0.08,-1.11,65.1,1007.92,31.950000000000003
53.40000000000009,318.35,-0.4299999999999997,24.849999999999994,-3.95,-0.35,0.59,65.1,1007.89,32.13
53.5,317.92,-0.41999999999999993,25.72,-2.81,-0.62,-0.6,65.08,1007.86,32.33
53.60000000000002,317.71,-0.71,25.340000000000003,-2.08,-0.2,0.33,65.07,1007.84,32.65
53.700000000000045,316.66,-0.8699999999999997,25.930000000000007,-2.53,-0.25,-0.23,65.07,1007.82,32.64
53.80000000000007,315.71,-1.7099999999999997,26.80000000000001,-2.4,-0.7,1.78,65.06,1007.83,32.5
53.90000000000009,313.81,-1.9199999999999997,27.72,-2.66,-0.43,-2.73,65.06,1007.83,32.64
54.0,311.86,-2.5,29.0,-3.45,-0.1,-3.8,65.05,1007.83,32.61
54.10000000000002,310.49,-2.6199999999999997,29.420000000000016,-3.08,0.47,-0.42,65.05,1007.83,32.57
54.200000000000045,309.38,-2.67,29.080000000000013,-3.05,0.3,1.69,65.04,1007.82,32.82
54.30000000000007,308.78,-3.2699999999999996,28.430000000000007,-2.73,0.46,0.78,65.04,1007.8,32.74
54.40000000000009,306.73,-3.6199999999999997,27.47,-3.07,0.07,-1.55,65.03,1007.81,32.66
54.5,304.23,-3.8099999999999996,27.210000000000008,-2.16,0.1,-2.45,65.02,1007.81,32.62
54.60000000000002,301.64,-4.74,26.47,-3.17,0.18,2.15,65.01,1007.82,32.66
54.700000000000045,299.76,-5.199999999999999,26.97,-3.68,-0.26,3.32,65.01,1007.82,32.5
54.80000000000007,298.12,-5.32,27.099999999999994,-3.08,-0.69,2.53,65.01,1007.83,32.5
54.90000000000009,296.78,-5.22,27.090000000000003,-2.86,-0.16,-2.88,65.01,1007.85,32.43
55.0,294.76,-4.7299999999999995,26.129999999999995,-3.01,0.15,-4.08,65.0,1007.86,32.14
55.10000000000002,292.86,-3.3499999999999996,24.920000000000016,-2.23,-0.25,-10.0,65.0,1007.91,31.799999999999997
55.200000000000045,290.72,-2.7199999999999998,23.430000000000007,-2.27,0.52,-5.05,64.99,1007.92,31.82
55.30000000000007,287.78,-1.42,22.810000000000002,-2.93,0.26,-9.31,64.99,1007.93,31.729999999999997
55.40000000000009,285.22,-1.1399999999999997,22.310000000000002,-3.43,0.38,-6.42,64.99,1007.94,31.64
55.5,283.35,0.43000000000000016,22.0,-2.21,0.97,-5.96,64.99,1007.95,31.700000000000003
55.60000000000002,282.42,1.8200000000000003,20.890000000000015,-2.17,1.2,-6.99,64.98,1007.93,31.85
55.700000000000045,281.62,2.2,20.039999999999992,-1.84,0.72,-1.49,64.98,1007.91,31.85
55.80000000000007,279.93,2.4000000000000004,19.099999999999994,-3.38,1.1,-4.41,64.98,1007.9,31.97
55.90000000000009,278.49,1.4700000000000006,18.99000000000001,-2.16,0.55,-0.56,64.97,1007.88,32.16
56.0,276.79,1.3100000000000005,19.22,-1.54,0.71,0.39,64.97,1007.87,32.339999999999996
56.10000000000002,275.67,0.7700000000000005,19.75,-2.34,0.86,0.32,64.96,1007.83,32.7
56.200000000000045,275.21,0.54,20.97,-2.93,0.44,-1.12,64.95,1007.8,33.0
56.30000000000007,274.53,0.5499999999999998,22.060000000000002,-2.61,0.9,-1.72,64.94,1007.78,33.16
56.40000000000009,274.16,0.26000000000000023,21.789999999999992,-2.0,0.85,-0.54,64.94,1007.74,33.36
56.5,273.16,-0.10999999999999988,21.830000000000013,-2.74,-0.19,0.06,64.93,1007.72,33.5
56.60000000000002,271.85,-0.5999999999999996,22.450000000000017,-2.96,0.61,1.7,64.92,1007.71,33.65
56.700000000000045,270.99,-1.2699999999999996,22.75,-3.07,0.06,2.3,64.92,1007.69,33.82
56.80000000000007,270.47,-1.3699999999999997,23.939999999999998,-3.71,0.13,2.09,64.91,1007.67,34.06
56.90000000000009,270.33,-1.5899999999999999,25.360000000000014,-2.86,0.18,2.34,64.91,1007.65,34.089999999999996
57.0,270.85,-1.6399999999999997,25.590000000000003,-3.1,-0.17,1.12,64.91,1007.64,34.12
57.10000000000002,270.14,-1.6899999999999997,25.460000000000008,-2.46,0.11,-0.48,64.91,1007.65,34.089999999999996
57.200000000000045,269.01,-2.33,25.72999999999999,-2.6,-0.23,1.61,64.9,1007.63,34.42
57.30000000000007,267.56,-3.28,26.650000000000006,-3.37,-0.18,1.56,64.89,1007.6,34.269999999999996
57.40000000000009,266.32,-3.6799999999999997,26.97999999999999,-3.5,-0.05,-0.13,64.88,1007.63,34.16
57.5,265.55,-3.8099999999999996,26.189999999999998,-2.97,-0.35,-1.33,64.87,1007.65,34.01
57.60000000000002,265.01,-4.32,26.110000000000014,-3.07,0.0,-0.45,64.86,1007.65,34.11
57.700000000000045,264.26,-4.93,26.580000000000013,-2.76,-0.35,0.96,64.85,1007.65,34.14
57.80000000000007,262.8,-4.35,24.180000000000007,-2.64,-0.41,-4.78,64.84,1007.65,33.95
57.90000000000009,261.22,-3.8,23.150000000000006,-2.28,0.17,-6.36,64.84,1007.69,33.58
58.0,259.53,-2.92,22.539999999999992,-2.56,0.13,-7.22,64.84,1007.72,33.49
58.10000000000002,257.94,-2.86,22.52000000000001,-2.06,-0.2,-2.4,64.83,1007.72,33.48
58.200000000000045,255.24,-2.4299999999999997,24.689999999999998,-3.99,0.32,-3.9,64.83,1007.73,33.45
58.30000000000007,254.01,-2.69,26.840000000000003,-3.06,-0.52,0.15,64.83,1007.71,33.62
58.40000000000009,252.66,-2.94,27.860000000000014,-3.12,0.02,-2.19,64.83,1007.7,33.6
58.5,251.89,-3.17,26.789999999999992,-3.76,-0.22,-1.07,64.83,1007.72,33.56
58.60000000000002,250.79,-3.9799999999999995,27.960000000000008,-2.48,-0.63,1.89,64.83,1007.7,33.69
58.700000000000045,249.13,-4.449999999999999,29.150000000000006,-3.72,0.16,-0.5,64.82,1007.71,33.61
58.80000000000007,247.59,-5.42,31.450000000000017,-3.93,-0.94,0.36,64.82,1007.71,33.56
58.90000000000009,246.53,-5.699999999999999,33.77000000000001,-4.85,-0.72,-0.5,64.81,1007.72,33.339999999999996
59.0,246.18,-5.55,35.00999999999999,-4.85,-0.54,-0.23,64.81,1007.75,33.41
59.10000000000002,246.28,-5.66,34.95000000000002,-3.48,-0.66,3.14,64.8,1007.73,33.32
59.200000000000045,246.08,-6.109999999999999,35.08000000000001,-4.49,-0.48,3.2,64.79,1007.73,33.31
59.30000000000007,244.77,-6.75,35.24000000000001,-4.31,-0.55,0.67,64.78,1007.76,33.08
59.40000000000009,242.53,-6.949999999999999,34.94,-4.07,0.01,1.94,64.78,1007.77,32.89
59.5,237.42,-3.8699999999999997,24.02000000000001,-3.49,0.85,-16.23,64.77,1007.81,32.65
59.60000000000002,233.62,-7.279999999999999,16.400000000000006,-5.07,1.23,9.0,64.76,1007.82,32.57
59.700000000000045,231.65,-6.52,17.860000000000014,-4.92,0.57,-7.23,64.76,1007.84,32.42
59.80000000000007,232.93,-7.569999999999999,20.30000000000001,-4.01,-0.11,5.69,64.76,1007.85,32.32
59.90000000000009,234.08,-7.14,21.330000000000013,-2.94,-0.22,4.02,64.76,1007.87,32.19
60.0,234.26,-6.35,21.53,-2.46,-0.06,-1.13,64.75,1007.89,32.1
60.10000000000002,234.0,-7.25,22.53,-2.04,0.22,3.34,64.75,1007.91,31.700000000000003
60.200000000000045,232.14,-4.8999999999999995,19.390000000000015,-3.62,1.0,-7.73,64.75,1007.94,31.71
60.30000000000007,231.9,-6.029999999999999,20.920000000000016,-2.1,0.19,-4.63,64.75,1007.97,31.17
60.40000000000009,231.46,-6.27,21.430000000000007,-2.63,0.3,2.14,64.75,1008.02,30.71
60.5,229.7,-4.09,22.400000000000006,-2.78,-0.04,-6.75,64.74,1008.08,30.32
60.60000000000002,228.22,-2.21,21.52000000000001,-3.01,0.66,-6.79,64.74,1008.12,30.019999999999996
60.700000000000045,226.72,-0.08999999999999986,20.120000000000005,-2.67,0.51,-6.86,64.73,1008.14,29.92
60.80000000000007,225.23,3.3900000000000006,20.580000000000013,-2.14,1.32,-8.12,64.73,1008.16,29.799999999999997
60.90000000000009,224.53,5.73,19.950000000000017,-2.17,1.31,-8.8,64.73,1008.18,29.740000000000002
61.0,223.03,9.89,19.710000000000008,-2.25,2.34,-12.97,64.72,1008.17,29.79
61.10000000000002,221.19,13.33,20.670000000000016,-1.89,2.52,-14.7,64.71,1008.15,29.93
61.200000000000045,219.81,16.1,21.060000000000002,-1.03,2.65,-11.92,64.71,1008.14,30.07
61.30000000000007,217.04,20.009999999999998,20.810000000000002,-1.57,3.33,-14.03,64.7,1008.12,30.36
61.40000000000009,213.66,22.68,22.75999999999999,-0.92,3.1,-15.5,64.7,1008.1,30.79
61.5,211.49,22.79,24.080000000000013,-2.18,3.83,-5.05,64.7,1008.01,31.4
61.60000000000002,208.9,23.14,26.420000000000016,-2.02,3.81,-4.27,64.7,1007.93,32.14
61.700000000000045,206.25,23.47,27.110000000000014,-3.35,4.76,-4.64,64.69,1007.86,32.68
61.80000000000007,204.41,23.25,27.22,-2.4,4.8,-3.38,64.69,1007.78,33.32
61.90000000000009,202.84,23.67,28.610000000000014,-3.43,4.92,-1.09,64.69,1007.7,34.0
62.0,202.04,23.36,29.659999999999997,-3.31,4.32,-0.99,64.69,1007.61,34.71
62.10000000000002,201.11,23.32,29.599999999999994,-3.67,4.69,-3.11,64.69,1007.53,35.61
62.200000000000045,200.28,22.35,28.939999999999998,-3.86,4.75,-1.04,64.69,1007.43,36.35
62.30000000000007,198.5,21.1,27.819999999999993,-2.89,3.83,0.72,64.69,1007.34,37.13
62.40000000000009,196.42,19.46,27.860000000000014,-4.07,3.54,1.06,64.68,1007.25,37.72
62.5,194.41,18.340000000000003,27.24000000000001,-4.73,4.06,-1.98,64.68,1007.2,38.23
62.60000000000002,193.16,17.36,28.30000000000001,-3.95,3.52,-0.19,64.68,1007.14,38.66
62.700000000000045,193.05,16.439999999999998,28.360000000000014,-3.86,2.89,2.22,64.68,1007.08,39.07
62.80000000000007,192.84,15.840000000000002,27.24000000000001,-3.83,2.89,2.08,64.68,1007.04,39.339999999999996
62.90000000000009,192.39,14.94,26.379999999999995,-3.82,2.92,2.91,64.69,1007.0,39.76
63.0,191.58,13.9,26.25,-3.58,2.64,2.23,64.69,1006.95,40.18
63.10000000000002,190.27,12.92,26.25999999999999,-2.73,2.75,0.53,64.68,1006.89,40.56
63.200000000000045,188.77,11.58,27.060000000000002,-3.19,2.53,1.28,64.68,1006.86,40.79
63.30000000000007,187.52,9.72,26.830000000000013,-3.38,2.26,0.97,64.68,1006.84,40.99
63.40000000000009,186.12,8.25,26.599999999999994,-3.61,1.87,1.14,64.68,1006.81,41.23
63.5,185.27,5.870000000000001,23.039999999999992,-3.5,0.6,1.28,64.68,1006.78,41.43
63.60000000000002,184.1,3.95,19.879999999999995,-2.82,0.22,1.44,64.68,1006.78,41.519999999999996
63.700000000000045,182.39,2.51,19.22,-2.44,0.2,1.82,64.68,1006.75,41.64
63.80000000000007,180.9,1.3900000000000006,18.5,-2.03,0.25,0.59,64.68,1006.75,41.61
63.90000000000009,179.23,0.020000000000000018,17.77000000000001,-2.54,-0.49,1.67,64.68,1006.75,41.72
64.0,179.9,-1.4899999999999998,18.28,-2.63,0.02,3.57,64.68,1006.74,41.74
64.10000000000002,179.88,-2.75,18.370000000000005,-2.65,-0.04,3.53,64.68,1006.73,41.85
64.20000000000005,178.17,-3.67,18.77000000000001,-3.11,-0.22,2.3,64.67,1006.73,41.8
64.30000000000007,176.63,-4.62,19.640000000000015,-3.49,-1.05,2.45,64.67,1006.74,41.73
64.40000000000009,177.45,-5.76,19.620000000000005,-2.74,-0.32,1.8,64.66,1006.75,41.6
64.5,176.27,-6.67,17.950000000000017,-2.98,-0.96,2.02,64.66,1006.76,41.4
64.60000000000002,176.34,-7.63,16.860000000000014,-3.04,-1.59,1.66,64.66,1006.8,41.08
64.70000000000005,177.16,-6.99,16.039999999999992,-2.32,-1.65,0.21,64.65,1006.83,40.87
64.80000000000007,178.49,-6.05,15.969999999999999,-2.55,-0.84,-1.69,64.66,1006.84,40.73
64.90000000000009,178.9,-5.05,15.509999999999991,-1.99,-1.02,-1.65,64.66,1006.86,40.6
65.0,179.97,-5.609999999999999,15.5,-1.67,-0.42,-1.96,64.66,1006.89,40.29
65.10000000000002,179.52,-6.67,15.280000000000001,-1.84,-0.43,0.11,64.65,1006.92,40.1
65.20000000000005,178.23,-6.91,13.97999999999999,-1.36,-1.28,0.05,64.65,1006.94,39.81
65.30000000000007,176.49,-5.8,13.950000000000017,-1.77,-1.5,-2.07,64.65,1006.98,39.5
65.40000000000009,174.43,-4.14,13.969999999999999,-1.68,-0.92,-4.83,64.64,1007.02,39.339999999999996
65.5,173.08,-4.56,13.450000000000017,-1.6,-0.08,0.57,64.64,1007.03,39.089999999999996
65.60000000000002,172.36,-4.17,13.02000000000001,-0.7,0.01,-1.97,64.63,1007.08,38.86
