2300,3,0.07,-0.02,-0.06,0.00,0.06,0.00,0.7158,0.0096,0.0903,-0.6924,$GPGGA,143357.100,3850.1228,N,07730.3437,W,2,09,0.88,52.2,M,-33.4,M,0000,0000*69
2301,3,0.03,0.00,-0.09,0.00,0.25,0.00,0.7158,0.0096,0.0903,-0.6924,$GPGGA,143357.200,3850.1228,N,07730.3437,W,2,09,0.88,52.2,M,-33.4,M,0000,0000*6A
2302,3,0.03,-0.03,-0.08,-0.13,-0.06,-0.06,0.7158,0.0096,0.0903,-0.6924,$GPGGA,143357.300,3850.1228,N,07730.3437,W,2,09,0.88,52.2,M,-33.4,M,0000,0000*6B
2303,3,0.04,0.00,-0.09,0.06,-0.06,0.06,0.7158,0.0096,0.0903,-0.6924,$GPGGA,143357.400,3850.1228,N,07730.3437,W,2,09,0.88,52.2,M,-33.4,M,0000,0000*6C
2304,3,0.01,-0.03,-0.06,0.19,0.31,0.06,0.7158,0.0096,0.0903,-0.6924,$GPGGA,143357.500,3850.1228,N,07730.3437,W,2,09,0.88,52.2,M,-33.4,M,0000,0000*6D
2305,3,0.04,-0.02,-0.07,0.13,-0.06,0.13,0.7158,0.0096,0.0903,-0.6924,$GPGGA,143357.600,3850.1228,N,07730.3437,W,2,09,0.88,52.2,M,-33.4,M,0000,0000*6E
2306,3,0.01,-0.01,-0.07,0.00,0.13,-0.06,0.7158,0.0096,0.0903,-0.6924,$GPGGA,143357.700,3850.1228,N,07730.3437,W,2,09,0.88,52.2,M,-33.4,M,0000,0000*6F
2307,3,0.03,-0.02,-0.08,-0.06,-0.06,-0.06,0.7158,0.0096,0.0903,-0.6924,$GPGGA,143357.800,3850.1228,N,07730.3437,W,2,09,0.88,52.2,M,-33.4,M,0000,0000*60
2308,3,0.03,-0.01,-0.09,-0.13,0.06,0.00,0.7158,0.0096,0.0903,-0.6924,$GPGGA,143357.900,3850.1228,N,07730.3437,W,2,09,0.88,52.2,M,-33.4,M,0000,0000*61
2309,3,0.01,-0.03,-0.06,0.13,-0.13,-0.13,0.7158,0.0096,0.0903,-0.6924,$GPGGA,143358.000,3850.1228,N,07730.3437,W,2,09,0.88,52.2,M,-33.4,M,0000,0000*67
2310,3,0.02,0.00,-0.07,-0.13,0.06,-0.19,0.7158,0.0096,0.0903,-0.6924,$GPGGA,143358.100,3850.1228,N,07730.3437,W,2,09,0.88,52.2,M,-33.4,M,0000,0000*66
2311,3,0.03,-0.03,-0.08,0.06,0.25,0.00,0.7158,0.0096,0.0903,-0.6924,$GPGGA,143358.200,3850.1228,N,07730.3437,W,2,09,0.88,52.2,M,-33.4,M,0000,0000*65
2312,3,0.03,0.00,-0.06,0.00,-0.13,0.06,0.7158,0.0096,0.0903,-0.6924,$GPGGA,143358.300,3850.1228,N,07730.3437,W,2,09,0.88,52.2,M,-33.4,M,0000,0000*64
2313,3,0.03,-0.02,-0.08,0.06,0.19,0.06,0.7158,0.0096,0.0903,-0.6924,$GPGGA,143358.400,3850.1228,N,07730.3437,W,2,09,0.88,52.2,M,-33.4,M,0000,0000*63
2314,3,0.03,-0.03,-0.05,0.13,0.06,-0.06,0.7158,0.0096,0.0903,-0.6924,$GPGGA,143358.500,3850.1228,N,07730.3437,W,2,09,0.88,52.2,M,-33.4,M,0000,0000*62
2315,3,0.04,-0.01,-0.08,0.00,0.13,0.00,0.7158,0.0096,0.0903,-0.6924,$GPGGA,143358.600,3850.1228,N,07730.3437,W,2,09,0.88,52.2,M,-33.4,M,0000,0000*61
2316,3,0.03,-0.02,-0.07,-0.13,-0.13,-0.06,0.7158,0.0096,0.0903,-0.6924,$GPGGA,143358.700,3850.1228,N,07730.3437,W,2,09,0.88,52.3,M,-33.4,M,0000,0000*61
2317,3,0.04,-0.02,-0.06,-0.06,0.19,0.00,0.7158,0.0096,0.0903,-0.6924,$GPGGA,143358.800,3850.1228,N,07730.3437,W,2,09,0.88,52.3,M,-33.4,M,0000,0000*6E
2318,3,0.02,-0.01,-0.06,-0.06,0.25,-0.06,0.7158,0.0096,0.0903,-0.6924,$GPGGA,143358.900,3850.1228,N,07730.3437,W,2,09,0.88,52.3,M,-33.4,M,0000,0000*6F
2319,3,0.02,-0.01,-0.06,0.00,0.00,0.06,0.7158,0.0096,0.0903,-0.6924,$GPGGA,143359.000,3850.1228,N,07730.3437,W,2,09,0.88,52.3,M,-33.4,M,0000,0000*67
2320,3,0.02,-0.03,-0.06,0.13,0.19,-0.06,0.7158,0.0096,0.0903,-0.6924,$GPGGA,143359.100,3850.1228,N,07730.3437,W,2,09,0.88,52.3,M,-33.4,M,0000,0000*66
2321,3,0.03,-0.03,-0.06,-0.06,-0.06,0.06,0.7158,0.0096,0.0903,-0.6924,$GPGGA,143359.200,3850.1228,N,07730.3437,W,2,09,0.88,52.3,M,-33.4,M,0000,0000*65
2322,3,0.02,0.00,-0.07,0.06,-0.06,0.00,0.7158,0.0096,0.0903,-0.6924,$GPGGA,143359.300,3850.1228,N,07730.3437,W,2,09,0.88,52.3,M,-33.4,M,0000,0000*64
2323,3,0.05,0.00,-0.06,0.00,0.19,-0.06,0.7158,0.0096,0.0903,-0.6924,$GPGGA,143359.400,3850.1228,N,07730.3437,W,2,09,0.88,52.3,M,-33.4,M,0000,0000*63
2324,3,0.04,-0.02,-0.06,0.06,-0.13,0.00,0.7158,0.0096,0.0903,-0.6924,$GPGGA,143359.500,3850.1228,N,07730.3437,W,2,09,0.88,52.3,M,-33.4,M,0000,0000*62
2325,3,0.03,-0.03,-0.07,0.00,0.06,0.00,0.7158,0.0096,0.0903,-0.6924,$GPGGA,143359.600,3850.1228,N,07730.3437,W,2,09,0.88,52.3,M,-33.4,M,0000,0000*61
2326,3,0.03,-0.02,-0.06,0.00,0.19,0.06,0.7158,0.0096,0.0903,-0.6924,$GPGGA,143359.700,3850.1228,N,07730.3437,W,2,09,0.88,52.3,M,-33.4,M,0000,0000*60
2327,3,0.02,-0.03,-0.08,-0.13,-0.06,0.06,0.7158,0.0096,0.0903,-0.6924,$GPGGA,143359.800,3850.1228,N,07730.3437,W,2,09,0.88,52.3,M,-33.4,M,0000,0000*6F
2328,3,0.04,0.00,-0.09,-0.13,-0.13,0.00,0.7158,0.0096,0.0903,-0.6924,$GPGGA,143359.900,3850.1228,N,07730.3437,W,2,09,0.88,52.3,M,-33.4,M,0000,0000*6E
2329,3,0.05,-0.01,-0.07,-0.13,0.06,0.00,0.7158,0.0096,0.0903,-0.6924,$GPGGA,143400.000,3850.1228,N,07730.3437,W,2,09,0.88,52.3,M,-33.4,M,0000,0000*6C
2330,3,0.05,0.00,-0.03,0.00,0.00,0.06,0.7158,0.0096,0.0903,-0.6924,$GPGGA,143400.100,3850.1228,N,07730.3437,W,2,09,0.88,52.3,M,-33.4,M,0000,0000*6D
2331,3,0.07,0.02,-0.10,0.00,-0.13,0.00,0.7158,0.0096,0.0903,-0.6924,$GPGGA,143400.200,3850.1228,N,07730.3437,W,2,09,0.88,52.3,M,-33.4,M,0000,0000*6E
2332,3,-0.02,0.00,-0.01,0.00,0.25,-0.06,0.7158,0.0096,0.0903,-0.6924,$GPGGA,143400.300,3850.1228,N,07730.3437,W,2,09,0.88,52.3,M,-33.4,M,0000,0000*6F
2333,3,0.01,-0.01,-0.03,0.06,-0.37,0.00,0.7158,0.0096,0.0903,-0.6924,$GPGGA,143400.400,3850.1228,N,07730.3437,W,2,09,0.88,52.3,M,-33.4,M,0000,0000*68
2334,3,0.01,-0.03,-0.01,-0.06,0.19,-0.06,0.7158,0.0096,0.0903,-0.6924,$GPGGA,143400.500,3850.1228,N,07730.3437,W,2,09,0.88,52.3,M,-33.4,M,0000,0000*69
2335,3,-0.01,-0.02,0.00,0.00,-0.25,0.19,0.7158,0.0096,0.0903,-0.6924,$GPGGA,143400.600,3850.1228,N,07730.3437,W,2,09,0.88,52.3,M,-33.4,M,0000,0000*6A
2336,3,0.04,-0.01,-0.11,-0.13,0.06,0.00,0.7158,0.0096,0.0903,-0.6924,$GPGGA,143400.700,3850.1228,N,07730.3437,W,2,09,0.88,52.3,M,-33.4,M,0000,0000*6B
2337,3,0.07,-0.01,0.02,-0.13,0.06,0.00,0.7158,0.0096,0.0903,-0.6924,$GPGGA,143400.800,3850.1228,N,07730.3437,W,2,09,0.88,52.3,M,-33.4,M,0000,0000*64
2338,3,0.10,-0.03,0.02,0.06,-0.44,0.13,0.7158,0.0096,0.0903,-0.6924,$GPGGA,143400.900,3850.1228,N,07730.3437,W,2,09,0.88,52.3,M,-33.4,M,0000,0000*65
2339,3,0.04,-0.02,-0.04,0.00,0.19,-0.06,0.7158,0.0096,0.0903,-0.6924,$GPGGA,143401.000,3850.1228,N,07730.3437,W,2,09,0.88,52.3,M,-33.4,M,0000,0000*6D
2340,3,0.01,0.04,-0.19,0.06,0.25,0.06,0.7158,0.0096,0.0903,-0.6924,$GPGGA,143401.100,3850.1228,N,07730.3437,W,2,09,0.88,52.3,M,-33.4,M,0000,0000*6C
2341,3,0.05,0.00,0.03,-0.13,-0.44,0.19,0.7158,0.0096,0.0903,-0.6924,$GPGGA,143401.200,3850.1228,N,07730.3437,W,2,09,0.88,52.3,M,-33.4,M,0000,0000*6F
2342,3,-0.01,-0.04,-0.14,-0.06,0.06,-0.06,0.7158,0.0095,0.0902,-0.6924,$GPGGA,143401.300,3850.1228,N,07730.3437,W,2,09,0.88,52.3,M,-33.4,M,0000,0000*6E
2343,3,0.03,0.00,-0.08,-0.25,-0.19,0.13,0.7158,0.0095,0.0902,-0.6924,$GPGGA,143401.400,3850.1228,N,07730.3437,W,2,09,0.88,52.3,M,-33.4,M,0000,0000*69
2344,3,0.03,0.00,-0.03,-0.25,-0.13,0.13,0.7158,0.0095,0.0902,-0.6924,$GPGGA,143401.500,3850.1228,N,07730.3437,W,2,09,0.88,52.3,M,-33.4,M,0000,0000*68
2345,3,0.03,-0.01,-0.06,0.00,-0.19,0.06,0.7158,0.0095,0.0902,-0.6924,$GPGGA,143401.600,3850.1228,N,07730.3437,W,2,09,0.88,52.3,M,-33.4,M,0000,0000*6B
2346,3,0.00,0.00,-0.06,0.00,-0.13,0.06,0.7158,0.0095,0.0902,-0.6924,$GPGGA,143401.700,3850.1228,N,07730.3437,W,2,09,0.88,52.3,M,-33.4,M,0000,0000*6A
2347,3,0.03,-0.02,-0.04,0.06,0.00,0.06,0.7158,0.0095,0.0902,-0.6924,$GPGGA,143401.800,3850.1228,N,07730.3437,W,2,09,0.88,52.3,M,-33.4,M,0000,0000*65
2348,3,0.03,0.00,-0.07,0.00,0.13,0.00,0.7158,0.0095,0.0902,-0.6924,$GPGGA,143401.900,3850.1228,N,07730.3437,W,2,09,0.88,52.3,M,-33.4,M,0000,0000*64
2349,3,0.02,-0.01,-0.08,-0.25,-0.06,0.13,0.7158,0.0095,0.0902,-0.6924,$GPGGA,143402.000,3850.1228,N,07730.3437,W,2,09,0.88,52.3,M,-33.4,M,0000,0000*6E
2350,3,0.03,-0.02,-0.06,-0.06,0.13,-0.06,0.7158,0.0095,0.0902,-0.6924,$GPGGA,143402.100,3850.1228,N,07730.3437,W,2,09,0.88,52.3,M,-33.4,M,0000,0000*6F
2351,3,0.03,-0.02,-0.06,0.00,-0.06,-0.13,0.7158,0.0095,0.0902,-0.6924,$GPGGA,143402.200,3850.1228,N,07730.3437,W,2,09,0.88,52.3,M,-33.4,M,0000,0000*6C
2352,3,0.03,0.00,-0.07,0.00,-0.06,-0.06,0.7158,0.0095,0.0902,-0.6924,$GPGGA,143402.300,3850.1228,N,07730.3437,W,2,09,0.88,52.3,M,-33.4,M,0000,0000*6D
2353,3,0.03,0.00,-0.09,0.00,-0.19,-0.06,0.7158,0.0095,0.0902,-0.6924,$GPGGA,143402.400,3850.1228,N,07730.3437,W,2,09,0.88,52.3,M,-33.4,M,0000,0000*6A
2354,3,0.04,-0.03,-0.09,0.06,0.06,-0.19,0.7158,0.0095,0.0902,-0.6924,$GPGGA,143402.500,3850.1228,N,07730.3437,W,2,09,0.88,52.3,M,-33.4,M,0000,0000*6B
2355,3,0.02,0.00,-0.08,0.00,-0.13,-0.06,0.7158,0.0095,0.0902,-0.6924,$GPGGA,143402.600,3850.1228,N,07730.3437,W,2,09,0.88,52.3,M,-33.4,M,0000,0000*68
2356,3,0.03,-0.02,-0.08,0.06,0.00,0.00,0.7158,0.0095,0.0902,-0.6924,$GPGGA,143402.700,3850.1228,N,07730.3437,W,2,09,0.88,52.3,M,-33.4,M,0000,0000*69
2357,3,0.03,-0.03,-0.05,0.06,-0.06,0.00,0.7158,0.0095,0.0902,-0.6924,$GPGGA,143402.800,3850.1228,N,07730.3437,W,2,09,0.88,52.3,M,-33.4,M,0000,0000*66
2358,3,0.03,-0.01,-0.08,0.19,-0.19,0.06,0.7158,0.0095,0.0902,-0.6924,$GPGGA,143402.900,3850.1228,N,07730.3437,W,2,09,0.88,52.3,M,-33.4,M,0000,0000*67
2359,3,0.03,-0.02,-0.09,0.25,-0.06,0.06,0.7158,0.0095,0.0902,-0.6924,$GPGGA,143403.000,3850.1228,N,07730.3437,W,2,09,0.88,52.3,M,-33.4,M,0000,0000*6F
2360,3,0.03,-0.01,-0.10,0.06,0.00,0.06,0.7158,0.0095,0.0902,-0.6924,$GPGGA,143403.100,3850.1228,N,07730.3437,W,2,09,0.88,52.3,M,-33.4,M,0000,0000*6E
2361,3,0.02,-0.02,-0.08,-0.06,0.00,-0.13,0.7158,0.0095,0.0902,-0.6924,$GPGGA,143403.200,3850.1228,N,07730.3437,W,2,09,0.88,52.3,M,-33.4,M,0000,0000*6D
2362,3,0.04,-0.02,-0.09,0.06,-0.06,0.00,0.7158,0.0095,0.0902,-0.6924,$GPGGA,143403.300,3850.1228,N,07730.3437,W,2,09,0.88,52.3,M,-33.4,M,0000,0000*6C
2363,3,0.02,-0.02,-0.08,-0.19,-0.13,0.06,0.7158,0.0095,0.0902,-0.6924,$GPGGA,143403.400,3850.1228,N,07730.3437,W,2,09,0.88,52.3,M,-33.4,M,0000,0000*6B
2364,3,0.04,-0.03,-0.07,-0.06,0.06,-0.13,0.7158,0.0095,0.0902,-0.6924,$GPGGA,143403.500,3850.1228,N,07730.3437,W,2,09,0.88,52.3,M,-33.4,M,0000,0000*6A
2365,3,0.03,-0.02,-0.09,-0.06,-0.13,-0.06,0.7158,0.0095,0.0902,-0.6924,$GPGGA,143403.600,3850.1228,N,07730.3437,W,2,09,0.88,52.3,M,-33.4,M,0000,0000*69
2366,3,0.03,-0.01,-0.09,0.06,0.00,0.00,0.7158,0.0095,0.0902,-0.6924,$GPGGA,143403.700,3850.1228,N,07730.3437,W,2,09,0.88,52.3,M,-33.4,M,0000,0000*68
2367,3,0.02,-0.02,-0.07,0.06,-0.19,-0.06,0.7158,0.0095,0.0902,-0.6924,$GPGGA,143403.800,3850.1228,N,07730.3437,W,2,09,0.88,52.3,M,-33.4,M,0000,0000*67
2368,3,0.03,0.00,-0.08,-0.06,0.00,0.00,0.7158,0.0095,0.0902,-0.6924,$GPGGA,143403.900,3850.1228,N,07730.3437,W,2,09,0.88,52.3,M,-33.4,M,0000,0000*66
2369,3,0.02,-0.02,-0.08,0.00,0.00,-0.13,0.7158,0.0095,0.0902,-0.6924,$GPGGA,143404.000,3850.1228,N,07730.3437,W,2,09,0.88,52.3,M,-33.4,M,0000,0000*68
2370,3,0.02,-0.02,-0.09,0.00,0.00,0.06,0.7158,0.0095,0.0902,-0.6924,$GPGGA,143404.100,3850.1228,N,07730.3437,W,2,09,0.88,52.3,M,-33.4,M,0000,0000*69
2371,3,0.01,0.00,-0.08,-0.06,0.00,-0.06,0.7158,0.0095,0.0902,-0.6924,$GPGGA,143404.200,3850.1228,N,07730.3437,W,2,09,0.88,52.3,M,-33.4,M,0000,0000*6A
2372,3,0.03,-0.01,-0.09,0.19,-0.06,0.00,0.7158,0.0095,0.0902,-0.6924,$GPGGA,143404.300,3850.1228,N,07730.3437,W,2,09,0.88,52.3,M,-33.4,M,0000,0000*6B
2373,3,0.02,-0.01,-0.10,-0.19,-0.13,-0.06,0.7158,0.0095,0.0902,-0.6924,$GPGGA,143404.400,3850.1228,N,07730.3437,W,2,09,0.88,52.3,M,-33.4,M,0000,0000*6C
2374,3,0.02,-0.02,-0.08,-0.06,-0.06,0.06,0.7158,0.0095,0.0902,-0.6924,$GPGGA,143404.500,3850.1228,N,07730.3437,W,2,09,0.88,52.3,M,-33.4,M,0000,0000*6D
2375,3,0.03,-0.02,-0.06,0.06,-0.13,-0.06,0.7158,0.0095,0.0902,-0.6924,$GPGGA,143404.600,3850.1228,N,07730.3437,W,2,09,0.88,52.3,M,-33.4,M,0000,0000*6E
2376,3,0.02,0.00,-0.06,-0.13,0.25,0.00,0.7158,0.0095,0.0902,-0.6924,$GPGGA,143404.700,3850.1228,N,07730.3437,W,2,09,0.88,52.3,M,-33.4,M,0000,0000*6F
2377,3,0.02,-0.03,-0.08,0.06,0.13,-0.06,0.7158,0.0095,0.0902,-0.6924,$GPGGA,143404.800,3850.1228,N,07730.3437,W,2,09,0.88,52.3,M,-33.4,M,0000,0000*60
2378,3,0.05,-0.03,-0.09,0.06,0.13,0.00,0.7158,0.0095,0.0902,-0.6924,$GPGGA,143404.900,3850.1228,N,07730.3437,W,2,09,0.88,52.3,M,-33.4,M,0000,0000*61
2379,3,0.04,0.00,-0.07,0.13,0.00,0.00,0.7158,0.0095,0.0902,-0.6924,$GPGGA,143405.000,3850.1228,N,07730.3437,W,2,09,0.88,52.3,M,-33.4,M,0000,0000*69
2380,3,0.03,0.00,-0.09,-0.06,-0.06,0.06,0.7158,0.0095,0.0902,-0.6924,$GPGGA,143405.100,3850.1228,N,07730.3437,W,2,09,0.88,52.3,M,-33.4,M,0000,0000*68
2381,3,0.03,-0.03,-0.07,0.00,0.00,0.00,0.7158,0.0095,0.0902,-0.6924,$GPGGA,143405.200,3850.1228,N,07730.3437,W,2,09,0.88,52.3,M,-33.4,M,0000,0000*6B
2382,3,0.04,-0.02,-0.08,-0.06,0.19,0.06,0.7158,0.0095,0.0902,-0.6924,$GPGGA,143405.300,3850.1228,N,07730.3437,W,2,09,0.88,52.3,M,-33.4,M,0000,0000*6A
2383,3,0.03,-0.02,-0.10,-0.06,0.06,0.00,0.7158,0.0095,0.0902,-0.6924,$GPGGA,143405.400,3850.1228,N,07730.3437,W,2,09,0.88,52.3,M,-33.4,M,0000,0000*6D
2384,3,0.02,-0.01,-0.09,0.13,0.13,-0.06,0.7158,0.0095,0.0902,-0.6924,$GPGGA,143405.500,3850.1228,N,07730.3437,W,2,09,0.88,52.3,M,-33.4,M,0000,0000*6C
2385,3,0.02,-0.02,-0.05,-0.06,-0.06,0.06,0.7158,0.0095,0.0902,-0.6924,$GPGGA,143405.600,3850.1228,N,07730.3437,W,2,09,0.88,52.3,M,-33.4,M,0000,0000*6F
2386,3,0.02,-0.02,-0.12,0.00,0.06,-0.06,0.7158,0.0095,0.0902,-0.6924,$GPGGA,143405.700,3850.1228,N,07730.3437,W,2,09,0.88,52.3,M,-33.4,M,0000,0000*6E
2387,3,0.02,-0.02,-0.09,0.06,0.06,-0.06,0.7158,0.0095,0.0902,-0.6924,$GPGGA,143405.800,3850.1228,N,07730.3437,W,2,09,0.88,52.3,M,-33.4,M,0000,0000*61
2388,3,0.03,-0.04,-0.10,-0.06,0.00,0.00,0.7158,0.0095,0.0902,-0.6924,$GPGGA,143405.900,3850.1228,N,07730.3437,W,2,09,0.88,52.3,M,-33.4,M,0000,0000*60
2389,3,0.03,-0.02,-0.11,0.19,-0.06,0.06,0.7158,0.0095,0.0902,-0.6924,$GPGGA,143406.000,3850.1228,N,07730.3437,W,2,09,0.88,52.3,M,-33.4,M,0000,0000*6A
2390,3,0.02,-0.03,-0.11,-0.06,-0.19,0.06,0.7158,0.0095,0.0902,-0.6924,$GPGGA,143406.100,3850.1228,N,07730.3437,W,2,09,0.88,52.3,M,-33.4,M,0000,0000*6B
2391,3,0.02,-0.02,-0.06,0.06,-0.19,0.13,0.7158,0.0095,0.0902,-0.6924,$GPGGA,143406.200,3850.1228,N,07730.3437,W,2,09,0.88,52.3,M,-33.4,M,0000,0000*68
2392,3,0.01,-0.03,-0.10,-0.06,-0.06,0.00,0.7158,0.0095,0.0902,-0.6924,$GPGGA,143406.300,3850.1228,N,07730.3437,W,2,09,0.88,52.3,M,-33.4,M,0000,0000*69
2393,3,0.05,-0.01,-0.07,-0.13,0.00,0.13,0.7158,0.0095,0.0902,-0.6924,$GPGGA,143406.400,3850.1228,N,07730.3437,W,2,09,0.88,52.3,M,-33.4,M,0000,0000*6E
2394,3,0.04,-0.02,-0.07,0.13,-0.13,0.19,0.7158,0.0095,0.0902,-0.6924,$GPGGA,143406.500,3850.1228,N,07730.3437,W,2,09,0.88,52.3,M,-33.4,M,0000,0000*6F
2395,3,0.03,-0.02,-0.05,-0.06,0.00,0.06,0.7158,0.0095,0.0902,-0.6924,$GPGGA,143406.600,3850.1228,N,07730.3437,W,2,09,0.88,52.3,M,-33.4,M,0000,0000*6C
2396,3,0.04,-0.02,-0.08,0.06,0.06,0.00,0.7158,0.0095,0.0902,-0.6924,$GPGGA,143406.700,3850.1228,N,07730.3437,W,2,09,0.88,52.3,M,-33.4,M,0000,0000*6D
2397,3,0.02,-0.03,-0.09,0.00,-0.06,0.00,0.7158,0.0095,0.0902,-0.6924,$GPGGA,143406.800,3850.1228,N,07730.3437,W,2,09,0.88,52.3,M,-33.4,M,0000,0000*62
2398,3,0.03,-0.02,-0.06,0.06,-0.13,0.00,0.7158,0.0095,0.0902,-0.6924,$GPGGA,143406.900,3850.1228,N,07730.3437,W,2,09,0.88,52.3,M,-33.4,M,0000,0000*63
2399,3,0.02,-0.03,-0.10,0.00,0.06,-0.06,0.7158,0.0095,0.0902,-0.6924,$GPGGA,143407.000,3850.1228,N,07730.3437,W,2,09,0.88,52.3,M,-33.4,M,0000,0000*6B
2400,3,0.03,-0.02,-0.08,0.19,-0.06,-0.06,0.7158,0.0095,0.0902,-0.6924,$GPGGA,143407.100,3850.1228,N,07730.3437,W,2,09,0.88,52.3,M,-33.4,M,0000,0000*6A
2401,3,0.02,-0.03,-0.07,0.06,0.13,0.06,0.7158,0.0095,0.0902,-0.6924,$GPGGA,143407.200,3850.1228,N,07730.3437,W,2,09,0.88,52.3,M,-33.4,M,0000,0000*69
2402,3,0.02,-0.03,-0.05,0.00,0.00,-0.06,0.7158,0.0095,0.0902,-0.6924,$GPGGA,143407.300,3850.1228,N,07730.3437,W,2,09,0.88,52.3,M,-33.4,M,0000,0000*68
2403,3,0.04,-0.03,-0.09,0.13,-0.13,0.00,0.7158,0.0095,0.0902,-0.6924,$GPGGA,143407.400,3850.1228,N,07730.3437,W,2,09,0.88,52.3,M,-33.4,M,0000,0000*6F
2404,3,0.03,0.00,-0.06,0.06,0.13,-0.06,0.7158,0.0095,0.0902,-0.6924,$GPGGA,143407.500,3850.1228,N,07730.3437,W,2,09,0.88,52.3,M,-33.4,M,0000,0000*6E
2405,3,0.03,-0.02,-0.07,0.00,0.00,0.06,0.7158,0.0095,0.0902,-0.6924,$GPGGA,143407.600,3850.1228,N,07730.3437,W,2,09,0.88,52.3,M,-33.4,M,0000,0000*6D
2406,3,0.01,-0.01,-0.06,0.13,0.06,0.06,0.7158,0.0095,0.0902,-0.6924,$GPGGA,143407.700,3850.1228,N,07730.3437,W,2,09,0.88,52.3,M,-33.4,M,0000,0000*6C
2407,3,0.01,-0.01,-0.06,0.13,-0.19,-0.06,0.7158,0.0095,0.0902,-0.6924,$GPGGA,143407.800,3850.1228,N,07730.3437,W,2,09,0.88,52.3,M,-33.4,M,0000,0000*63
2408,3,0.03,-0.02,-0.06,-0.06,0.00,0.00,0.7158,0.0095,0.0902,-0.6924,$GPGGA,143407.900,3850.1228,N,07730.3437,W,2,09,0.88,52.3,M,-33.4,M,0000,0000*62
2409,3,0.04,0.00,-0.08,-0.06,-0.44,0.06,0.7158,0.0095,0.0902,-0.6924,$GPGGA,143408.000,3850.1228,N,07730.3437,W,2,09,0.88,52.3,M,-33.4,M,0000,0000*64
2410,3,0.05,-0.03,-0.07,0.00,-0.19,0.00,0.7158,0.0095,0.0902,-0.6924,$GPGGA,143408.100,3850.1228,N,07730.3437,W,2,09,0.88,52.3,M,-33.4,M,0000,0000*65
2411,3,0.03,0.00,-0.05,0.13,0.13,0.00,0.7158,0.0095,0.0902,-0.6924,$GPGGA,143408.200,3850.1228,N,07730.3437,W,2,09,0.88,52.3,M,-33.4,M,0000,0000*66
2412,3,0.03,-0.02,-0.04,0.06,-0.19,0.00,0.7158,0.0095,0.0902,-0.6924,$GPGGA,143408.300,3850.1228,N,07730.3437,W,2,09,0.88,52.3,M,-33.4,M,0000,0000*67
2413,3,0.02,-0.01,-0.08,0.06,0.19,0.13,0.7158,0.0095,0.0902,-0.6924,$GPGGA,143408.400,3850.1228,N,07730.3437,W,2,09,0.88,52.3,M,-33.4,M,0000,0000*60
2414,3,0.04,-0.03,-0.07,-0.13,0.06,0.06,0.7158,0.0095,0.0902,-0.6924,$GPGGA,143408.500,3850.1228,N,07730.3437,W,2,09,0.88,52.3,M,-33.4,M,0000,0000*61
2415,3,0.03,0.00,-0.06,0.06,-0.06,0.00,0.7158,0.0095,0.0902,-0.6924,$GPGGA,143408.600,3850.1228,N,07730.3437,W,2,09,0.88,52.3,M,-33.4,M,0000,0000*62
2416,3,0.01,-0.03,-0.07,0.00,0.06,0.00,0.7158,0.0095,0.0902,-0.6924,$GPGGA,143408.700,3850.1228,N,07730.3437,W,2,09,0.88,52.3,M,-33.4,M,0000,0000*63
2417,3,0.03,-0.01,-0.07,0.00,-0.31,0.00,0.7158,0.0095,0.0902,-0.6924,$GPGGA,143408.800,3850.1228,N,07730.3437,W,2,09,0.88,52.3,M,-33.4,M,0000,0000*6C
2418,3,0.03,-0.01,-0.04,-0.06,-0.13,-0.06,0.7158,0.0095,0.0902,-0.6924,$GPGGA,143408.900,3850.1228,N,07730.3437,W,2,09,0.88,52.3,M,-33.4,M,0000,0000*6D
2419,3,0.03,-0.03,-0.07,0.13,0.00,0.06,0.7158,0.0095,0.0902,-0.6924,$GPGGA,143409.000,3850.1228,N,07730.3437,W,2,09,0.88,52.3,M,-33.4,M,0000,0000*65
2420,3,0.04,0.00,-0.08,0.00,-0.19,-0.06,0.7158,0.0095,0.0902,-0.6924,$GPGGA,143409.100,3850.1228,N,07730.3437,W,2,09,0.88,52.3,M,-33.4,M,0000,0000*64
2421,3,0.03,-0.04,-0.08,0.06,0.00,0.00,0.7158,0.0095,0.0902,-0.6924,$GPGGA,143409.200,3850.1228,N,07730.3437,W,2,09,0.88,52.3,M,-33.4,M,0000,0000*67
2422,3,0.03,-0.01,-0.07,0.06,-0.13,0.00,0.7158,0.0095,0.0902,-0.6924,$GPGGA,143409.300,3850.1228,N,07730.3437,W,2,09,0.88,52.3,M,-33.4,M,0000,0000*66
2423,3,0.04,-0.02,-0.09,-0.06,0.19,0.06,0.7158,0.0095,0.0902,-0.6924,$GPGGA,143409.400,3850.1228,N,07730.3437,W,2,09,0.88,52.3,M,-33.4,M,0000,0000*61
2424,3,0.01,-0.01,-0.05,-0.06,-0.06,0.00,0.7158,0.0095,0.0902,-0.6924,$GPGGA,143409.500,3850.1228,N,07730.3437,W,2,09,0.88,52.3,M,-33.4,M,0000,0000*60
2425,3,0.03,0.00,-0.08,0.00,-0.06,0.06,0.7158,0.0095,0.0902,-0.6924,$GPGGA,143409.600,3850.1228,N,07730.3437,W,2,09,0.88,52.3,M,-33.4,M,0000,0000*63
2426,3,0.03,0.00,-0.04,0.00,0.00,0.00,0.7158,0.0095,0.0902,-0.6924,$GPGGA,143409.700,3850.1228,N,07730.3437,W,2,09,0.88,52.3,M,-33.4,M,0000,0000*62
2427,3,0.03,-0.03,-0.06,-0.06,0.00,0.06,0.7158,0.0095,0.0902,-0.6924,$GPGGA,143409.800,3850.1228,N,07730.3437,W,2,09,0.88,52.3,M,-33.4,M,0000,0000*6D
2428,3,0.03,-0.03,-0.05,-0.13,0.00,-0.06,0.7158,0.0095,0.0902,-0.6924,$GPGGA,143409.900,3850.1228,N,07730.3437,W,2,09,0.88,52.3,M,-33.4,M,0000,0000*6C
2429,3,0.02,-0.01,-0.06,0.06,0.06,-0.06,0.7158,0.0095,0.0902,-0.6924,$GPGGA,143410.000,3850.1228,N,07730.3437,W,2,09,0.88,52.3,M,-33.4,M,0000,0000*6D
2430,3,0.03,0.00,-0.08,0.25,-0.13,0.00,0.7158,0.0095,0.0902,-0.6924,$GPGGA,143410.100,3850.1228,N,07730.3437,W,2,09,0.88,52.3,M,-33.4,M,0000,0000*6C
2431,3,0.04,0.00,-0.08,0.06,0.06,0.06,0.7158,0.0095,0.0902,-0.6924,$GPGGA,143410.200,3850.1228,N,07730.3437,W,2,09,0.88,52.3,M,-33.4,M,0000,0000*6F
2432,3,0.01,-0.02,-0.09,0.06,0.00,0.00,0.7158,0.0095,0.0902,-0.6924,$GPGGA,143410.300,3850.1228,N,07730.3437,W,2,09,0.88,52.3,M,-33.4,M,0000,0000*6E
2433,3,0.03,-0.02,-0.06,0.06,-0.31,0.13,0.7158,0.0095,0.0902,-0.6924,$GPGGA,143410.400,3850.1228,N,07730.3437,W,2,09,0.88,52.3,M,-33.4,M,0000,0000*69
2434,3,0.02,0.00,-0.06,-0.06,0.00,0.13,0.7158,0.0095,0.0902,-0.6924,$GPGGA,143410.500,3850.1228,N,07730.3437,W,2,09,0.88,52.3,M,-33.4,M,0000,0000*68
2435,3,0.03,-0.01,-0.09,0.00,-0.06,0.06,0.7158,0.0095,0.0902,-0.6924,$GPGGA,143410.600,3850.1228,N,07730.3437,W,2,09,0.88,52.3,M,-33.4,M,0000,0000*6B
2436,3,0.03,0.00,-0.08,0.00,0.06,-0.06,0.7158,0.0095,0.0902,-0.6924,$GPGGA,143410.700,3850.1228,N,07730.3437,W,2,09,0.88,52.3,M,-33.4,M,0000,0000*6A
2437,3,0.03,-0.03,-0.07,-0.06,0.06,-0.06,0.7158,0.0095,0.0902,-0.6924,$GPGGA,143410.800,3850.1228,N,07730.3437,W,2,09,0.88,52.3,M,-33.4,M,0000,0000*65
2438,3,0.02,-0.03,-0.08,-0.06,-0.44,0.06,0.7158,0.0095,0.0902,-0.6924,$GPGGA,143410.900,3850.1228,N,07730.3437,W,2,09,0.88,52.3,M,-33.4,M,0000,0000*64
2439,3,0.02,-0.02,-0.05,0.06,0.00,0.06,0.7158,0.0095,0.0902,-0.6924,$GPGGA,143411.000,3850.1228,N,07730.3437,W,2,09,0.88,52.3,M,-33.4,M,0000,0000*6C
2440,3,0.04,0.00,-0.06,0.00,-0.13,0.06,0.7158,0.0095,0.0902,-0.6924,$GPGGA,143411.100,3850.1228,N,07730.3437,W,2,09,0.88,52.3,M,-33.4,M,0000,0000*6D
2441,3,0.03,-0.03,-0.08,0.06,-0.13,0.00,0.7158,0.0095,0.0902,-0.6924,$GPGGA,143411.200,3850.1228,N,07730.3437,W,2,09,0.88,52.3,M,-33.4,M,0000,0000*6E
2442,3,0.04,-0.02,-0.06,0.06,0.06,-0.13,0.7158,0.0095,0.0902,-0.6924,$GPGGA,143411.300,3850.1228,N,07730.3437,W,2,09,0.88,52.3,M,-33.4,M,0000,0000*6F
2443,3,0.02,-0.01,-0.07,-0.13,-0.06,0.00,0.7158,0.0095,0.0902,-0.6924,$GPGGA,143411.400,3850.1228,N,07730.3437,W,2,09,0.88,52.3,M,-33.4,M,0000,0000*68
2444,3,0.01,-0.01,-0.06,0.06,0.06,-0.06,0.7158,0.0095,0.0902,-0.6924,$GPGGA,143411.500,3850.1228,N,07730.3437,W,2,09,0.88,52.3,M,-33.4,M,0000,0000*69
2445,3,0.01,-0.03,-0.09,-0.06,0.06,-0.13,0.7158,0.0095,0.0902,-0.6924,$GPGGA,143411.600,3850.1228,N,07730.3437,W,2,09,0.88,52.3,M,-33.4,M,0000,0000*6A
2446,3,0.03,-0.01,-0.07,0.13,-0.06,0.13,0.7158,0.0095,0.0902,-0.6924,$GPGGA,143411.700,3850.1228,N,07730.3437,W,2,09,0.88,52.3,M,-33.4,M,0000,0000*6B
2447,3,0.03,-0.02,-0.07,0.00,-0.13,0.00,0.7158,0.0095,0.0902,-0.6924,$GPGGA,143411.800,3850.1228,N,07730.3437,W,2,09,0.88,52.3,M,-33.4,M,0000,0000*64
2448,3,0.03,-0.01,-0.09,0.13,0.06,0.00,0.7158,0.0095,0.0902,-0.6924,$GPGGA,143411.900,3850.1228,N,07730.3437,W,2,09,0.88,52.3,M,-33.4,M,0000,0000*65
2449,3,0.03,-0.02,-0.07,-0.06,-0.13,-0.06,0.7158,0.0095,0.0902,-0.6924,$GPGGA,143412.000,3850.1228,N,07730.3437,W,2,09,0.88,52.3,M,-33.4,M,0000,0000*6F
2450,3,0.04,-0.03,-0.09,0.06,0.13,-0.13,0.7158,0.0095,0.0902,-0.6924,$GPGGA,143412.100,3850.1228,N,07730.3437,W,2,09,0.88,52.3,M,-33.4,M,0000,0000*6E
2451,3,0.03,-0.02,-0.09,0.06,-0.06,0.00,0.7158,0.0095,0.0902,-0.6924,$GPGGA,143412.200,3850.1228,N,07730.3437,W,2,09,0.88,52.3,M,-33.4,M,0000,0000*6D
2452,3,0.04,-0.01,-0.08,0.06,0.00,0.00,0.7158,0.0095,0.0902,-0.6924,$GPGGA,143412.300,3850.1228,N,07730.3437,W,2,09,0.88,52.3,M,-33.4,M,0000,0000*6C
2453,3,0.03,-0.03,-0.07,-0.06,0.06,0.00,0.7158,0.0095,0.0902,-0.6924,$GPGGA,143412.400,3850.1228,N,07730.3437,W,2,09,0.88,52.3,M,-33.4,M,0000,0000*6B
2454,3,0.03,-0.01,-0.09,0.13,-0.13,0.06,0.7158,0.0095,0.0902,-0.6924,$GPGGA,143412.500,3850.1228,N,07730.3437,W,2,09,0.88,52.3,M,-33.4,M,0000,0000*6A
2455,3,0.05,-0.01,-0.08,0.00,0.06,0.00,0.7158,0.0095,0.0902,-0.6924,$GPGGA,143412.600,3850.1228,N,07730.3437,W,2,09,0.88,52.3,M,-33.4,M,0000,0000*69
2456,3,0.05,-0.02,-0.07,0.13,-0.19,0.00,0.7158,0.0095,0.0902,-0.6924,$GPGGA,143412.700,3850.1228,N,07730.3436,W,2,09,0.88,52.3,M,-33.4,M,0000,0000*69
2457,3,0.03,-0.01,-0.09,-0.06,0.13,-0.06,0.7158,0.0095,0.0902,-0.6924,$GPGGA,143412.800,3850.1228,N,07730.3436,W,2,09,0.88,52.3,M,-33.4,M,0000,0000*66
2458,3,0.04,-0.02,-0.08,0.19,-0.13,0.06,0.7158,0.0095,0.0902,-0.6924,$GPGGA,143412.900,3850.1228,N,07730.3436,W,2,09,0.88,52.3,M,-33.4,M,0000,0000*67
2459,3,0.02,-0.03,-0.10,0.13,0.31,0.00,0.7158,0.0095,0.0902,-0.6924,$GPGGA,143413.000,3850.1228,N,07730.3436,W,2,09,0.88,52.3,M,-33.4,M,0000,0000*6F
2460,3,0.03,-0.03,-0.08,0.06,0.00,0.00,0.7158,0.0095,0.0902,-0.6924,$GPGGA,143413.100,3850.1228,N,07730.3436,W,2,09,0.88,52.3,M,-33.4,M,0000,0000*6E
2461,3,0.04,-0.02,-0.07,-0.13,-0.13,-0.06,0.7158,0.0095,0.0902,-0.6924,$GPGGA,143413.200,3850.1228,N,07730.3436,W,2,09,0.88,52.3,M,-33.4,M,0000,0000*6D
2462,3,0.03,-0.01,-0.08,0.06,0.19,-0.06,0.7158,0.0095,0.0902,-0.6924,$GPGGA,143413.300,3850.1228,N,07730.3436,W,2,09,0.88,52.3,M,-33.4,M,0000,0000*6C
2463,3,0.01,-0.01,-0.07,0.00,0.06,0.06,0.7158,0.0095,0.0902,-0.6924,$GPGGA,143413.400,3850.1228,N,07730.3436,W,2,09,0.88,52.3,M,-33.4,M,0000,0000*6B
2464,3,0.03,-0.02,-0.06,0.00,0.19,-0.06,0.7158,0.0095,0.0902,-0.6924,$GPGGA,143413.500,3850.1228,N,07730.3436,W,2,09,0.88,52.3,M,-33.4,M,0000,0000*6A
2465,3,0.03,-0.01,-0.06,0.06,0.00,-0.06,0.7158,0.0095,0.0902,-0.6924,$GPGGA,143413.600,3850.1228,N,07730.3436,W,2,09,0.88,52.3,M,-33.4,M,0000,0000*69
2466,3,0.03,-0.02,-0.06,0.00,-0.13,0.06,0.7158,0.0095,0.0902,-0.6924,$GPGGA,143413.700,3850.1228,N,07730.3436,W,2,09,0.88,52.3,M,-33.4,M,0000,0000*68
2467,3,0.01,-0.03,-0.02,-0.06,0.13,0.00,0.7158,0.0095,0.0902,-0.6924,$GPGGA,143413.800,3850.1228,N,07730.3436,W,2,09,0.88,52.3,M,-33.4,M,0000,0000*67
2468,3,0.03,-0.01,-0.08,0.13,-0.06,0.06,0.7158,0.0095,0.0902,-0.6924,$GPGGA,143413.900,3850.1228,N,07730.3436,W,2,09,0.88,52.3,M,-33.4,M,0000,0000*66
2469,3,0.02,-0.03,-0.09,0.19,-0.06,0.00,0.7158,0.0095,0.0902,-0.6924,$GPGGA,143414.000,3850.1228,N,07730.3436,W,2,09,0.88,52.3,M,-33.4,M,0000,0000*68
2470,3,0.02,-0.03,-0.08,0.19,0.06,0.00,0.7158,0.0095,0.0902,-0.6924,$GPGGA,143414.100,3850.1228,N,07730.3436,W,2,09,0.88,52.3,M,-33.4,M,0000,0000*69
2471,3,0.04,-0.02,-0.08,0.00,0.00,0.06,0.7158,0.0095,0.0902,-0.6924,$GPGGA,143414.200,3850.1228,N,07730.3436,W,2,09,0.88,52.3,M,-33.4,M,0000,0000*6A
2472,3,0.03,0.00,-0.08,-0.06,0.00,-0.06,0.7158,0.0095,0.0902,-0.6924,$GPGGA,143414.300,3850.1228,N,07730.3436,W,2,09,0.88,52.3,M,-33.4,M,0000,0000*6B
2473,3,0.03,-0.03,-0.07,0.06,-0.06,0.00,0.7158,0.0095,0.0902,-0.6924,$GPGGA,143414.400,3850.1228,N,07730.3436,W,2,09,0.88,52.3,M,-33.4,M,0000,0000*6C
2474,3,0.03,-0.01,-0.06,-0.06,0.06,0.06,0.7158,0.0095,0.0902,-0.6924,$GPGGA,143414.500,3850.1228,N,07730.3436,W,2,09,0.88,52.3,M,-33.4,M,0000,0000*6D
2475,3,0.03,-0.03,-0.09,0.06,-0.19,0.00,0.7158,0.0095,0.0902,-0.6924,$GPGGA,143414.600,3850.1228,N,07730.3436,W,2,09,0.88,52.3,M,-33.4,M,0000,0000*6E
2476,3,0.03,-0.01,-0.08,-0.06,-0.06,0.00,0.7158,0.0095,0.0902,-0.6924,$GPGGA,143414.700,3850.1228,N,07730.3436,W,2,09,0.88,52.3,M,-33.4,M,0000,0000*6F
2477,3,0.04,-0.02,-0.06,-0.06,0.00,0.00,0.7158,0.0095,0.0902,-0.6924,$GPGGA,143414.800,3850.1228,N,07730.3436,W,2,09,0.88,52.3,M,-33.4,M,0000,0000*60
2478,3,0.04,-0.02,-0.09,0.13,-0.13,0.06,0.7158,0.0095,0.0902,-0.6924,$GPGGA,143414.900,3850.1228,N,07730.3436,W,2,09,0.88,52.3,M,-33.4,M,0000,0000*61
2479,3,0.04,-0.02,-0.08,-0.06,0.19,0.00,0.7158,0.0095,0.0902,-0.6924,$GPGGA,143415.000,3850.1228,N,07730.3436,W,2,09,0.88,52.3,M,-33.4,M,0000,0000*69
2480,3,0.03,-0.02,-0.09,0.00,0.06,0.06,0.7158,0.0095,0.0902,-0.6924,$GPGGA,143415.100,3850.1228,N,07730.3436,W,2,09,0.88,52.3,M,-33.4,M,0000,0000*68
2481,3,0.03,-0.01,-0.07,0.06,-0.19,0.00,0.7158,0.0095,0.0902,-0.6924,$GPGGA,143415.200,3850.1228,N,07730.3436,W,2,09,0.88,52.3,M,-33.4,M,0000,0000*6B
2482,3,0.03,-0.01,-0.08,0.00,0.13,-0.06,0.7158,0.0095,0.0902,-0.6924,$GPGGA,143415.300,3850.1228,N,07730.3436,W,2,09,0.88,52.3,M,-33.4,M,0000,0000*6A
2483,3,0.03,-0.02,-0.12,-0.19,-0.06,0.06,0.7158,0.0095,0.0902,-0.6924,$GPGGA,143415.400,3850.1228,N,07730.3436,W,2,09,0.88,52.3,M,-33.4,M,0000,0000*6D
2484,3,0.03,-0.02,-0.09,0.13,0.06,0.00,0.7158,0.0095,0.0902,-0.6924,$GPGGA,143415.500,3850.1228,N,07730.3436,W,2,09,0.88,52.3,M,-33.4,M,0000,0000*6C
2485,3,0.02,-0.02,-0.09,0.00,0.13,0.00,0.7158,0.0095,0.0902,-0.6924,$GPGGA,143415.600,3850.1228,N,07730.3436,W,2,09,0.88,52.3,M,-33.4,M,0000,0000*6F
2486,3,0.03,-0.02,-0.07,-0.06,-0.13,-0.13,0.7158,0.0095,0.0902,-0.6924,$GPGGA,143415.700,3850.1228,N,07730.3436,W,2,09,0.88,52.3,M,-33.4,M,0000,0000*6E
2487,3,0.02,-0.03,-0.08,-0.06,0.06,-0.06,0.7158,0.0095,0.0902,-0.6924,$GPGGA,143415.800,3850.1228,N,07730.3436,W,2,09,0.88,52.3,M,-33.4,M,0000,0000*61
2488,3,0.01,0.00,-0.09,0.00,-0.06,0.13,0.7158,0.0095,0.0902,-0.6924,$GPGGA,143415.900,3850.1228,N,07730.3436,W,2,09,0.88,52.3,M,-33.4,M,0000,0000*60
2489,3,0.03,-0.03,-0.06,0.06,0.25,0.00,0.7158,0.0095,0.0902,-0.6924,$GPGGA,143416.000,3850.1228,N,07730.3436,W,2,09,0.88,52.3,M,-33.4,M,0000,0000*6A
2490,3,0.00,0.00,-0.09,-0.13,0.19,0.00,0.7158,0.0095,0.0902,-0.6924,$GPGGA,143416.100,3850.1228,N,07730.3436,W,2,09,0.88,52.3,M,-33.4,M,0000,0000*6B
2491,3,0.03,-0.02,-0.07,-0.06,-0.13,0.06,0.7158,0.0095,0.0902,-0.6924,$GPGGA,143416.200,3850.1228,N,07730.3436,W,2,09,0.88,52.3,M,-33.4,M,0000,0000*68
2492,3,0.03,-0.03,-0.09,0.06,-0.06,0.13,0.7158,0.0095,0.0902,-0.6924,$GPGGA,143416.300,3850.1228,N,07730.3436,W,2,09,0.88,52.3,M,-33.4,M,0000,0000*69
2493,3,0.03,0.00,-0.08,0.06,-0.19,0.06,0.7158,0.0095,0.0902,-0.6924,$GPGGA,143416.400,3850.1228,N,07730.3436,W,2,09,0.88,52.3,M,-33.4,M,0000,0000*6E
2494,3,0.04,-0.01,-0.09,0.13,0.00,0.06,0.7158,0.0095,0.0902,-0.6924,$GPGGA,143416.500,3850.1228,N,07730.3436,W,2,09,0.88,52.3,M,-33.4,M,0000,0000*6F
2495,3,0.03,-0.01,-0.07,0.00,0.00,0.00,0.7158,0.0095,0.0902,-0.6924,$GPGGA,143416.600,3850.1228,N,07730.3436,W,2,09,0.88,52.3,M,-33.4,M,0000,0000*6C
2496,3,0.01,-0.03,-0.08,-0.13,0.00,0.13,0.7158,0.0095,0.0902,-0.6924,$GPGGA,143416.700,3850.1228,N,07730.3436,W,2,09,0.88,52.3,M,-33.4,M,0000,0000*6D
2497,3,0.03,-0.02,-0.07,0.13,-0.25,-0.06,0.7158,0.0095,0.0902,-0.6924,$GPGGA,143416.800,3850.1228,N,07730.3436,W,2,09,0.88,52.3,M,-33.4,M,0000,0000*62
2498,3,0.02,-0.03,-0.08,-0.06,0.06,-0.06,0.7158,0.0095,0.0902,-0.6924,$GPGGA,143416.900,3850.1228,N,07730.3436,W,2,09,0.88,52.3,M,-33.4,M,0000,0000*63
2499,3,0.03,-0.01,-0.07,0.13,0.00,0.06,0.7158,0.0095,0.0902,-0.6924,$GPGGA,143417.000,3850.1228,N,07730.3436,W,2,09,0.88,52.3,M,-33.4,M,0000,0000*6B
2500,3,0.03,-0.03,-0.08,0.06,-0.13,0.06,0.7158,0.0095,0.0902,-0.6924,$GPGGA,143417.100,3850.1228,N,07730.3436,W,2,09,0.88,52.3,M,-33.4,M,0000,0000*6A
2501,3,0.04,-0.01,-0.09,-0.06,0.00,0.13,0.7158,0.0095,0.0902,-0.6924,$GPGGA,143417.200,3850.1228,N,07730.3436,W,2,09,0.88,52.3,M,-33.4,M,0000,0000*69
2502,3,0.02,-0.02,-0.07,-0.06,0.19,0.00,0.7158,0.0095,0.0902,-0.6924,$GPGGA,143417.300,3850.1228,N,07730.3436,W,2,09,0.88,52.3,M,-33.4,M,0000,0000*68
2503,3,0.05,-0.02,-0.05,0.13,-0.06,0.00,0.7158,0.0095,0.0902,-0.6924,$GPGGA,143417.400,3850.1228,N,07730.3436,W,2,09,0.88,52.3,M,-33.4,M,0000,0000*6F
2504,3,0.02,-0.02,-0.07,-0.13,0.06,0.00,0.7158,0.0095,0.0902,-0.6924,$GPGGA,143417.500,3850.1228,N,07730.3436,W,2,09,0.88,52.3,M,-33.4,M,0000,0000*6E
2505,3,0.03,-0.02,-0.06,-0.13,-0.13,0.06,0.7158,0.0095,0.0902,-0.6924,$GPGGA,143417.600,3850.1228,N,07730.3436,W,2,09,0.88,52.3,M,-33.4,M,0000,0000*6D
2506,3,0.03,-0.02,-0.09,0.00,0.13,0.00,0.7158,0.0095,0.0902,-0.6924,$GPGGA,143417.700,3850.1228,N,07730.3436,W,2,09,0.88,52.3,M,-33.4,M,0000,0000*6C
2507,3,0.02,-0.01,-0.06,0.00,0.00,0.13,0.7158,0.0095,0.0902,-0.6924,$GPGGA,143417.800,3850.1228,N,07730.3436,W,2,09,0.88,52.3,M,-33.4,M,0000,0000*63
2508,3,0.04,-0.01,-0.04,-0.06,0.00,-0.06,0.7158,0.0095,0.0902,-0.6924,$GPGGA,143417.900,3850.1228,N,07730.3436,W,2,09,0.88,52.3,M,-33.4,M,0000,0000*62
2509,3,0.03,-0.02,-0.08,-0.19,0.13,-0.06,0.7158,0.0095,0.0902,-0.6924,$GPGGA,143418.000,3850.1228,N,07730.3436,W,2,09,0.88,52.3,M,-33.4,M,0000,0000*64
2510,3,0.03,-0.03,-0.06,0.06,0.06,0.06,0.7158,0.0095,0.0902,-0.6924,$GPGGA,143418.100,3850.1228,N,07730.3436,W,2,09,0.88,52.3,M,-33.4,M,0000,0000*65
2511,3,0.03,0.00,-0.08,-0.13,-0.13,0.06,0.7158,0.0095,0.0902,-0.6924,$GPGGA,143418.200,3850.1228,N,07730.3436,W,2,09,0.88,52.3,M,-33.4,M,0000,0000*66
2512,3,0.02,-0.02,-0.08,-0.06,-0.06,0.00,0.7158,0.0095,0.0902,-0.6924,$GPGGA,143418.300,3850.1228,N,07730.3436,W,2,09,0.88,52.3,M,-33.4,M,0000,0000*67
2513,3,0.03,-0.01,-0.08,0.00,-0.06,0.13,0.7158,0.0095,0.0902,-0.6924,$GPGGA,143418.400,3850.1228,N,07730.3436,W,2,09,0.88,52.3,M,-33.4,M,0000,0000*60
2514,3,0.01,0.00,-0.08,0.00,-0.06,0.06,0.7158,0.0095,0.0902,-0.6924,$GPGGA,143418.500,3850.1228,N,07730.3436,W,2,09,0.88,52.3,M,-33.4,M,0000,0000*61
2515,3,0.02,0.00,-0.07,0.00,0.19,-0.06,0.7158,0.0095,0.0902,-0.6924,$GPGGA,143418.600,3850.1228,N,07730.3436,W,2,09,0.88,52.3,M,-33.4,M,0000,0000*62
2516,3,0.02,-0.03,-0.04,0.00,-0.19,0.06,0.7158,0.0095,0.0902,-0.6924,$GPGGA,143418.700,3850.1228,N,07730.3436,W,2,09,0.88,52.3,M,-33.4,M,0000,0000*63
2517,3,0.02,-0.03,-0.08,-0.06,0.06,0.00,0.7158,0.0095,0.0902,-0.6924,$GPGGA,143418.800,3850.1228,N,07730.3436,W,2,09,0.88,52.3,M,-33.4,M,0000,0000*6C
2518,3,0.03,-0.03,-0.08,0.19,0.13,0.00,0.7158,0.0095,0.0902,-0.6924,$GPGGA,143418.900,3850.1228,N,07730.3436,W,2,09,0.88,52.3,M,-33.4,M,0000,0000*6D
2519,3,0.01,-0.01,-0.07,0.00,0.06,0.00,0.7158,0.0095,0.0902,-0.6924,$GPGGA,143419.000,3850.1228,N,07730.3436,W,2,09,0.88,52.3,M,-33.4,M,0000,0000*65
2520,3,0.03,-0.03,-0.06,0.00,0.13,-0.13,0.7158,0.0095,0.0902,-0.6924,$GPGGA,143419.100,3850.1228,N,07730.3436,W,2,09,0.88,52.3,M,-33.4,M,0000,0000*64
2521,3,0.03,-0.01,-0.09,0.13,0.06,0.13,0.7158,0.0095,0.0902,-0.6924,$GPGGA,143419.200,3850.1228,N,07730.3436,W,2,09,0.88,52.3,M,-33.4,M,0000,0000*67
2522,3,0.03,-0.02,-0.07,0.06,0.00,0.06,0.7158,0.0095,0.0902,-0.6924,$GPGGA,143419.300,3850.1228,N,07730.3436,W,2,09,0.88,52.3,M,-33.4,M,0000,0000*66
2523,3,0.02,-0.03,-0.06,0.13,0.06,0.00,0.7158,0.0095,0.0902,-0.6924,$GPGGA,143419.400,3850.1228,N,07730.3436,W,2,09,0.88,52.3,M,-33.4,M,0000,0000*61
2524,3,0.04,0.00,-0.03,0.06,-0.06,0.06,0.7158,0.0095,0.0902,-0.6924,$GPGGA,143419.500,3850.1228,N,07730.3436,W,2,09,0.88,52.3,M,-33.4,M,0000,0000*60
2525,3,0.03,0.00,-0.06,0.00,0.25,0.00,0.7158,0.0095,0.0902,-0.6924,$GPGGA,143419.600,3850.1228,N,07730.3436,W,2,09,0.88,52.3,M,-33.4,M,0000,0000*63
2526,3,0.02,-0.01,-0.05,0.00,0.25,0.00,0.7158,0.0095,0.0902,-0.6924,$GPGGA,143419.700,3850.1228,N,07730.3436,W,2,09,0.88,52.3,M,-33.4,M,0000,0000*62
2527,3,0.03,0.00,-0.09,0.13,-0.25,0.06,0.7158,0.0095,0.0902,-0.6924,$GPGGA,143419.800,3850.1228,N,07730.3436,W,2,09,0.88,52.3,M,-33.4,M,0000,0000*6D
2528,3,0.03,-0.01,-0.05,0.06,-0.06,0.00,0.7158,0.0095,0.0902,-0.6924,$GPGGA,143419.900,3850.1228,N,07730.3436,W,2,09,0.88,52.3,M,-33.4,M,0000,0000*6C
2529,3,0.02,0.00,-0.08,0.00,0.06,0.06,0.7158,0.0095,0.0902,-0.6924,$GPGGA,143420.000,3850.1228,N,07730.3436,W,2,09,0.88,52.3,M,-33.4,M,0000,0000*6F
2530,3,0.03,-0.02,-0.09,0.06,-0.13,0.19,0.7158,0.0095,0.0902,-0.6924,$GPGGA,143420.100,3850.1228,N,07730.3436,W,2,09,0.88,52.3,M,-33.4,M,0000,0000*6E
2531,3,0.03,-0.01,-0.08,0.06,-0.06,-0.06,0.7158,0.0095,0.0902,-0.6924,$GPGGA,143420.200,3850.1228,N,07730.3436,W,2,09,0.88,52.3,M,-33.4,M,0000,0000*6D
2532,3,0.01,0.00,-0.06,0.06,0.00,0.00,0.7158,0.0095,0.0902,-0.6924,$GPGGA,143420.300,3850.1228,N,07730.3436,W,2,09,0.88,52.3,M,-33.4,M,0000,0000*6C
2533,3,0.02,-0.01,-0.08,-0.06,-0.06,0.00,0.7158,0.0095,0.0902,-0.6924,$GPGGA,143420.400,3850.1228,N,07730.3436,W,2,09,0.88,52.3,M,-33.4,M,0000,0000*6B
2534,3,0.00,-0.01,-0.06,0.13,0.19,0.06,0.7158,0.0095,0.0902,-0.6924,$GPGGA,143420.500,3850.1228,N,07730.3436,W,2,09,0.88,52.3,M,-33.4,M,0000,0000*6A
2535,3,0.02,-0.02,-0.06,0.00,-0.25,0.00,0.7158,0.0095,0.0902,-0.6924,$GPGGA,143420.600,3850.1228,N,07730.3436,W,2,09,0.88,52.3,M,-33.4,M,0000,0000*69
2536,3,0.03,-0.01,-0.05,0.06,0.13,0.06,0.7158,0.0095,0.0902,-0.6924,$GPGGA,143420.700,3850.1228,N,07730.3436,W,2,09,0.88,52.3,M,-33.4,M,0000,0000*68
2537,3,0.03,-0.03,-0.08,-0.19,-0.06,0.00,0.7158,0.0095,0.0902,-0.6924,$GPGGA,143420.800,3850.1228,N,07730.3436,W,2,09,0.88,52.3,M,-33.4,M,0000,0000*67
2538,3,0.04,-0.01,-0.05,0.06,0.13,-0.06,0.7158,0.0095,0.0902,-0.6924,$GPGGA,143420.900,3850.1228,N,07730.3436,W,2,09,0.88,52.3,M,-33.4,M,0000,0000*66
2539,3,0.01,-0.01,-0.07,-0.06,0.06,-0.06,0.7158,0.0095,0.0902,-0.6924,$GPGGA,143421.000,3850.1228,N,07730.3436,W,2,09,0.88,52.3,M,-33.4,M,0000,0000*6E
2540,3,0.02,-0.02,-0.08,0.00,0.31,0.06,0.7158,0.0095,0.0902,-0.6924,$GPGGA,143421.100,3850.1228,N,07730.3436,W,2,09,0.88,52.3,M,-33.4,M,0000,0000*6F
2541,3,0.03,-0.02,-0.07,-0.25,-0.06,0.00,0.7158,0.0095,0.0902,-0.6924,$GPGGA,143421.200,3850.1228,N,07730.3436,W,2,09,0.88,52.3,M,-33.4,M,0000,0000*6C
2542,3,0.02,-0.03,-0.06,0.00,0.00,0.00,0.7158,0.0095,0.0902,-0.6924,$GPGGA,143421.300,3850.1228,N,07730.3436,W,2,09,0.88,52.3,M,-33.4,M,0000,0000*6D
2543,3,0.02,-0.03,-0.06,-0.13,0.06,-0.06,0.7158,0.0095,0.0902,-0.6924,$GPGGA,143421.400,3850.1228,N,07730.3436,W,2,09,0.88,52.3,M,-33.4,M,0000,0000*6A
2544,3,0.02,-0.03,-0.05,0.00,0.00,0.00,0.7158,0.0095,0.0902,-0.6924,$GPGGA,143421.500,3850.1228,N,07730.3436,W,2,09,0.88,52.3,M,-33.4,M,0000,0000*6B
2545,3,0.03,0.00,-0.04,0.00,0.13,-0.06,0.7158,0.0095,0.0902,-0.6924,$GPGGA,143421.600,3850.1228,N,07730.3436,W,2,09,0.88,52.3,M,-33.4,M,0000,0000*68
2546,3,0.02,-0.03,-0.05,-0.13,0.25,-0.06,0.7158,0.0095,0.0902,-0.6924,$GPGGA,143421.700,3850.1228,N,07730.3436,W,2,09,0.88,52.3,M,-33.4,M,0000,0000*69
2547,3,0.04,-0.03,-0.08,-0.06,0.00,0.00,0.7158,0.0095,0.0902,-0.6924,$GPGGA,143421.800,3850.1228,N,07730.3436,W,2,09,0.88,52.3,M,-33.4,M,0000,0000*66
2548,3,0.04,-0.03,-0.06,-0.19,0.13,0.00,0.7158,0.0095,0.0902,-0.6924,$GPGGA,143421.900,3850.1228,N,07730.3436,W,2,09,0.88,52.3,M,-33.4,M,0000,0000*67
2549,3,0.02,-0.02,-0.09,-0.06,0.13,-0.06,0.7158,0.0095,0.0902,-0.6924,$GPGGA,143422.000,3850.1228,N,07730.3436,W,2,09,0.88,52.3,M,-33.4,M,0000,0000*6D
2550,3,0.03,-0.02,-0.06,0.00,0.06,0.00,0.7158,0.0095,0.0902,-0.6924,$GPGGA,143422.100,3850.1228,N,07730.3436,W,2,09,0.88,52.3,M,-33.4,M,0000,0000*6C
2551,3,0.04,-0.03,-0.06,0.06,-0.06,0.06,0.7158,0.0095,0.0902,-0.6924,$GPGGA,143422.200,3850.1228,N,07730.3436,W,2,09,0.88,52.3,M,-33.4,M,0000,0000*6F
2552,3,0.03,-0.02,-0.05,0.19,-0.19,-0.06,0.7158,0.0095,0.0902,-0.6924,$GPGGA,143422.300,3850.1228,N,07730.3436,W,2,09,0.88,52.3,M,-33.4,M,0000,0000*6E
2553,3,0.03,-0.03,-0.08,-0.19,0.13,0.00,0.7158,0.0095,0.0902,-0.6924,$GPGGA,143422.400,3850.1228,N,07730.3436,W,2,09,0.88,52.3,M,-33.4,M,0000,0000*69
2554,3,0.03,-0.01,-0.06,0.06,0.00,0.00,0.7158,0.0095,0.0902,-0.6924,$GPGGA,143422.500,3850.1228,N,07730.3436,W,2,09,0.88,52.3,M,-33.4,M,0000,0000*68
2555,3,0.02,-0.01,-0.07,0.00,-0.19,0.00,0.7158,0.0095,0.0902,-0.6924,$GPGGA,143422.600,3850.1228,N,07730.3436,W,2,09,0.88,52.3,M,-33.4,M,0000,0000*6B
2556,3,0.02,-0.01,-0.03,0.13,0.25,-0.06,0.7158,0.0095,0.0902,-0.6924,$GPGGA,143422.700,3850.1228,N,07730.3436,W,2,09,0.88,52.3,M,-33.4,M,0000,0000*6A
2557,3,0.03,-0.01,-0.08,0.06,0.19,0.13,0.7158,0.0095,0.0902,-0.6924,$GPGGA,143422.800,3850.1228,N,07730.3436,W,2,09,0.88,52.3,M,-33.4,M,0000,0000*65
2558,3,0.02,0.00,-0.07,0.13,0.00,0.00,0.7158,0.0095,0.0902,-0.6924,$GPGGA,143422.900,3850.1228,N,07730.3436,W,2,09,0.88,52.3,M,-33.4,M,0000,0000*64
2559,3,0.02,-0.02,-0.07,-0.13,0.06,0.00,0.7158,0.0095,0.0902,-0.6924,$GPGGA,143423.000,3850.1228,N,07730.3436,W,2,09,0.88,52.3,M,-33.4,M,0000,0000*6C
2560,3,0.02,-0.03,-0.06,0.00,0.06,0.06,0.7158,0.0095,0.0902,-0.6924,$GPGGA,143423.100,3850.1228,N,07730.3436,W,2,09,0.88,52.3,M,-33.4,M,0000,0000*6D
2561,3,0.03,-0.01,-0.06,0.06,0.00,0.06,0.7158,0.0095,0.0902,-0.6924,$GPGGA,143423.200,3850.1228,N,07730.3436,W,2,09,0.88,52.3,M,-33.4,M,0000,0000*6E
2562,3,0.03,-0.02,-0.09,-0.06,0.13,0.00,0.7158,0.0095,0.0902,-0.6924,$GPGGA,143423.300,3850.1228,N,07730.3436,W,2,09,0.88,52.3,M,-33.4,M,0000,0000*6F
2563,3,0.03,-0.01,-0.07,0.00,0.25,0.13,0.7158,0.0095,0.0902,-0.6924,$GPGGA,143423.400,3850.1228,N,07730.3436,W,2,09,0.88,52.3,M,-33.4,M,0000,0000*68
2564,3,0.03,-0.01,-0.08,0.00,-0.06,-0.06,0.7158,0.0095,0.0902,-0.6924,$GPGGA,143423.500,3850.1228,N,07730.3436,W,2,09,0.88,52.3,M,-33.4,M,0000,0000*69
2565,3,0.02,0.00,-0.05,-0.06,0.19,0.00,0.7158,0.0095,0.0902,-0.6924,$GPGGA,143423.600,3850.1228,N,07730.3436,W,2,09,0.88,52.3,M,-33.4,M,0000,0000*6A
2566,3,0.03,-0.01,-0.09,0.06,0.00,0.00,0.7158,0.0095,0.0902,-0.6924,$GPGGA,143423.700,3850.1228,N,07730.3436,W,2,09,0.88,52.3,M,-33.4,M,0000,0000*6B
2567,3,0.03,-0.03,-0.07,-0.06,0.19,0.06,0.7158,0.0095,0.0902,-0.6924,$GPGGA,143423.800,3850.1228,N,07730.3436,W,2,09,0.88,52.3,M,-33.4,M,0000,0000*64
2568,3,0.04,0.00,-0.09,-0.06,0.06,0.00,0.7158,0.0095,0.0902,-0.6924,$GPGGA,143423.900,3850.1228,N,07730.3436,W,2,09,0.88,52.3,M,-33.4,M,0000,0000*65
2569,3,0.03,-0.02,-0.07,0.00,-0.06,0.00,0.7158,0.0095,0.0902,-0.6924,$GPGGA,143424.000,3850.1228,N,07730.3436,W,2,09,0.88,52.3,M,-33.4,M,0000,0000*6B
2570,3,0.03,-0.01,-0.08,0.06,-0.06,0.06,0.7158,0.0095,0.0902,-0.6924,$GPGGA,143424.100,3850.1228,N,07730.3436,W,2,09,0.88,52.3,M,-33.4,M,0000,0000*6A
2571,3,0.01,-0.02,-0.09,0.00,-0.13,0.06,0.7158,0.0095,0.0902,-0.6924,$GPGGA,143424.200,3850.1228,N,07730.3436,W,2,09,0.88,52.3,M,-33.4,M,0000,0000*69
2572,3,0.03,-0.01,-0.08,-0.13,-0.19,0.19,0.7158,0.0095,0.0902,-0.6924,$GPGGA,143424.300,3850.1228,N,07730.3436,W,2,09,0.88,52.3,M,-33.4,M,0000,0000*68
2573,3,0.02,-0.01,-0.08,-0.06,0.06,-0.06,0.7158,0.0095,0.0902,-0.6924,$GPGGA,143424.400,3850.1228,N,07730.3436,W,2,09,0.88,52.3,M,-33.4,M,0000,0000*6F
2574,3,0.04,-0.03,-0.09,0.06,-0.13,-0.06,0.7158,0.0095,0.0902,-0.6924,$GPGGA,143424.500,3850.1228,N,07730.3436,W,2,09,0.88,52.3,M,-33.4,M,0000,0000*6E
2575,3,0.04,-0.01,-0.09,0.06,-0.06,0.06,0.7158,0.0095,0.0902,-0.6924,$GPGGA,143424.600,3850.1228,N,07730.3436,W,2,09,0.88,52.3,M,-33.4,M,0000,0000*6D
2576,3,0.03,-0.03,-0.10,-0.06,0.06,0.06,0.7158,0.0095,0.0902,-0.6924,$GPGGA,143424.700,3850.1228,N,07730.3436,W,2,09,0.88,52.3,M,-33.4,M,0000,0000*6C
2577,3,0.04,-0.02,-0.07,0.06,0.13,0.00,0.7158,0.0095,0.0902,-0.6924,$GPGGA,143424.800,3850.1228,N,07730.3436,W,2,09,0.88,52.3,M,-33.4,M,0000,0000*63
2578,3,0.03,-0.02,-0.07,0.00,0.06,0.06,0.7158,0.0095,0.0902,-0.6924,$GPGGA,143424.900,3850.1228,N,07730.3436,W,2,09,0.88,52.3,M,-33.4,M,0000,0000*62
2579,3,0.01,-0.01,-0.07,0.13,0.13,-0.06,0.7158,0.0095,0.0902,-0.6924,$GPGGA,143425.000,3850.1228,N,07730.3436,W,2,09,0.88,52.3,M,-33.4,M,0000,0000*6A
2580,3,0.01,-0.01,-0.06,-0.06,0.19,0.00,0.7158,0.0095,0.0902,-0.6924,$GPGGA,143425.100,3850.1228,N,07730.3436,W,2,09,0.88,52.3,M,-33.4,M,0000,0000*6B
2581,3,0.03,-0.01,-0.10,0.00,-0.19,0.00,0.7158,0.0095,0.0902,-0.6924,$GPGGA,143425.200,3850.1228,N,07730.3436,W,2,09,0.88,52.3,M,-33.4,M,0000,0000*68
2582,3,0.03,-0.02,-0.07,0.00,0.00,-0.06,0.7158,0.0095,0.0902,-0.6924,$GPGGA,143425.300,3850.1228,N,07730.3436,W,2,09,0.88,52.3,M,-33.4,M,0000,0000*69
2583,3,0.03,-0.03,-0.10,-0.25,0.13,0.00,0.7158,0.0095,0.0902,-0.6924,$GPGGA,143425.400,3850.1228,N,07730.3436,W,2,09,0.88,52.3,M,-33.4,M,0000,0000*6E
2584,3,0.03,-0.03,-0.08,-0.13,0.13,0.13,0.7158,0.0095,0.0902,-0.6924,$GPGGA,143425.500,3850.1228,N,07730.3436,W,2,09,0.88,52.3,M,-33.4,M,0000,0000*6F
2585,3,0.01,-0.02,-0.10,0.00,0.13,0.06,0.7158,0.0095,0.0902,-0.6924,$GPGGA,143425.600,3850.1228,N,07730.3436,W,2,09,0.88,52.3,M,-33.4,M,0000,0000*6C
2586,3,0.03,-0.03,-0.06,0.00,0.19,0.06,0.7158,0.0095,0.0902,-0.6924,$GPGGA,143425.700,3850.1228,N,07730.3436,W,2,09,0.88,52.3,M,-33.4,M,0000,0000*6D
2587,3,0.04,-0.02,-0.10,-0.13,-0.06,0.00,0.7158,0.0095,0.0902,-0.6924,$GPGGA,143425.800,3850.1228,N,07730.3436,W,2,09,0.88,52.3,M,-33.4,M,0000,0000*62
2588,3,0.00,-0.02,-0.11,0.00,-0.13,-0.06,0.7158,0.0095,0.0902,-0.6924,$GPGGA,143425.900,3850.1228,N,07730.3436,W,2,09,0.88,52.3,M,-33.4,M,0000,0000*63
2589,3,0.03,-0.02,-0.08,-0.06,0.06,0.00,0.7158,0.0095,0.0902,-0.6924,$GPGGA,143426.000,3850.1228,N,07730.3436,W,2,09,0.88,52.3,M,-33.4,M,0000,0000*69
2590,3,0.03,-0.02,-0.08,-0.06,0.00,0.06,0.7158,0.0095,0.0902,-0.6924,$GPGGA,143426.100,3850.1228,N,07730.3436,W,2,09,0.88,52.3,M,-33.4,M,0000,0000*68
2591,3,0.05,-0.02,-0.08,-0.13,0.06,0.00,0.7158,0.0095,0.0902,-0.6924,$GPGGA,143426.200,3850.1228,N,07730.3436,W,2,09,0.88,52.3,M,-33.4,M,0000,0000*6B
2592,3,0.03,-0.02,-0.07,0.00,0.06,0.00,0.7158,0.0095,0.0902,-0.6924,$GPGGA,143426.300,3850.1228,N,07730.3436,W,2,09,0.88,52.3,M,-33.4,M,0000,0000*6A
2593,3,0.02,-0.03,-0.09,0.00,-0.13,0.06,0.7158,0.0095,0.0902,-0.6924,$GPGGA,143426.400,3850.1228,N,07730.3436,W,2,09,0.88,52.3,M,-33.4,M,0000,0000*6D
2594,3,0.02,-0.01,-0.10,0.00,0.06,0.00,0.7158,0.0095,0.0902,-0.6924,$GPGGA,143426.500,3850.1228,N,07730.3436,W,2,09,0.88,52.3,M,-33.4,M,0000,0000*6C
2595,3,0.03,-0.01,-0.07,0.00,0.06,0.06,0.7158,0.0095,0.0902,-0.6924,$GPGGA,143426.600,3850.1228,N,07730.3436,W,2,09,0.88,52.3,M,-33.4,M,0000,0000*6F
2596,3,0.03,-0.02,-0.09,0.19,0.25,0.06,0.7158,0.0095,0.0902,-0.6924,$GPGGA,143426.700,3850.1228,N,07730.3436,W,2,09,0.88,52.3,M,-33.4,M,0000,0000*6E
2597,3,0.02,-0.01,-0.09,0.00,0.00,0.00,0.7158,0.0095,0.0902,-0.6924,$GPGGA,143426.800,3850.1228,N,07730.3436,W,2,09,0.88,52.3,M,-33.4,M,0000,0000*61
2598,3,0.02,-0.01,-0.09,0.00,-0.06,0.00,0.7158,0.0095,0.0902,-0.6924,$GPGGA,143426.900,3850.1228,N,07730.3436,W,2,09,0.88,52.3,M,-33.4,M,0000,0000*60
2599,3,0.03,-0.03,-0.09,-0.19,0.19,0.06,0.7158,0.0095,0.0902,-0.6924,$GPGGA,143427.000,3850.1228,N,07730.3436,W,2,09,0.88,52.3,M,-33.4,M,0000,0000*68
2600,3,0.02,-0.02,-0.08,-0.19,-0.19,0.00,0.7158,0.0095,0.0902,-0.6924,$GPGGA,143427.100,3850.1228,N,07730.3436,W,2,09,0.88,52.3,M,-33.4,M,0000,0000*69
2601,3,0.03,-0.01,-0.09,0.00,0.00,0.13,0.7158,0.0095,0.0902,-0.6924,$GPGGA,143427.200,3850.1228,N,07730.3436,W,2,09,0.88,52.3,M,-33.4,M,0000,0000*6A
2602,3,0.02,-0.02,-0.08,0.00,-0.19,0.00,0.7158,0.0095,0.0902,-0.6924,$GPGGA,143427.300,3850.1228,N,07730.3436,W,2,09,0.88,52.3,M,-33.4,M,0000,0000*6B
2603,3,0.03,0.00,-0.05,0.06,-0.06,0.06,0.7158,0.0095,0.0902,-0.6924,$GPGGA,143427.400,3850.1229,N,07730.3436,W,2,09,0.88,52.3,M,-33.4,M,0000,0000*6D
2604,3,0.03,-0.01,-0.06,0.00,0.13,0.00,0.7158,0.0095,0.0902,-0.6924,$GPGGA,143427.500,3850.1229,N,07730.3436,W,2,09,0.88,52.3,M,-33.4,M,0000,0000*6C
2605,3,0.03,-0.02,-0.06,0.00,0.19,0.06,0.7158,0.0095,0.0902,-0.6924,$GPGGA,143427.600,3850.1229,N,07730.3436,W,2,09,0.88,52.3,M,-33.4,M,0000,0000*6F
2606,3,0.04,-0.03,-0.05,-0.06,0.06,0.06,0.7158,0.0095,0.0902,-0.6924,$GPGGA,143427.700,3850.1229,N,07730.3436,W,2,09,0.88,52.3,M,-33.4,M,0000,0000*6E
2607,3,0.05,0.00,-0.08,0.13,0.25,0.00,0.7158,0.0095,0.0902,-0.6924,$GPGGA,143427.800,3850.1229,N,07730.3436,W,2,09,0.88,52.3,M,-33.4,M,0000,0000*61
2608,3,0.04,-0.02,-0.06,-0.13,0.00,-0.06,0.7158,0.0095,0.0902,-0.6924,$GPGGA,143427.900,3850.1229,N,07730.3436,W,2,09,0.88,52.3,M,-33.4,M,0000,0000*60
2609,3,0.02,0.00,-0.06,-0.06,0.13,0.06,0.7158,0.0095,0.0902,-0.6924,$GPGGA,143428.000,3850.1229,N,07730.3436,W,2,09,0.88,52.3,M,-33.4,M,0000,0000*66
2610,3,0.01,-0.02,-0.07,0.06,0.06,0.00,0.7158,0.0095,0.0902,-0.6924,$GPGGA,143428.100,3850.1229,N,07730.3436,W,2,09,0.88,52.3,M,-33.4,M,0000,0000*67
2611,3,0.03,-0.03,-0.09,-0.06,0.00,0.00,0.7158,0.0095,0.0902,-0.6924,$GPGGA,143428.200,3850.1229,N,07730.3436,W,2,09,0.88,52.3,M,-33.4,M,0000,0000*64
2612,3,0.02,-0.03,-0.06,0.00,-0.06,0.00,0.7158,0.0095,0.0902,-0.6924,$GPGGA,143428.300,3850.1229,N,07730.3436,W,2,09,0.88,52.3,M,-33.4,M,0000,0000*65
2613,3,0.03,-0.01,-0.07,0.00,0.06,0.06,0.7158,0.0095,0.0902,-0.6924,$GPGGA,143428.400,3850.1229,N,07730.3436,W,2,09,0.88,52.3,M,-33.4,M,0000,0000*62
2614,3,0.03,-0.03,-0.09,0.00,0.00,0.06,0.7158,0.0095,0.0902,-0.6924,$GPGGA,143428.500,3850.1229,N,07730.3436,W,2,09,0.88,52.3,M,-33.4,M,0000,0000*63
2615,3,0.03,-0.02,-0.07,0.00,-0.25,0.19,0.7158,0.0095,0.0902,-0.6924,$GPGGA,143428.600,3850.1229,N,07730.3436,W,2,09,0.88,52.3,M,-33.4,M,0000,0000*60
2616,3,0.03,-0.02,-0.07,0.06,-0.06,-0.06,0.7158,0.0095,0.0902,-0.6924,$GPGGA,143428.700,3850.1229,N,07730.3436,W,2,09,0.88,52.3,M,-33.4,M,0000,0000*61
2617,3,0.02,-0.03,-0.06,-0.06,0.13,0.00,0.7158,0.0095,0.0902,-0.6924,$GPGGA,143428.800,3850.1229,N,07730.3436,W,2,09,0.88,52.3,M,-33.4,M,0000,0000*6E
2618,3,0.02,-0.03,-0.08,-0.19,-0.25,0.13,0.7158,0.0095,0.0902,-0.6924,$GPGGA,143428.900,3850.1229,N,07730.3436,W,2,09,0.88,52.3,M,-33.4,M,0000,0000*6F
2619,3,0.02,-0.04,-0.05,0.06,-0.13,0.00,0.7158,0.0095,0.0902,-0.6924,$GPGGA,143429.000,3850.1229,N,07730.3436,W,2,09,0.88,52.3,M,-33.4,M,0000,0000*67
2620,3,0.00,-0.01,-0.06,0.00,0.31,0.06,0.7158,0.0095,0.0902,-0.6924,$GPGGA,143429.100,3850.1229,N,07730.3436,W,2,09,0.88,52.3,M,-33.4,M,0000,0000*66
2621,3,0.03,-0.02,-0.09,0.00,0.31,0.06,0.7158,0.0095,0.0902,-0.6924,$GPGGA,143429.200,3850.1229,N,07730.3436,W,2,09,0.88,52.3,M,-33.4,M,0000,0000*65
2622,3,0.02,-0.02,-0.06,0.13,0.06,0.06,0.7158,0.0095,0.0902,-0.6924,$GPGGA,143429.300,3850.1229,N,07730.3436,W,2,09,0.88,52.3,M,-33.4,M,0000,0000*64
2623,3,0.03,-0.01,-0.08,0.00,0.06,0.00,0.7158,0.0095,0.0902,-0.6924,$GPGGA,143429.400,3850.1229,N,07730.3436,W,2,09,0.88,52.3,M,-33.4,M,0000,0000*63
2624,3,0.04,-0.01,-0.07,0.13,-0.13,0.13,0.7158,0.0095,0.0902,-0.6924,$GPGGA,143429.500,3850.1229,N,07730.3435,W,2,09,0.88,52.3,M,-33.4,M,0000,0000*61
2625,3,0.03,-0.01,-0.08,0.00,0.13,0.00,0.7158,0.0095,0.0902,-0.6924,$GPGGA,143429.600,3850.1229,N,07730.3435,W,2,09,0.88,52.3,M,-33.4,M,0000,0000*62
2626,3,0.04,-0.01,-0.08,-0.13,-0.06,0.00,0.7158,0.0095,0.0902,-0.6924,$GPGGA,143429.700,3850.1229,N,07730.3435,W,2,09,0.88,52.3,M,-33.4,M,0000,0000*63
2627,3,0.02,-0.01,-0.05,0.19,-0.06,0.00,0.7158,0.0095,0.0902,-0.6924,$GPGGA,143429.800,3850.1229,N,07730.3435,W,2,09,0.88,52.3,M,-33.4,M,0000,0000*6C
2628,3,0.02,-0.03,-0.09,0.00,-0.19,0.06,0.7158,0.0095,0.0902,-0.6924,$GPGGA,143429.900,3850.1229,N,07730.3435,W,2,09,0.88,52.3,M,-33.4,M,0000,0000*6D
2629,3,0.03,-0.01,-0.06,0.00,0.13,0.00,0.7158,0.0095,0.0902,-0.6924,$GPGGA,143430.000,3850.1229,N,07730.3435,W,2,09,0.88,52.3,M,-33.4,M,0000,0000*6C
2630,3,0.04,-0.02,-0.07,0.00,-0.06,0.06,0.7158,0.0095,0.0902,-0.6924,$GPGGA,143430.100,3850.1229,N,07730.3435,W,2,09,0.88,52.3,M,-33.4,M,0000,0000*6D
2631,3,0.03,-0.01,-0.07,0.13,-0.25,0.00,0.7158,0.0095,0.0902,-0.6924,$GPGGA,143430.200,3850.1229,N,07730.3435,W,2,09,0.88,52.3,M,-33.4,M,0000,0000*6E
2632,3,0.05,-0.02,-0.06,0.06,0.06,-0.06,0.7158,0.0095,0.0902,-0.6924,$GPGGA,143430.300,3850.1229,N,07730.3435,W,2,09,0.88,52.3,M,-33.4,M,0000,0000*6F
2633,3,0.03,-0.04,-0.07,0.06,0.13,0.06,0.7158,0.0095,0.0902,-0.6924,$GPGGA,143430.400,3850.1229,N,07730.3435,W,2,09,0.88,52.3,M,-33.4,M,0000,0000*68
2634,3,0.03,0.00,-0.05,0.06,0.13,0.06,0.7158,0.0095,0.0902,-0.6924,$GPGGA,143430.500,3850.1229,N,07730.3435,W,2,09,0.88,52.3,M,-33.4,M,0000,0000*69
2635,3,0.03,-0.02,-0.07,0.00,-0.13,0.06,0.7158,0.0095,0.0902,-0.6924,$GPGGA,143430.600,3850.1229,N,07730.3435,W,2,09,0.88,52.3,M,-33.4,M,0000,0000*6A
2636,3,0.01,-0.03,-0.05,0.13,0.00,0.13,0.7158,0.0095,0.0902,-0.6924,$GPGGA,143430.700,3850.1229,N,07730.3435,W,2,09,0.88,52.3,M,-33.4,M,0000,0000*6B
2637,3,0.03,-0.02,-0.08,0.00,0.06,0.00,0.7158,0.0095,0.0902,-0.6924,$GPGGA,143430.800,3850.1229,N,07730.3436,W,2,09,0.88,52.3,M,-33.4,M,0000,0000*67
2638,3,0.03,-0.05,-0.07,0.06,0.13,0.00,0.7158,0.0095,0.0902,-0.6924,$GPGGA,143430.900,3850.1229,N,07730.3436,W,2,09,0.88,52.3,M,-33.4,M,0000,0000*66
2639,3,0.02,-0.03,-0.07,-0.13,-0.13,0.06,0.7158,0.0095,0.0902,-0.6924,$GPGGA,143431.000,3850.1229,N,07730.3436,W,2,09,0.88,52.3,M,-33.4,M,0000,0000*6E
2640,3,0.05,0.00,-0.07,0.06,-0.13,0.00,0.7158,0.0095,0.0902,-0.6924,$GPGGA,143431.100,3850.1229,N,07730.3436,W,2,09,0.88,52.3,M,-33.4,M,0000,0000*6F
2641,3,0.03,-0.01,-0.07,-0.13,0.00,0.00,0.7158,0.0095,0.0902,-0.6924,$GPGGA,143431.200,3850.1229,N,07730.3436,W,2,09,0.88,52.3,M,-33.4,M,0000,0000*6C
2642,3,0.03,-0.02,-0.06,-0.13,-0.06,0.06,0.7158,0.0095,0.0902,-0.6924,$GPGGA,143431.300,3850.1229,N,07730.3436,W,2,09,0.88,52.3,M,-33.4,M,0000,0000*6D
2643,3,0.04,-0.01,-0.07,0.00,0.06,-0.06,0.7158,0.0095,0.0902,-0.6924,$GPGGA,143431.400,3850.1229,N,07730.3436,W,2,09,0.88,52.3,M,-33.4,M,0000,0000*6A
2644,3,0.05,0.00,-0.06,0.13,-0.13,0.13,0.7158,0.0095,0.0902,-0.6924,$GPGGA,143431.500,3850.1229,N,07730.3436,W,2,09,0.88,52.3,M,-33.4,M,0000,0000*6B
2645,3,0.02,-0.01,-0.06,0.00,0.13,0.00,0.7158,0.0095,0.0902,-0.6924,$GPGGA,143431.600,3850.1229,N,07730.3436,W,2,09,0.88,52.3,M,-33.4,M,0000,0000*68
2646,3,0.02,-0.01,-0.07,0.00,-0.13,0.00,0.7158,0.0095,0.0902,-0.6924,$GPGGA,143431.700,3850.1229,N,07730.3436,W,2,09,0.88,52.3,M,-33.4,M,0000,0000*69
2647,3,0.03,-0.02,-0.07,0.00,-0.06,0.00,0.7158,0.0095,0.0902,-0.6924,$GPGGA,143431.800,3850.1229,N,07730.3436,W,2,09,0.88,52.3,M,-33.4,M,0000,0000*66
2648,3,0.00,-0.01,-0.07,0.06,0.06,0.00,0.7158,0.0095,0.0902,-0.6924,$GPGGA,143431.900,3850.1229,N,07730.3436,W,2,09,0.88,52.3,M,-33.4,M,0000,0000*67
2649,3,0.04,-0.01,-0.06,-0.06,0.06,0.00,0.7158,0.0095,0.0902,-0.6924,$GPGGA,143432.000,3850.1229,N,07730.3436,W,2,09,0.88,52.3,M,-33.4,M,0000,0000*6D
2650,3,0.03,-0.03,-0.06,0.19,-0.19,0.06,0.7158,0.0095,0.0902,-0.6924,$GPGGA,143432.100,3850.1229,N,07730.3436,W,2,09,0.88,52.3,M,-33.4,M,0000,0000*6C
2651,3,0.04,-0.02,-0.05,0.06,0.13,0.00,0.7158,0.0095,0.0902,-0.6924,$GPGGA,143432.200,3850.1229,N,07730.3436,W,2,09,0.88,52.3,M,-33.4,M,0000,0000*6F
2652,3,0.03,0.00,-0.06,-0.06,0.25,-0.19,0.7158,0.0095,0.0902,-0.6924,$GPGGA,143432.300,3850.1229,N,07730.3436,W,2,09,0.88,52.3,M,-33.4,M,0000,0000*6E
2653,3,0.03,-0.03,-0.06,0.00,0.19,0.00,0.7158,0.0095,0.0902,-0.6924,$GPGGA,143432.400,3850.1229,N,07730.3436,W,2,09,0.88,52.3,M,-33.4,M,0000,0000*69
2654,3,0.02,0.00,-0.09,0.13,-0.25,0.00,0.7158,0.0095,0.0902,-0.6924,$GPGGA,143432.500,3850.1229,N,07730.3436,W,2,09,0.88,52.3,M,-33.4,M,0000,0000*68
2655,3,0.03,-0.01,-0.07,-0.13,-0.13,0.06,0.7158,0.0095,0.0902,-0.6924,$GPGGA,143432.600,3850.1229,N,07730.3436,W,2,09,0.88,52.3,M,-33.4,M,0000,0000*6B
2656,3,0.03,-0.01,-0.09,0.00,-0.13,0.00,0.7158,0.0095,0.0902,-0.6924,$GPGGA,143432.700,3850.1229,N,07730.3436,W,2,09,0.88,52.3,M,-33.4,M,0000,0000*6A
2657,3,0.03,-0.01,-0.08,-0.06,0.13,0.06,0.7158,0.0095,0.0902,-0.6924,$GPGGA,143432.800,3850.1229,N,07730.3436,W,2,09,0.88,52.3,M,-33.4,M,0000,0000*65
2658,3,0.03,0.00,-0.09,-0.06,-0.13,0.13,0.7158,0.0095,0.0902,-0.6924,$GPGGA,143432.900,3850.1229,N,07730.3436,W,2,09,0.88,52.3,M,-33.4,M,0000,0000*64
2659,3,0.03,-0.02,-0.09,0.13,0.00,0.06,0.7158,0.0095,0.0902,-0.6924,$GPGGA,143433.000,3850.1229,N,07730.3436,W,2,09,0.88,52.3,M,-33.4,M,0000,0000*6C
2660,3,0.02,-0.01,-0.08,0.06,-0.06,0.06,0.7158,0.0095,0.0902,-0.6924,$GPGGA,143433.100,3850.1229,N,07730.3436,W,2,09,0.88,52.3,M,-33.4,M,0000,0000*6D
2661,3,0.04,-0.01,-0.06,0.06,-0.13,0.00,0.7158,0.0095,0.0902,-0.6924,$GPGGA,143433.200,3850.1229,N,07730.3436,W,2,09,0.88,52.3,M,-33.4,M,0000,0000*6E
2662,3,0.03,-0.01,-0.06,0.00,0.06,0.06,0.7158,0.0095,0.0902,-0.6924,$GPGGA,143433.300,3850.1229,N,07730.3436,W,2,09,0.88,52.3,M,-33.4,M,0000,0000*6F
2663,3,0.01,-0.03,-0.08,-0.06,0.13,-0.06,0.7158,0.0095,0.0902,-0.6924,$GPGGA,143433.400,3850.1229,N,07730.3436,W,2,09,0.88,52.3,M,-33.4,M,0000,0000*68
2664,3,0.04,-0.02,-0.06,-0.06,0.06,0.00,0.7158,0.0095,0.0902,-0.6924,$GPGGA,143433.500,3850.1229,N,07730.3436,W,2,09,0.88,52.3,M,-33.4,M,0000,0000*69
2665,3,0.02,-0.02,-0.07,-0.06,0.06,-0.06,0.7158,0.0095,0.0902,-0.6924,$GPGGA,143433.600,3850.1229,N,07730.3436,W,2,09,0.88,52.3,M,-33.4,M,0000,0000*6A
2666,3,0.03,-0.02,-0.08,0.00,-0.06,0.00,0.7158,0.0095,0.0902,-0.6924,$GPGGA,143433.700,3850.1229,N,07730.3436,W,2,09,0.88,52.3,M,-33.4,M,0000,0000*6B
2667,3,0.04,-0.01,-0.09,0.00,0.06,0.00,0.7158,0.0095,0.0902,-0.6924,$GPGGA,143433.800,3850.1229,N,07730.3436,W,2,09,0.88,52.3,M,-33.4,M,0000,0000*64
2668,3,0.02,-0.01,-0.07,0.00,0.00,0.00,0.7158,0.0095,0.0902,-0.6924,$GPGGA,143433.900,3850.1229,N,07730.3436,W,2,09,0.88,52.3,M,-33.4,M,0000,0000*65
2669,3,0.04,-0.01,-0.06,0.00,0.06,0.00,0.7158,0.0095,0.0902,-0.6924,$GPGGA,143434.000,3850.1229,N,07730.3436,W,2,09,0.88,52.3,M,-33.4,M,0000,0000*6B
2670,3,0.02,-0.01,-0.08,0.06,-0.06,0.00,0.7158,0.0095,0.0902,-0.6924,$GPGGA,143434.100,3850.1229,N,07730.3436,W,2,09,0.88,52.3,M,-33.4,M,0000,0000*6A
2671,3,0.03,0.00,-0.09,0.00,0.00,-0.06,0.7158,0.0095,0.0902,-0.6924,$GPGGA,143434.200,3850.1229,N,07730.3436,W,2,09,0.88,52.3,M,-33.4,M,0000,0000*69
2672,3,0.03,-0.01,-0.09,-0.06,0.00,-0.06,0.7158,0.0095,0.0902,-0.6924,$GPGGA,143434.300,3850.1229,N,07730.3436,W,2,09,0.88,52.3,M,-33.4,M,0000,0000*68
2673,3,0.02,0.00,-0.07,-0.06,-0.06,0.00,0.7158,0.0095,0.0902,-0.6924,$GPGGA,143434.400,3850.1229,N,07730.3436,W,2,09,0.88,52.3,M,-33.4,M,0000,0000*6F
2674,3,0.06,-0.03,-0.09,-0.19,-0.06,-0.06,0.7158,0.0095,0.0902,-0.6924,$GPGGA,143434.500,3850.1229,N,07730.3436,W,2,09,0.88,52.3,M,-33.4,M,0000,0000*6E
2675,3,0.00,-0.01,-0.07,-0.13,0.06,0.00,0.7158,0.0095,0.0902,-0.6924,$GPGGA,143434.600,3850.1229,N,07730.3436,W,2,09,0.88,52.3,M,-33.4,M,0000,0000*6D
2676,3,0.03,-0.03,-0.08,-0.06,-0.13,0.06,0.7158,0.0095,0.0902,-0.6924,$GPGGA,143434.700,3850.1229,N,07730.3436,W,2,09,0.88,52.3,M,-33.4,M,0000,0000*6C
2677,3,0.03,-0.02,-0.06,-0.06,-0.19,0.06,0.7158,0.0095,0.0902,-0.6924,$GPGGA,143434.800,3850.1229,N,07730.3436,W,2,09,0.88,52.3,M,-33.4,M,0000,0000*63
2678,3,0.04,-0.02,-0.06,0.06,0.06,0.06,0.7158,0.0095,0.0902,-0.6924,$GPGGA,143434.900,3850.1229,N,07730.3436,W,2,09,0.88,52.3,M,-33.4,M,0000,0000*62
2679,3,0.02,-0.02,-0.08,-0.13,0.13,0.00,0.7158,0.0095,0.0902,-0.6924,$GPGGA,143435.000,3850.1229,N,07730.3436,W,2,09,0.88,52.3,M,-33.4,M,0000,0000*6A
2680,3,0.04,-0.03,-0.07,-0.06,0.00,-0.06,0.7158,0.0095,0.0902,-0.6924,$GPGGA,143435.100,3850.1229,N,07730.3436,W,2,09,0.88,52.3,M,-33.4,M,0000,0000*6B
2681,3,0.03,-0.02,-0.07,0.00,0.00,-0.13,0.7158,0.0095,0.0902,-0.6924,$GPGGA,143435.200,3850.1229,N,07730.3436,W,2,09,0.88,52.3,M,-33.4,M,0000,0000*68
2682,3,0.05,-0.02,-0.06,0.00,-0.06,0.13,0.7158,0.0095,0.0902,-0.6924,$GPGGA,143435.300,3850.1229,N,07730.3436,W,2,09,0.88,52.3,M,-33.4,M,0000,0000*69
2683,3,0.02,-0.03,-0.08,0.06,-0.13,0.00,0.7158,0.0095,0.0902,-0.6924,$GPGGA,143435.400,3850.1229,N,07730.3436,W,2,09,0.88,52.3,M,-33.4,M,0000,0000*6E
2684,3,0.03,-0.03,-0.07,-0.13,0.13,-0.06,0.7158,0.0095,0.0902,-0.6924,$GPGGA,143435.500,3850.1229,N,07730.3436,W,2,09,0.88,52.3,M,-33.4,M,0000,0000*6F
2685,3,0.04,-0.02,-0.08,-0.13,-0.06,0.06,0.7158,0.0095,0.0902,-0.6924,$GPGGA,143435.600,3850.1229,N,07730.3436,W,2,09,0.88,52.3,M,-33.4,M,0000,0000*6C
2686,3,0.01,0.00,-0.09,-0.13,0.06,-0.06,0.7158,0.0095,0.0902,-0.6924,$GPGGA,143435.700,3850.1229,N,07730.3436,W,2,09,0.88,52.3,M,-33.4,M,0000,0000*6D
2687,3,0.01,-0.03,-0.09,-0.13,0.06,0.00,0.7158,0.0095,0.0902,-0.6924,$GPGGA,143435.800,3850.1229,N,07730.3436,W,2,09,0.88,52.3,M,-33.4,M,0000,0000*62
2688,3,0.04,-0.03,-0.10,0.00,-0.06,0.00,0.7158,0.0095,0.0902,-0.6924,$GPGGA,143435.900,3850.1229,N,07730.3436,W,2,09,0.88,52.3,M,-33.4,M,0000,0000*63
2689,3,0.03,-0.02,-0.09,0.06,0.06,0.00,0.7158,0.0095,0.0902,-0.6924,$GPGGA,143436.000,3850.1229,N,07730.3435,W,2,09,0.88,52.3,M,-33.4,M,0000,0000*6A
2690,3,0.05,-0.02,-0.07,-0.13,-0.13,-0.13,0.7158,0.0095,0.0902,-0.6924,$GPGGA,143436.100,3850.1229,N,07730.3435,W,2,09,0.88,52.3,M,-33.4,M,0000,0000*6B
2691,3,0.03,-0.02,-0.08,0.25,-0.13,0.06,0.7158,0.0095,0.0902,-0.6924,$GPGGA,143436.200,3850.1229,N,07730.3435,W,2,09,0.88,52.3,M,-33.4,M,0000,0000*68
2692,3,0.03,-0.02,-0.09,0.13,-0.13,-0.06,0.7158,0.0095,0.0902,-0.6924,$GPGGA,143436.300,3850.1229,N,07730.3435,W,2,09,0.88,52.3,M,-33.4,M,0000,0000*69
2693,3,0.03,-0.03,-0.10,0.00,0.06,0.00,0.7158,0.0095,0.0902,-0.6924,$GPGGA,143436.400,3850.1229,N,07730.3435,W,2,09,0.88,52.3,M,-33.4,M,0000,0000*6E
2694,3,0.04,-0.03,-0.12,0.06,0.00,0.13,0.7158,0.0095,0.0902,-0.6924,$GPGGA,143436.500,3850.1229,N,07730.3435,W,2,09,0.88,52.3,M,-33.4,M,0000,0000*6F
2695,3,0.04,-0.01,-0.07,-0.06,0.00,0.00,0.7158,0.0095,0.0902,-0.6924,$GPGGA,143436.600,3850.1229,N,07730.3435,W,2,09,0.88,52.3,M,-33.4,M,0000,0000*6C
2696,3,0.03,-0.03,-0.07,0.06,-0.06,0.00,0.7158,0.0095,0.0902,-0.6924,$GPGGA,143436.700,3850.1229,N,07730.3435,W,2,09,0.88,52.3,M,-33.4,M,0000,0000*6D
