0,3,0.00,0.01,-0.08,-5.12,-1.75,-0.81,-0.1492,0.0782,0.0847,-0.9821,$GPGGA,143007.100,3850.0994,N,07730.3751,W,1,08,1.10,62.0,M,-33.4,M,,*62
1,3,-0.03,-0.12,0.13,0.81,-0.37,0.19,-0.1489,0.0776,0.0878,-0.9819,$GPGGA,143007.100,3850.0994,N,07730.3751,W,1,08,1.10,62.0,M,-33.4,M,,*62
2,3,0.05,0.15,-2.28,18.00,2.44,0.13,-0.1492,0.0775,0.0810,-0.9824,$GPGGA,143007.300,3850.0994,N,07730.3751,W,1,08,1.10,62.0,M,-33.4,M,,*60
3,3,-0.01,-0.07,-0.07,0.81,0.13,0.00,-0.1495,0.0774,0.0772,-0.9827,$GPGGA,143007.400,3850.0994,N,07730.3751,W,1,08,1.07,62.0,M,-33.4,M,,*61
4,3,-0.05,0.09,-0.04,0.31,0.25,-0.06,-0.1495,0.0773,0.0768,-0.9827,$GPGGA,143007.400,3850.0994,N,07730.3751,W,1,08,1.07,62.0,M,-33.4,M,,*61
5,3,-0.05,0.04,0.00,0.31,0.00,0.00,-0.1495,0.0773,0.0768,-0.9827,$GPGGA,143007.600,3850.0994,N,07730.3751,W,1,08,1.10,62.0,M,-33.4,M,,*65
6,3,-0.01,0.01,0.02,0.19,-0.13,0.00,-0.1495,0.0773,0.0768,-0.9827,$GPGGA,143007.700,3850.0994,N,07730.3751,W,1,08,1.07,62.0,M,-33.4,M,,*62
7,3,0.00,0.01,-0.01,0.19,0.06,0.13,-0.1495,0.0773,0.0768,-0.9827,$GPGGA,143007.800,3850.0994,N,07730.3751,W,1,08,1.07,62.0,M,-33.4,M,,*6D
8,3,0.00,0.03,0.00,0.06,0.13,-0.06,-0.1495,0.0774,0.0768,-0.9827,$GPGGA,143007.800,3850.0994,N,07730.3751,W,1,08,1.07,62.0,M,-33.4,M,,*6D
9,3,0.00,0.03,0.00,0.13,-0.06,0.06,-0.1495,0.0774,0.0767,-0.9827,$GPGGA,143008.000,3850.0994,N,07730.3751,W,1,08,1.10,62.0,M,-33.4,M,,*6C
10,3,0.00,0.02,0.00,0.19,-0.13,0.06,-0.1495,0.0774,0.0767,-0.9827,$GPGGA,143008.100,3850.0994,N,07730.3751,W,1,08,1.07,62.0,M,-33.4,M,,*6B
11,3,0.00,0.00,0.00,0.00,0.13,-0.06,-0.1495,0.0774,0.0767,-0.9827,$GPGGA,143008.100,3850.0994,N,07730.3751,W,1,08,1.07,62.0,M,-33.4,M,,*6B
12,3,0.00,0.02,-0.03,0.00,-0.13,0.00,-0.1495,0.0774,0.0767,-0.9827,$GPGGA,143008.200,3850.0994,N,07730.3751,W,1,08,1.07,62.0,M,-33.4,M,,*68
13,3,-0.02,0.03,0.00,0.00,-0.31,0.00,-0.1495,0.0774,0.0767,-0.9827,$GPGGA,143008.300,3850.0994,N,07730.3751,W,1,08,1.07,62.0,M,-33.4,M,,*69
14,3,-0.01,0.02,0.00,0.00,0.13,0.00,-0.1495,0.0774,0.0767,-0.9827,$GPGGA,143008.500,3850.0994,N,07730.3751,W,1,08,1.07,62.0,M,-33.4,M,,*6F
15,3,0.00,0.00,0.00,-0.37,0.06,0.06,-0.1495,0.0774,0.0767,-0.9827,$GPGGA,143008.500,3850.0994,N,07730.3751,W,1,08,1.07,62.0,M,-33.4,M,,*6F
16,3,-0.02,0.01,0.01,0.13,0.00,0.00,-0.1495,0.0774,0.0767,-0.9827,$GPGGA,143008.600,3850.0994,N,07730.3751,W,1,08,1.07,62.0,M,-33.4,M,,*6C
17,3,-0.04,0.01,0.00,0.00,0.13,-0.06,-0.1495,0.0774,0.0767,-0.9827,$GPGGA,143008.800,3850.0994,N,07730.3751,W,1,08,1.10,62.0,M,-33.4,M,,*64
18,3,-0.01,0.05,0.01,0.00,0.19,0.06,-0.1495,0.0774,0.0767,-0.9827,$GPGGA,143008.900,3850.0994,N,07730.3751,W,1,08,1.10,62.0,M,-33.4,M,,*65
19,3,-0.02,0.04,-0.04,0.00,0.13,-0.13,-0.1495,0.0774,0.0767,-0.9827,$GPGGA,143008.900,3850.0994,N,07730.3751,W,1,08,1.10,62.0,M,-33.4,M,,*65
20,3,-0.01,0.04,0.00,-0.13,-0.19,0.06,-0.1495,0.0774,0.0767,-0.9827,$GPGGA,143009.000,3850.0994,N,07730.3751,W,1,08,1.10,62.0,M,-33.4,M,,*6D
21,3,0.00,0.01,0.03,0.19,0.06,0.06,-0.1495,0.0774,0.0767,-0.9827,$GPGGA,143009.200,3850.0995,N,07730.3751,W,1,08,1.07,62.0,M,-33.4,M,,*68
22,3,-0.02,0.04,0.00,0.06,0.13,-0.06,-0.1495,0.0774,0.0767,-0.9827,$GPGGA,143009.200,3850.0995,N,07730.3751,W,1,08,1.07,62.0,M,-33.4,M,,*68
23,3,-0.02,0.02,0.03,-0.06,0.00,0.13,-0.1495,0.0775,0.0767,-0.9827,$GPGGA,143009.300,3850.0995,N,07730.3751,W,1,08,1.07,61.9,M,-33.4,M,,*63
24,3,-0.10,0.03,-0.29,0.00,-0.75,0.37,-0.1495,0.0774,0.0767,-0.9827,$GPGGA,143009.500,3850.0995,N,07730.3751,W,1,08,1.07,61.9,M,-33.4,M,,*65
25,3,0.08,-0.03,-0.04,0.25,0.56,-0.19,-0.1495,0.0773,0.0767,-0.9827,$GPGGA,143009.600,3850.0995,N,07730.3751,W,1,08,1.07,61.9,M,-33.4,M,,*66
26,3,-0.14,-0.01,0.04,0.06,0.13,-0.13,-0.1495,0.0772,0.0767,-0.9827,$GPGGA,143009.600,3850.0995,N,07730.3751,W,1,08,1.07,61.9,M,-33.4,M,,*66
27,3,-0.11,0.06,0.10,-0.06,0.06,-0.31,-0.1495,0.0771,0.0766,-0.9828,$GPGGA,143009.700,3850.0995,N,07730.3751,W,1,08,1.07,61.9,M,-33.4,M,,*67
28,3,0.11,0.07,-0.29,-1.94,-0.62,-0.81,-0.1495,0.0771,0.0764,-0.9828,$GPGGA,143009.800,3850.0995,N,07730.3751,W,1,08,1.07,61.9,M,-33.4,M,,*68
29,3,-0.10,0.12,-0.08,1.50,0.88,-0.31,-0.1497,0.0781,0.0759,-0.9827,$GPGGA,143010.000,3850.0995,N,07730.3751,W,1,08,1.07,61.9,M,-33.4,M,,*68
30,3,-0.02,-0.20,0.00,0.81,0.13,0.19,-0.1497,0.0781,0.0757,-0.9827,$GPGGA,143010.000,3850.0995,N,07730.3751,W,1,08,1.07,61.9,M,-33.4,M,,*68
31,3,-0.01,0.18,0.05,0.06,0.19,0.13,-0.1497,0.0781,0.0756,-0.9827,$GPGGA,143010.100,3850.0995,N,07730.3751,W,1,08,1.07,61.9,M,-33.4,M,,*69
32,3,0.02,-0.01,0.06,0.69,-0.19,-0.13,-0.1497,0.0780,0.0756,-0.9827,$GPGGA,143010.200,3850.0995,N,07730.3751,W,1,08,1.07,61.9,M,-33.4,M,,*6A
33,3,-0.09,0.04,0.04,1.62,-0.56,0.94,-0.1494,0.0779,0.0747,-0.9828,$GPGGA,143010.300,3850.0995,N,07730.3751,W,1,08,1.07,61.9,M,-33.4,M,,*6B
34,3,-0.01,0.02,-0.02,1.25,-1.75,0.50,-0.1490,0.0768,0.0737,-0.9831,$GPGGA,143010.400,3850.0995,N,07730.3751,W,1,08,1.07,61.9,M,-33.4,M,,*6C
35,3,0.00,0.28,-0.01,3.00,-0.13,0.44,-0.1495,0.0762,0.0733,-0.9831,$GPGGA,143010.600,3850.0995,N,07730.3751,W,1,08,1.07,61.9,M,-33.4,M,,*6E
36,3,0.00,0.06,-0.03,0.81,0.13,0.06,-0.1495,0.0762,0.0728,-0.9832,$GPGGA,143010.700,3850.0995,N,07730.3751,W,1,08,1.07,61.9,M,-33.4,M,,*6F
37,3,-0.05,0.03,-0.06,-0.50,-0.31,-0.06,-0.1495,0.0762,0.0726,-0.9832,$GPGGA,143010.800,3850.0995,N,07730.3751,W,1,08,1.07,61.9,M,-33.4,M,,*60
38,3,-0.07,0.29,0.11,0.37,0.50,0.06,-0.1495,0.0762,0.0730,-0.9832,$GPGGA,143010.900,3850.0995,N,07730.3751,W,1,08,1.07,61.9,M,-33.4,M,,*61
39,3,-0.08,0.16,-0.12,-0.25,-0.06,0.31,-0.1494,0.0768,0.0730,-0.9831,$GPGGA,143011.000,3850.0995,N,07730.3750,W,1,08,1.07,61.9,M,-33.4,M,,*68
40,3,-0.07,-0.03,-0.11,0.56,0.44,0.13,-0.1493,0.0768,0.0722,-0.9832,$GPGGA,143011.100,3850.0995,N,07730.3750,W,1,08,1.07,61.9,M,-33.4,M,,*69
41,3,0.03,0.04,-0.05,-0.62,0.19,-0.06,-0.1492,0.0768,0.0722,-0.9832,$GPGGA,143011.200,3850.0995,N,07730.3750,W,1,08,1.07,61.9,M,-33.4,M,,*6A
42,3,-0.08,0.08,-0.03,-0.13,1.62,-0.44,-0.1492,0.0775,0.0721,-0.9831,$GPGGA,143011.300,3850.0995,N,07730.3750,W,1,08,1.07,61.9,M,-33.4,M,,*6B
43,3,0.02,-0.02,0.02,0.37,0.69,-0.19,-0.1494,0.0787,0.0718,-0.9830,$GPGGA,143011.400,3850.0995,N,07730.3750,W,1,08,1.07,61.9,M,-33.4,M,,*6C
44,3,-0.30,0.27,-0.12,-0.37,-0.75,0.25,-0.1491,0.0783,0.0726,-0.9830,$GPGGA,143011.500,3850.0995,N,07730.3750,W,1,08,1.07,61.9,M,-33.4,M,,*6D
45,3,-0.05,-0.06,-0.01,-0.44,0.25,0.13,-0.1491,0.0782,0.0723,-0.9831,$GPGGA,143011.600,3850.0995,N,07730.3750,W,1,08,1.07,61.9,M,-33.4,M,,*6E
46,3,-0.12,0.09,0.06,0.06,0.13,-0.31,-0.1491,0.0782,0.0721,-0.9831,$GPGGA,143011.700,3850.0995,N,07730.3750,W,1,08,1.10,61.9,M,-33.4,M,,*69
47,3,-0.11,0.17,0.06,8.94,6.62,0.69,-0.1492,0.0789,0.0704,-0.9832,$GPGGA,143011.800,3850.0996,N,07730.3750,W,1,08,1.10,61.9,M,-33.4,M,,*65
48,3,0.00,0.00,0.07,-1.56,-0.25,0.06,-0.1493,0.0792,0.0699,-0.9832,$GPGGA,143011.900,3850.0996,N,07730.3750,W,1,08,1.10,61.9,M,-33.4,M,,*64
49,3,-0.06,0.01,-0.10,-0.19,-0.37,0.06,-0.1490,0.0784,0.0715,-0.9831,$GPGGA,143012.000,3850.0996,N,07730.3750,W,1,08,1.10,61.9,M,-33.4,M,,*6E
50,3,0.01,0.21,-0.12,1.12,-0.50,-0.13,-0.1491,0.0786,0.0709,-0.9832,$GPGGA,143012.100,3850.0996,N,07730.3750,W,1,08,1.07,61.9,M,-33.4,M,,*69
51,3,-0.05,0.11,-0.05,0.25,0.25,-0.19,-0.1490,0.0782,0.0715,-0.9832,$GPGGA,143012.200,3850.0996,N,07730.3750,W,1,08,1.07,61.9,M,-33.4,M,,*6A
52,3,-0.14,0.13,-0.20,-0.50,-0.44,0.25,-0.1490,0.0784,0.0714,-0.9832,$GPGGA,143012.300,3850.0996,N,07730.3750,W,1,08,1.07,61.9,M,-33.4,M,,*6B
53,3,-0.05,0.19,0.01,0.37,1.12,-0.37,-0.1490,0.0782,0.0715,-0.9832,$GPGGA,143012.400,3850.0996,N,07730.3750,W,1,08,1.07,61.9,M,-33.4,M,,*6C
54,3,-0.17,-0.17,-0.06,-0.19,-1.00,0.31,-0.1490,0.0782,0.0712,-0.9832,$GPGGA,143012.500,3850.0996,N,07730.3750,W,1,08,1.07,61.9,M,-33.4,M,,*6D
55,3,-0.07,0.04,-0.12,-0.25,0.69,-0.19,-0.1490,0.0787,0.0712,-0.9831,$GPGGA,143012.600,3850.0996,N,07730.3750,W,1,08,1.07,61.9,M,-33.4,M,,*6E
56,3,-0.06,0.22,-0.06,-0.25,0.00,-0.06,-0.1490,0.0784,0.0712,-0.9832,$GPGGA,143012.700,3850.0996,N,07730.3750,W,1,08,1.07,61.9,M,-33.4,M,,*6F
57,3,-0.08,0.21,0.00,0.50,-0.13,-0.25,-0.1490,0.0786,0.0710,-0.9832,$GPGGA,143012.800,3850.0996,N,07730.3750,W,1,08,1.07,61.9,M,-33.4,M,,*60
58,3,-0.04,0.03,0.17,0.50,-0.13,1.56,-0.1486,0.0786,0.0704,-0.9833,$GPGGA,143012.900,3850.0996,N,07730.3750,W,1,08,1.07,61.9,M,-33.4,M,,*61
59,3,-0.04,0.14,0.11,5.81,1.44,2.50,-0.1479,0.0786,0.0680,-0.9835,$GPGGA,143013.000,3850.0996,N,07730.3750,W,1,08,1.07,61.9,M,-33.4,M,,*69
60,3,-0.05,-0.20,-0.11,2.19,10.19,-0.62,-0.1472,0.0819,0.0643,-0.9836,$GPGGA,143013.100,3850.0996,N,07730.3750,W,1,08,1.07,61.9,M,-33.4,M,,*68
61,3,0.04,0.21,-0.06,-3.06,-0.25,-0.25,-0.1478,0.0839,0.0634,-0.9834,$GPGGA,143013.200,3850.0996,N,07730.3750,W,1,08,1.07,61.9,M,-33.4,M,,*6B
62,3,0.01,0.00,0.00,0.81,-0.19,-0.56,-0.1474,0.0837,0.0646,-0.9834,$GPGGA,143013.300,3850.0996,N,07730.3750,W,1,08,1.07,61.9,M,-33.4,M,,*6A
63,3,0.11,0.16,-0.08,-1.50,1.81,-0.81,-0.1477,0.0842,0.0636,-0.9834,$GPGGA,143013.400,3850.0996,N,07730.3750,W,1,08,1.07,61.9,M,-33.4,M,,*6D
64,3,0.03,0.25,-0.03,-1.12,-0.37,-0.31,-0.1482,0.0836,0.0654,-0.9833,$GPGGA,143013.500,3850.0996,N,07730.3750,W,1,08,1.07,61.9,M,-33.4,M,,*6C
65,3,-0.03,0.05,-0.12,-0.13,-0.31,-0.25,-0.1481,0.0837,0.0658,-0.9832,$GPGGA,143013.600,3850.0996,N,07730.3750,W,1,08,1.07,61.9,M,-33.4,M,,*6F
66,3,-0.04,-0.04,0.03,0.88,0.88,0.88,-0.1478,0.0838,0.0656,-0.9833,$GPGGA,143013.700,3850.0996,N,07730.3750,W,1,08,1.10,61.9,M,-33.4,M,,*68
67,3,-0.04,-0.03,0.21,0.00,-2.19,0.94,-0.1473,0.0834,0.0658,-0.9834,$GPGGA,143013.800,3850.0996,N,07730.3750,W,1,08,1.10,61.9,M,-33.4,M,,*67
68,3,-0.04,-0.08,0.11,2.81,0.31,0.25,-0.1475,0.0831,0.0647,-0.9835,$GPGGA,143013.900,3850.0996,N,07730.3750,W,1,08,1.10,61.9,M,-33.4,M,,*66
69,3,0.05,-0.11,-0.30,0.06,1.12,0.56,-0.1477,0.0834,0.0629,-0.9835,$GPGGA,143014.000,3850.0996,N,07730.3750,W,1,08,1.07,61.9,M,-33.4,M,,*6E
70,3,0.06,-0.02,0.19,-0.94,-0.44,-0.31,-0.1467,0.0825,0.0645,-0.9836,$GPGGA,143014.100,3850.0996,N,07730.3750,W,1,08,1.10,61.9,M,-33.4,M,,*69
71,3,-0.06,0.11,-0.07,1.06,0.19,0.00,-0.1468,0.0818,0.0654,-0.9836,$GPGGA,143014.200,3850.0996,N,07730.3750,W,1,08,1.10,61.9,M,-33.4,M,,*6A
72,3,0.01,0.03,0.01,-0.88,-1.12,0.06,-0.1475,0.0813,0.0670,-0.9835,$GPGGA,143014.300,3850.0996,N,07730.3750,W,1,08,1.07,61.9,M,-33.4,M,,*6D
73,3,0.04,0.11,0.03,-0.13,0.69,-0.19,-0.1475,0.0812,0.0673,-0.9835,$GPGGA,143014.400,3850.0996,N,07730.3750,W,1,08,1.07,61.9,M,-33.4,M,,*6A
74,3,-0.83,0.03,0.01,0.37,0.13,0.19,-0.1474,0.0809,0.0671,-0.9835,$GPGGA,143014.500,3850.0996,N,07730.3750,W,1,08,1.07,61.9,M,-33.4,M,,*6B
75,3,-0.02,-0.29,0.10,-0.06,-0.06,0.13,-0.1477,0.0811,0.0673,-0.9834,$GPGGA,143014.600,3850.0996,N,07730.3750,W,1,08,1.07,61.9,M,-33.4,M,,*68
76,3,-0.16,-0.03,-0.12,-0.06,0.37,-0.69,-0.1476,0.0809,0.0673,-0.9834,$GPGGA,143014.700,3850.0996,N,07730.3750,W,1,08,1.07,61.9,M,-33.4,M,,*69
77,3,-0.08,0.14,-0.07,0.00,-0.19,-0.13,-0.1476,0.0810,0.0672,-0.9834,$GPGGA,143014.800,3850.0996,N,07730.3750,W,1,08,1.07,61.9,M,-33.4,M,,*66
78,3,-0.12,0.05,-0.01,-0.31,0.06,0.25,-0.1476,0.0810,0.0671,-0.9835,$GPGGA,143014.900,3850.0996,N,07730.3750,W,1,08,1.07,61.9,M,-33.4,M,,*67
79,3,0.01,0.01,-0.02,0.00,0.00,0.00,-0.1476,0.0810,0.0671,-0.9835,$GPGGA,143015.000,3850.0996,N,07730.3750,W,1,08,1.07,61.9,M,-33.4,M,,*6F
80,3,-0.01,0.02,0.01,-0.19,-0.19,-0.06,-0.1476,0.0810,0.0671,-0.9835,$GPGGA,143015.100,3850.0996,N,07730.3750,W,1,08,1.07,61.9,M,-33.4,M,,*6E
81,3,0.01,0.00,-0.06,-0.06,0.19,0.00,-0.1476,0.0810,0.0670,-0.9835,$GPGGA,143015.200,3850.0996,N,07730.3750,W,1,08,1.07,61.9,M,-33.4,M,,*6D
82,3,-0.01,0.06,-0.01,-0.06,-0.25,0.06,-0.1476,0.0810,0.0670,-0.9835,$GPGGA,143015.300,3850.0996,N,07730.3750,W,1,08,1.07,61.9,M,-33.4,M,,*6C
83,3,0.00,0.02,-0.03,-0.19,-0.13,0.00,-0.1476,0.0810,0.0670,-0.9835,$GPGGA,143015.400,3850.0996,N,07730.3750,W,1,08,1.07,61.9,M,-33.4,M,,*6B
84,3,0.00,0.05,-0.03,-0.19,0.06,0.00,-0.1476,0.0810,0.0670,-0.9835,$GPGGA,143015.500,3850.0996,N,07730.3750,W,1,08,1.07,61.9,M,-33.4,M,,*6A
85,3,0.00,0.03,-0.06,0.06,0.00,0.06,-0.1476,0.0810,0.0670,-0.9835,$GPGGA,143015.600,3850.0996,N,07730.3750,W,1,08,1.07,61.9,M,-33.4,M,,*69
86,3,0.00,0.05,-0.03,0.13,0.31,-0.06,-0.1476,0.0810,0.0670,-0.9835,$GPGGA,143015.700,3850.0996,N,07730.3750,W,1,08,1.11,61.9,M,-33.4,M,,*6F
87,3,0.00,0.05,-0.03,0.00,0.06,0.06,-0.1476,0.0810,0.0670,-0.9835,$GPGGA,143015.800,3850.0996,N,07730.3750,W,1,08,1.07,61.9,M,-33.4,M,,*67
88,3,-0.01,0.04,-0.04,0.06,0.00,0.06,-0.1476,0.0810,0.0670,-0.9835,$GPGGA,143015.900,3850.0996,N,07730.3750,W,1,08,1.07,61.9,M,-33.4,M,,*66
89,3,0.00,0.04,-0.01,-0.06,0.06,0.06,-0.1476,0.0810,0.0670,-0.9835,$GPGGA,143016.000,3850.0996,N,07730.3750,W,1,08,1.07,61.9,M,-33.4,M,,*6C
90,3,0.01,0.03,-0.01,0.06,0.13,0.06,-0.1476,0.0810,0.0670,-0.9835,$GPGGA,143016.100,3850.0996,N,07730.3750,W,1,08,1.07,61.9,M,-33.4,M,,*6D
91,3,0.00,0.02,-0.04,0.19,-0.06,0.00,-0.1476,0.0810,0.0670,-0.9835,$GPGGA,143016.200,3850.0996,N,07730.3750,W,1,08,1.07,61.9,M,-33.4,M,,*6E
92,3,0.01,0.02,-0.02,0.00,0.13,0.00,-0.1476,0.0810,0.0670,-0.9835,$GPGGA,143016.300,3850.0996,N,07730.3750,W,1,08,1.07,61.9,M,-33.4,M,,*6F
93,3,0.01,0.04,-0.02,-0.06,-0.06,0.00,-0.1476,0.0810,0.0670,-0.9835,$GPGGA,143016.400,3850.0996,N,07730.3750,W,1,08,1.07,61.9,M,-33.4,M,,*68
94,3,0.00,0.04,-0.02,-0.06,0.06,-0.13,-0.1476,0.0810,0.0670,-0.9835,$GPGGA,143016.500,3850.0995,N,07730.3750,W,1,08,1.07,61.9,M,-33.4,M,,*6A
95,3,0.00,0.02,0.00,0.00,-0.06,0.06,-0.1476,0.0810,0.0670,-0.9835,$GPGGA,143016.600,3850.0995,N,07730.3750,W,1,08,1.07,61.9,M,-33.4,M,,*69
96,3,0.00,0.00,-0.03,0.13,-0.13,0.06,-0.1476,0.0810,0.0670,-0.9835,$GPGGA,143016.700,3850.0995,N,07730.3751,W,1,08,1.07,61.9,M,-33.4,M,,*69
97,3,0.01,0.04,-0.03,0.06,0.13,-0.06,-0.1476,0.0810,0.0670,-0.9835,$GPGGA,143016.800,3850.0995,N,07730.3750,W,1,08,1.07,61.9,M,-33.4,M,,*67
98,3,-0.01,0.02,-0.04,-0.06,-0.06,-0.06,-0.1476,0.0810,0.0670,-0.9835,$GPGGA,143016.900,3850.0995,N,07730.3750,W,1,08,1.07,61.9,M,-33.4,M,,*66
99,3,0.00,0.03,-0.02,0.06,0.13,0.06,-0.1476,0.0810,0.0670,-0.9835,$GPGGA,143017.000,3850.0995,N,07730.3750,W,1,08,1.07,61.9,M,-33.4,M,,*6E
100,3,0.00,0.03,-0.01,-0.13,-0.13,0.00,-0.1476,0.0810,0.0670,-0.9835,$GPGGA,143017.100,3850.0995,N,07730.3750,W,1,08,1.07,61.9,M,-33.4,M,,*6F
101,3,0.00,0.04,-0.04,-0.06,0.06,0.06,-0.1476,0.0810,0.0670,-0.9835,$GPGGA,143017.200,3850.0995,N,07730.3750,W,1,08,1.07,61.9,M,-33.4,M,,*6C
102,3,0.00,0.06,-0.04,0.00,0.06,-0.06,-0.1476,0.0810,0.0670,-0.9835,$GPGGA,143017.300,3850.0995,N,07730.3750,W,1,08,1.07,61.9,M,-33.4,M,,*6D
103,3,0.00,0.04,0.00,0.06,0.06,0.00,-0.1476,0.0810,0.0670,-0.9835,$GPGGA,143017.400,3850.0996,N,07730.3750,W,1,08,1.07,61.9,M,-33.4,M,,*69
104,3,-0.01,0.05,0.00,-0.13,-0.25,0.00,-0.1476,0.0810,0.0670,-0.9835,$GPGGA,143017.500,3850.0996,N,07730.3750,W,1,08,1.07,61.9,M,-33.4,M,,*68
105,3,0.04,0.02,0.00,-0.13,0.13,-0.06,-0.1476,0.0810,0.0670,-0.9835,$GPGGA,143017.600,3850.0996,N,07730.3750,W,1,08,1.10,61.9,M,-33.4,M,,*6D
106,3,0.01,0.02,-0.02,0.00,0.06,-0.06,-0.1476,0.0810,0.0670,-0.9835,$GPGGA,143017.700,3850.0996,N,07730.3750,W,1,08,1.10,61.9,M,-33.4,M,,*6C
107,3,0.00,0.04,0.02,0.00,-0.19,0.00,-0.1476,0.0810,0.0670,-0.9835,$GPGGA,143017.800,3850.0996,N,07730.3750,W,1,08,1.10,61.9,M,-33.4,M,,*63
108,3,0.00,0.04,-0.01,-0.13,0.06,0.00,-0.1476,0.0810,0.0670,-0.9835,$GPGGA,143017.900,3850.0996,N,07730.3750,W,1,08,1.10,61.9,M,-33.4,M,,*62
109,3,-0.01,0.05,0.00,0.06,-0.25,0.00,-0.1476,0.0810,0.0670,-0.9835,$GPGGA,143018.000,3850.0996,N,07730.3750,W,1,08,1.07,61.9,M,-33.4,M,,*62
110,3,0.00,0.04,-0.01,-0.06,-0.13,0.00,-0.1476,0.0810,0.0670,-0.9835,$GPGGA,143018.100,3850.0996,N,07730.3751,W,1,08,1.07,61.9,M,-33.4,M,,*62
111,3,0.00,0.02,0.00,0.13,0.00,0.00,-0.1476,0.0810,0.0670,-0.9835,$GPGGA,143018.200,3850.0996,N,07730.3751,W,1,08,1.07,61.9,M,-33.4,M,,*61
112,3,0.00,0.03,0.00,0.06,-0.19,0.06,-0.1476,0.0810,0.0670,-0.9835,$GPGGA,143018.300,3850.0996,N,07730.3751,W,1,08,1.10,61.9,M,-33.4,M,,*66
113,3,0.00,0.03,0.00,0.00,0.06,0.00,-0.1476,0.0810,0.0670,-0.9835,$GPGGA,143018.400,3850.0996,N,07730.3751,W,1,08,1.07,61.9,M,-33.4,M,,*67
114,3,-0.01,0.06,-0.01,-0.06,-0.06,0.06,-0.1476,0.0810,0.0670,-0.9835,$GPGGA,143018.500,3850.0996,N,07730.3751,W,1,08,1.07,61.9,M,-33.4,M,,*66
115,3,-0.14,-0.73,0.62,0.44,4.87,-1.50,-0.1462,0.0781,0.0678,-0.9838,$GPGGA,143018.600,3850.0996,N,07730.3751,W,1,08,1.07,61.9,M,-33.4,M,,*65
116,3,0.19,0.28,-0.13,0.00,-8.06,2.62,-0.1481,0.0822,0.0667,-0.9833,$GPGGA,143018.700,3850.0996,N,07730.3751,W,1,08,1.07,61.9,M,-33.4,M,,*64
117,3,0.15,-0.08,-0.08,0.13,8.38,-2.12,-0.1473,0.0803,0.0673,-0.9835,$GPGGA,143018.800,3850.0996,N,07730.3751,W,1,08,1.07,61.9,M,-33.4,M,,*6B
118,3,0.18,0.00,0.07,-0.62,-7.25,1.37,-0.1474,0.0803,0.0674,-0.9835,$GPGGA,143018.900,3850.0996,N,07730.3751,W,1,08,1.07,61.9,M,-33.4,M,,*6A
119,3,-0.09,0.20,-0.06,0.13,3.00,-0.44,-0.1479,0.0825,0.0671,-0.9833,$GPGGA,143019.000,3850.0996,N,07730.3751,W,1,08,1.07,61.9,M,-33.4,M,,*62
120,3,0.14,-0.09,-0.04,0.06,0.19,0.00,-0.1475,0.0801,0.0674,-0.9835,$GPGGA,143019.100,3850.0996,N,07730.3751,W,1,08,1.07,61.9,M,-33.4,M,,*63
121,3,-0.03,0.03,0.02,-0.13,-2.50,0.31,-0.1478,0.0818,0.0671,-0.9833,$GPGGA,143019.200,3850.0996,N,07730.3751,W,1,08,1.07,61.9,M,-33.4,M,,*60
122,3,0.05,0.09,0.00,0.00,3.50,-0.37,-0.1476,0.0809,0.0673,-0.9834,$GPGGA,143019.300,3850.0996,N,07730.3751,W,1,08,1.07,61.9,M,-33.4,M,,*61
123,3,-0.02,0.01,-0.04,0.06,-3.19,0.50,-0.1476,0.0807,0.0673,-0.9835,$GPGGA,143019.400,3850.0996,N,07730.3751,W,1,08,1.07,61.9,M,-33.4,M,,*66
124,3,0.02,0.03,0.00,-0.19,2.62,-0.25,-0.1477,0.0814,0.0672,-0.9834,$GPGGA,143019.500,3850.0996,N,07730.3751,W,1,08,1.07,61.9,M,-33.4,M,,*67
125,3,0.00,0.05,0.00,0.00,-1.31,0.25,-0.1476,0.0806,0.0673,-0.9835,$GPGGA,143019.600,3850.0996,N,07730.3751,W,1,08,1.07,61.9,M,-33.4,M,,*64
126,3,0.00,-0.01,-0.03,-0.06,-0.62,0.13,-0.1477,0.0814,0.0672,-0.9834,$GPGGA,143019.700,3850.0996,N,07730.3751,W,1,08,1.07,61.9,M,-33.4,M,,*65
127,3,0.00,0.05,0.00,-0.06,1.37,-0.13,-0.1476,0.0807,0.0673,-0.9835,$GPGGA,143019.800,3850.0996,N,07730.3751,W,1,08,1.10,61.9,M,-33.4,M,,*6C
128,3,0.01,0.08,0.00,0.13,-1.75,0.19,-0.1476,0.0810,0.0673,-0.9834,$GPGGA,143019.900,3850.0996,N,07730.3751,W,1,08,1.07,61.9,M,-33.4,M,,*6B
129,3,0.00,0.00,0.00,-0.06,1.37,0.00,-0.1476,0.0813,0.0672,-0.9834,$GPGGA,143020.000,3850.0996,N,07730.3751,W,1,08,1.07,61.9,M,-33.4,M,,*68
130,3,0.01,0.07,0.00,-0.19,-0.50,0.13,-0.1476,0.0808,0.0673,-0.9835,$GPGGA,143020.100,3850.0996,N,07730.3751,W,1,08,1.07,61.9,M,-33.4,M,,*69
131,3,0.00,0.03,-0.01,0.06,-0.44,0.19,-0.1477,0.0813,0.0672,-0.9834,$GPGGA,143020.200,3850.0996,N,07730.3751,W,1,08,1.07,61.9,M,-33.4,M,,*6A
132,3,0.02,0.05,-0.02,-0.19,0.88,-0.06,-0.1476,0.0809,0.0673,-0.9834,$GPGGA,143020.300,3850.0996,N,07730.3751,W,1,08,1.07,61.9,M,-33.4,M,,*6B
133,3,0.01,0.04,-0.01,0.00,-0.94,0.13,-0.1476,0.0810,0.0673,-0.9834,$GPGGA,143020.400,3850.0996,N,07730.3751,W,1,08,1.07,61.9,M,-33.4,M,,*6C
134,3,0.00,0.03,-0.03,0.00,0.50,0.00,-0.1476,0.0811,0.0673,-0.9834,$GPGGA,143020.500,3850.0996,N,07730.3751,W,1,08,1.07,61.9,M,-33.4,M,,*6D
135,3,0.01,0.05,0.01,0.06,0.06,0.00,-0.1476,0.0808,0.0673,-0.9835,$GPGGA,143020.600,3850.0996,N,07730.3751,W,1,08,1.07,61.9,M,-33.4,M,,*6E
136,3,0.00,0.03,0.00,0.00,-0.56,-0.06,-0.1476,0.0811,0.0673,-0.9834,$GPGGA,143020.700,3850.0996,N,07730.3751,W,1,08,1.07,61.9,M,-33.4,M,,*6F
137,3,0.02,0.05,0.01,0.00,0.56,-0.19,-0.1476,0.0809,0.0673,-0.9834,$GPGGA,143020.800,3850.0996,N,07730.3751,W,1,08,1.07,61.9,M,-33.4,M,,*60
138,3,0.00,0.04,0.01,-0.06,-0.44,0.06,-0.1476,0.0809,0.0673,-0.9835,$GPGGA,143020.900,3850.0996,N,07730.3751,W,1,08,1.07,61.9,M,-33.4,M,,*61
139,3,0.04,0.03,0.00,-0.06,0.06,0.00,-0.1476,0.0809,0.0673,-0.9834,$GPGGA,143021.000,3850.0996,N,07730.3751,W,1,08,1.07,61.9,M,-33.4,M,,*69
140,3,0.00,0.05,0.00,0.13,0.25,0.00,-0.1476,0.0807,0.0673,-0.9835,$GPGGA,143021.100,3850.0996,N,07730.3751,W,1,08,1.07,61.9,M,-33.4,M,,*68
141,3,-0.01,0.05,0.00,-0.06,-0.50,0.00,-0.1476,0.0807,0.0673,-0.9835,$GPGGA,143021.200,3850.0996,N,07730.3751,W,1,08,1.07,61.9,M,-33.4,M,,*6B
142,3,0.01,0.02,-0.02,-0.19,0.50,0.00,-0.1476,0.0807,0.0673,-0.9835,$GPGGA,143021.300,3850.0996,N,07730.3751,W,1,08,1.07,61.9,M,-33.4,M,,*6A
143,3,0.00,0.05,0.00,0.13,-0.06,0.06,-0.1476,0.0807,0.0673,-0.9835,$GPGGA,143021.400,3850.0996,N,07730.3751,W,1,08,1.07,61.9,M,-33.4,M,,*6D
144,3,0.00,0.03,0.00,-0.06,-0.31,0.06,-0.1476,0.0807,0.0673,-0.9835,$GPGGA,143021.500,3850.0996,N,07730.3751,W,1,08,1.07,61.9,M,-33.4,M,,*6C
145,3,0.00,0.05,-0.02,0.13,0.25,-0.06,-0.1476,0.0807,0.0673,-0.9835,$GPGGA,143021.600,3850.0996,N,07730.3751,W,1,08,1.07,61.9,M,-33.4,M,,*6F
146,3,0.00,0.03,-0.02,-0.06,-0.13,0.00,-0.1476,0.0807,0.0673,-0.9835,$GPGGA,143021.700,3850.0996,N,07730.3751,W,1,08,1.07,61.9,M,-33.4,M,,*6E
147,3,0.02,0.04,-0.05,-0.06,0.13,0.06,-0.1476,0.0807,0.0673,-0.9835,$GPGGA,143021.800,3850.0996,N,07730.3751,W,1,08,1.07,61.9,M,-33.4,M,,*61
148,3,0.03,0.00,0.00,0.06,-0.19,0.13,-0.1476,0.0807,0.0673,-0.9835,$GPGGA,143021.900,3850.0996,N,07730.3751,W,1,08,1.07,61.9,M,-33.4,M,,*60
149,3,0.01,0.02,-0.01,-0.06,-0.19,-0.13,-0.1476,0.0807,0.0673,-0.9835,$GPGGA,143022.000,3850.0996,N,07730.3751,W,1,08,1.07,61.9,M,-33.4,M,,*6A
150,3,0.00,0.06,-0.03,-0.13,0.06,0.06,-0.1476,0.0807,0.0673,-0.9835,$GPGGA,143022.100,3850.0996,N,07730.3751,W,1,08,1.07,61.9,M,-33.4,M,,*6B
151,3,0.00,0.02,-0.01,0.06,-0.19,0.06,-0.1476,0.0806,0.0673,-0.9835,$GPGGA,143022.200,3850.0996,N,07730.3751,W,1,08,1.07,61.9,M,-33.4,M,,*68
152,3,0.08,-0.02,0.01,0.00,0.06,0.00,-0.1476,0.0806,0.0673,-0.9835,$GPGGA,143022.300,3850.0996,N,07730.3751,W,1,08,1.10,61.9,M,-33.4,M,,*6F
153,3,-0.02,-0.02,0.00,-0.19,0.31,-0.06,-0.1476,0.0806,0.0673,-0.9835,$GPGGA,143022.400,3850.0996,N,07730.3751,W,1,08,1.07,61.9,M,-33.4,M,,*6E
154,3,-0.04,0.04,-0.10,0.00,-0.13,0.06,-0.1476,0.0806,0.0673,-0.9835,$GPGGA,143022.500,3850.0996,N,07730.3751,W,1,08,1.10,61.9,M,-33.4,M,,*69
155,3,0.06,0.08,-0.03,-0.06,0.44,-0.37,-0.1476,0.0806,0.0673,-0.9835,$GPGGA,143022.600,3850.0996,N,07730.3751,W,1,08,1.07,61.9,M,-33.4,M,,*6C
156,3,-0.08,0.01,0.03,0.06,-0.19,0.31,-0.1476,0.0806,0.0673,-0.9835,$GPGGA,143022.700,3850.0996,N,07730.3751,W,1,08,1.07,61.9,M,-33.4,M,,*6D
157,3,0.09,0.00,-0.03,0.13,-0.19,0.13,-0.1476,0.0806,0.0673,-0.9835,$GPGGA,143022.800,3850.0996,N,07730.3751,W,1,08,1.07,61.9,M,-33.4,M,,*62
158,3,0.19,-0.04,-0.02,-0.19,0.25,-0.13,-0.1476,0.0806,0.0673,-0.9835,$GPGGA,143022.900,3850.0996,N,07730.3751,W,1,08,1.07,61.9,M,-33.4,M,,*63
159,3,-0.04,-0.06,0.01,0.00,-0.50,-0.37,-0.1476,0.0807,0.0673,-0.9835,$GPGGA,143023.000,3850.0996,N,07730.3751,W,1,08,1.07,61.9,M,-33.4,M,,*6B
160,3,-0.08,0.02,-0.07,-0.13,0.44,-0.25,-0.1476,0.0807,0.0673,-0.9835,$GPGGA,143023.100,3850.0996,N,07730.3751,W,1,08,1.07,61.9,M,-33.4,M,,*6A
161,3,-0.08,0.18,0.03,-0.19,-0.19,0.19,-0.1476,0.0807,0.0673,-0.9835,$GPGGA,143023.200,3850.0996,N,07730.3751,W,1,08,1.07,61.9,M,-33.4,M,,*69
162,3,0.05,0.00,-0.10,0.13,-0.19,0.06,-0.1476,0.0807,0.0673,-0.9835,$GPGGA,143023.300,3850.0996,N,07730.3751,W,1,08,1.07,61.9,M,-33.4,M,,*68
163,3,0.03,0.03,-0.01,-0.19,0.13,0.06,-0.1476,0.0807,0.0673,-0.9835,$GPGGA,143023.400,3850.0996,N,07730.3751,W,1,08,1.10,61.9,M,-33.4,M,,*69
164,3,-0.01,0.02,0.03,0.06,-0.06,0.06,-0.1476,0.0807,0.0673,-0.9835,$GPGGA,143023.500,3850.0996,N,07730.3751,W,1,08,1.07,61.9,M,-33.4,M,,*6E
165,3,-0.01,0.08,0.00,-0.13,0.13,0.06,-0.1476,0.0807,0.0673,-0.9835,$GPGGA,143023.600,3850.0996,N,07730.3751,W,1,08,1.07,61.9,M,-33.4,M,,*6D
166,3,0.01,0.03,-0.08,0.00,-0.13,0.06,-0.1476,0.0807,0.0673,-0.9835,$GPGGA,143023.700,3850.0996,N,07730.3751,W,1,08,1.07,61.9,M,-33.4,M,,*6C
167,3,-0.03,-0.05,-0.04,0.00,-0.37,0.37,-0.1476,0.0807,0.0673,-0.9835,$GPGGA,143023.800,3850.0996,N,07730.3751,W,1,08,1.10,61.9,M,-33.4,M,,*65
168,3,0.26,0.08,-0.10,0.37,-0.13,0.25,-0.1476,0.0806,0.0671,-0.9835,$GPGGA,143023.900,3850.0996,N,07730.3751,W,1,08,1.07,61.9,M,-33.4,M,,*62
169,3,0.11,0.10,-0.09,0.44,-0.31,0.13,-0.1476,0.0805,0.0670,-0.9835,$GPGGA,143024.000,3850.0996,N,07730.3751,W,1,08,1.07,61.9,M,-33.4,M,,*6C
170,3,-0.02,-0.03,-0.14,0.88,-0.37,0.31,-0.1476,0.0804,0.0669,-0.9835,$GPGGA,143024.100,3850.0996,N,07730.3751,W,1,08,1.07,61.9,M,-33.4,M,,*6D
171,3,-0.05,0.11,0.11,1.19,-1.69,1.31,-0.1472,0.0791,0.0663,-0.9837,$GPGGA,143024.200,3850.0996,N,07730.3751,W,1,08,1.07,61.9,M,-33.4,M,,*6E
172,3,0.18,0.18,-0.01,2.12,-2.62,0.88,-0.1462,0.0771,0.0649,-0.9841,$GPGGA,143024.300,3850.0996,N,07730.3751,W,1,08,1.07,61.9,M,-33.4,M,,*6F
173,3,-0.02,-0.01,0.01,2.37,-0.75,-1.37,-0.1465,0.0749,0.0632,-0.9844,$GPGGA,143024.400,3850.0996,N,07730.3751,W,1,08,1.07,61.9,M,-33.4,M,,*68
174,3,-0.16,0.09,0.12,5.06,0.13,-0.75,-0.1477,0.0745,0.0601,-0.9844,$GPGGA,143024.500,3850.0996,N,07730.3751,W,1,08,1.07,61.9,M,-33.4,M,,*69
175,3,-0.11,-0.15,0.22,8.38,-0.50,0.81,-0.1481,0.0735,0.0547,-0.9847,$GPGGA,143024.600,3850.0996,N,07730.3751,W,1,08,1.07,61.9,M,-33.4,M,,*6A
176,3,-1.06,-0.04,-0.65,10.44,2.00,2.00,-0.1473,0.0734,0.0465,-0.9853,$GPGGA,143024.700,3850.0996,N,07730.3751,W,1,08,1.07,61.9,M,-33.4,M,,*6B
177,3,0.40,-0.02,-0.02,10.38,-1.19,2.56,-0.1458,0.0731,0.0381,-0.9859,$GPGGA,143024.800,3850.0996,N,07730.3751,W,1,08,1.07,61.9,M,-33.4,M,,*64
178,3,0.06,0.28,-0.44,7.87,-0.94,0.88,-0.1448,0.0698,0.0303,-0.9865,$GPGGA,143024.900,3850.0996,N,07730.3751,W,1,08,1.07,61.9,M,-33.4,M,,*65
179,3,0.38,-0.01,-0.17,7.31,1.69,1.12,-0.1443,0.0701,0.0236,-0.9868,$GPGGA,143025.000,3850.0996,N,07730.3751,W,1,08,1.07,61.9,M,-33.4,M,,*6D
180,3,-0.07,-0.15,-0.11,6.81,-1.25,0.13,-0.1445,0.0681,0.0178,-0.9870,$GPGGA,143025.100,3850.0996,N,07730.3751,W,1,08,1.07,61.9,M,-33.4,M,,*6C
181,3,0.00,0.30,-0.19,4.37,1.56,1.00,-0.1447,0.0687,0.0129,-0.9870,$GPGGA,143025.200,3850.0996,N,07730.3751,W,1,08,1.07,61.9,M,-33.4,M,,*6F
182,3,0.10,-0.15,-0.21,1.81,-1.00,0.19,-0.1442,0.0679,0.0102,-0.9872,$GPGGA,143025.300,3850.0996,N,07730.3751,W,1,08,1.10,61.9,M,-33.4,M,,*68
183,3,-0.08,0.14,-0.06,0.00,0.81,-0.25,-0.1443,0.0680,0.0096,-0.9871,$GPGGA,143025.400,3850.0996,N,07730.3751,W,1,08,1.07,62.0,M,-33.4,M,,*63
184,3,-0.03,-0.25,-0.12,-0.37,-0.94,-0.25,-0.1442,0.0677,0.0094,-0.9872,$GPGGA,143025.500,3850.0996,N,07730.3751,W,1,08,1.07,62.0,M,-33.4,M,,*62
185,3,-0.28,0.22,0.19,0.75,1.31,0.13,-0.1443,0.0681,0.0092,-0.9871,$GPGGA,143025.600,3850.0996,N,07730.3751,W,1,08,1.07,62.0,M,-33.4,M,,*61
186,3,-0.04,0.10,-0.21,-0.69,-0.81,2.25,-0.1431,0.0687,0.0080,-0.9873,$GPGGA,143025.700,3850.0996,N,07730.3751,W,1,08,1.07,62.0,M,-33.4,M,,*60
187,3,0.31,-0.06,0.06,-0.62,0.13,0.06,-0.1421,0.0681,0.0089,-0.9875,$GPGGA,143025.800,3850.0996,N,07730.3751,W,1,08,1.07,62.0,M,-33.4,M,,*6F
188,3,-0.18,0.08,-0.09,0.06,-0.56,0.44,-0.1421,0.0679,0.0090,-0.9875,$GPGGA,143025.900,3850.0996,N,07730.3751,W,1,08,1.07,62.0,M,-33.4,M,,*6E
189,3,0.31,0.06,-0.12,-0.37,0.25,-0.13,-0.1416,0.0680,0.0089,-0.9875,$GPGGA,143026.000,3850.0996,N,07730.3751,W,1,08,1.07,62.0,M,-33.4,M,,*64
190,3,-0.06,0.11,0.04,-0.44,-0.94,-1.44,-0.1425,0.0672,0.0088,-0.9875,$GPGGA,143026.100,3850.0996,N,07730.3751,W,1,08,1.07,62.0,M,-33.4,M,,*65
191,3,-0.20,-0.19,-0.03,-0.62,0.56,-0.31,-0.1431,0.0676,0.0092,-0.9874,$GPGGA,143026.200,3850.0996,N,07730.3751,W,1,08,1.07,62.0,M,-33.4,M,,*66
192,3,-0.08,0.16,-0.02,-0.25,-0.75,-0.19,-0.1431,0.0680,0.0098,-0.9873,$GPGGA,143026.300,3850.0996,N,07730.3751,W,1,08,1.07,62.0,M,-33.4,M,,*67
193,3,-0.16,0.11,-0.15,-0.62,0.06,0.81,-0.1429,0.0679,0.0098,-0.9874,$GPGGA,143026.400,3850.0996,N,07730.3751,W,1,08,1.07,62.0,M,-33.4,M,,*60
194,3,0.06,-0.03,0.10,-1.06,-0.31,0.62,-0.1421,0.0684,0.0107,-0.9874,$GPGGA,143026.500,3850.0996,N,07730.3751,W,1,08,1.07,62.0,M,-33.4,M,,*61
195,3,-0.05,0.03,-0.11,-0.19,-0.62,0.88,-0.1417,0.0677,0.0109,-0.9875,$GPGGA,143026.600,3850.0996,N,07730.3751,W,1,08,1.07,62.0,M,-33.4,M,,*62
196,3,0.04,0.00,-0.01,-0.56,0.37,0.75,-0.1410,0.0680,0.0109,-0.9876,$GPGGA,143026.700,3850.0996,N,07730.3751,W,1,08,1.07,62.0,M,-33.4,M,,*63
197,3,-0.09,-0.09,-0.06,0.00,-0.56,0.69,-0.1406,0.0674,0.0110,-0.9877,$GPGGA,143026.800,3850.0996,N,07730.3751,W,1,08,1.07,62.0,M,-33.4,M,,*6C
198,3,0.06,0.04,0.04,-0.44,0.81,1.12,-0.1397,0.0681,0.0109,-0.9878,$GPGGA,143026.900,3850.0996,N,07730.3751,W,1,08,1.07,62.0,M,-33.4,M,,*6D
199,3,-0.02,-0.01,-0.06,0.19,-1.50,0.62,-0.1392,0.0671,0.0110,-0.9879,$GPGGA,143027.000,3850.0996,N,07730.3751,W,1,08,1.07,62.0,M,-33.4,M,,*65
200,3,0.06,0.01,-0.06,-0.37,1.25,0.69,-0.1386,0.0674,0.0110,-0.9880,$GPGGA,143027.100,3850.0996,N,07730.3751,W,1,08,1.07,62.0,M,-33.4,M,,*64
201,3,-0.02,0.01,-0.04,-0.50,-0.69,0.25,-0.1385,0.0674,0.0110,-0.9880,$GPGGA,143027.200,3850.0996,N,07730.3751,W,1,08,1.07,62.0,M,-33.4,M,,*67
202,3,-0.06,0.01,-0.03,-0.50,0.31,1.50,-0.1379,0.0673,0.0111,-0.9881,$GPGGA,143027.300,3850.0996,N,07730.3751,W,1,08,1.07,62.0,M,-33.4,M,,*66
203,3,-0.07,0.00,0.01,-0.25,-1.62,1.75,-0.1365,0.0668,0.0111,-0.9883,$GPGGA,143027.400,3850.0996,N,07730.3751,W,1,08,1.07,62.0,M,-33.4,M,,*61
204,3,-0.06,0.00,-0.01,-0.50,0.13,2.75,-0.1346,0.0663,0.0110,-0.9886,$GPGGA,143027.500,3850.0996,N,07730.3751,W,1,08,1.07,62.0,M,-33.4,M,,*60
205,3,0.11,-0.09,0.10,-0.31,-0.69,2.44,-0.1324,0.0662,0.0109,-0.9890,$GPGGA,143027.600,3850.0996,N,07730.3751,W,1,08,1.07,62.0,M,-33.4,M,,*63
206,3,-0.09,-0.06,0.02,-0.13,-0.25,2.19,-0.1306,0.0657,0.0109,-0.9892,$GPGGA,143027.700,3850.0996,N,07730.3751,W,1,08,1.07,62.0,M,-33.4,M,,*62
207,3,0.09,0.11,-0.05,-0.06,0.00,2.00,-0.1287,0.0657,0.0107,-0.9894,$GPGGA,143027.800,3850.0996,N,07730.3751,W,1,08,1.07,62.0,M,-33.4,M,,*6D
208,3,-0.06,-0.05,0.23,-0.06,-0.69,1.62,-0.1273,0.0654,0.0107,-0.9896,$GPGGA,143027.900,3850.0996,N,07730.3751,W,1,08,1.10,62.0,M,-33.4,M,,*6A
209,3,-0.03,-0.07,-0.18,0.69,-0.62,2.62,-0.1254,0.0649,0.0099,-0.9899,$GPGGA,143028.000,3850.0996,N,07730.3751,W,1,08,1.10,62.0,M,-33.4,M,,*6C
210,3,0.11,0.04,-0.07,-0.81,0.13,2.31,-0.1235,0.0648,0.0100,-0.9902,$GPGGA,143028.100,3850.0996,N,07730.3751,W,1,08,1.10,62.0,M,-33.4,M,,*6D
211,3,0.09,-0.12,0.07,-0.19,-0.50,1.25,-0.1220,0.0649,0.0104,-0.9904,$GPGGA,143028.200,3850.0996,N,07730.3751,W,1,08,1.10,62.0,M,-33.4,M,,*6E
212,3,0.08,-0.01,-0.12,0.19,0.00,1.44,-0.1210,0.0645,0.0104,-0.9905,$GPGGA,143028.300,3850.0996,N,07730.3751,W,1,08,1.10,62.0,M,-33.4,M,,*6F
213,3,0.05,0.13,0.00,-0.81,-0.19,0.69,-0.1202,0.0647,0.0106,-0.9906,$GPGGA,143028.400,3850.0996,N,07730.3751,W,1,08,1.10,62.0,M,-33.4,M,,*68
214,3,0.01,-0.12,-0.07,-0.62,0.37,-0.06,-0.1201,0.0647,0.0110,-0.9906,$GPGGA,143028.500,3850.0996,N,07730.3751,W,1,08,1.10,62.0,M,-33.4,M,,*69
215,3,-0.06,0.00,-0.07,-1.69,-0.31,0.13,-0.1200,0.0648,0.0120,-0.9906,$GPGGA,143028.600,3850.0996,N,07730.3751,W,1,08,1.10,62.0,M,-33.4,M,,*6A
216,3,-0.13,-0.07,0.08,-1.31,-0.62,0.50,-0.1199,0.0647,0.0133,-0.9906,$GPGGA,143028.700,3850.0996,N,07730.3751,W,1,08,1.10,62.0,M,-33.4,M,,*6B
217,3,-0.07,-0.13,-0.04,-0.81,0.31,0.19,-0.1194,0.0649,0.0143,-0.9906,$GPGGA,143028.800,3850.0996,N,07730.3751,W,1,08,1.10,62.0,M,-33.4,M,,*64
218,3,0.09,-0.11,-0.17,-0.50,0.06,-1.19,-0.1196,0.0649,0.0147,-0.9906,$GPGGA,143028.900,3850.0996,N,07730.3751,W,1,08,1.10,62.0,M,-33.4,M,,*65
219,3,-0.21,-0.18,0.17,-0.06,-0.56,-0.75,-0.1204,0.0646,0.0150,-0.9905,$GPGGA,143029.000,3850.0996,N,07730.3751,W,1,08,1.10,62.0,M,-33.4,M,,*6D
220,3,0.15,0.17,0.13,1.00,0.88,0.44,-0.1202,0.0651,0.0146,-0.9905,$GPGGA,143029.100,3850.0996,N,07730.3751,W,1,08,1.10,62.0,M,-33.4,M,,*6C
221,3,-0.09,-0.08,-0.14,1.56,-1.69,-0.56,-0.1203,0.0641,0.0132,-0.9906,$GPGGA,143029.200,3850.0996,N,07730.3751,W,1,08,1.10,62.0,M,-33.4,M,,*6F
222,3,0.15,0.06,0.02,0.75,1.69,-1.12,-0.1206,0.0644,0.0124,-0.9905,$GPGGA,143029.300,3850.0996,N,07730.3751,W,1,08,1.10,62.0,M,-33.4,M,,*6E
223,3,-0.15,-0.24,-0.07,0.50,-1.75,-1.31,-0.1220,0.0641,0.0123,-0.9904,$GPGGA,143029.400,3850.0996,N,07730.3751,W,1,08,1.10,62.0,M,-33.4,M,,*69
224,3,-0.53,0.18,0.27,0.50,1.69,-0.37,-0.1227,0.0641,0.0121,-0.9903,$GPGGA,143029.500,3850.0996,N,07730.3751,W,1,08,1.10,62.0,M,-33.4,M,,*68
225,3,0.42,-0.09,0.00,1.50,-1.44,3.75,-0.1205,0.0645,0.0111,-0.9905,$GPGGA,143029.600,3850.0996,N,07730.3751,W,1,08,1.10,62.0,M,-33.4,M,,*6B
226,3,-0.03,-0.22,0.16,3.94,-0.31,0.37,-0.1198,0.0634,0.0090,-0.9907,$GPGGA,143029.700,3850.0996,N,07730.3751,W,1,08,1.10,62.0,M,-33.4,M,,*6A
227,3,-0.06,0.13,-0.15,4.44,0.25,-0.44,-0.1201,0.0628,0.0054,-0.9908,$GPGGA,143029.800,3850.0996,N,07730.3751,W,1,08,1.10,62.0,M,-33.4,M,,*65
228,3,0.75,0.08,-0.14,2.31,0.19,0.06,-0.1205,0.0624,0.0022,-0.9907,$GPGGA,143029.900,3850.0996,N,07730.3751,W,1,08,1.10,61.9,M,-33.4,M,,*6E
229,3,-0.21,-0.03,-0.26,0.31,2.31,-2.75,-0.1224,0.0630,0.0010,-0.9905,$GPGGA,143030.000,3850.0996,N,07730.3751,W,1,08,1.10,61.9,M,-33.4,M,,*6F
230,3,0.76,0.42,0.19,1.37,-0.44,1.50,-0.1229,0.0629,0.0009,-0.9904,$GPGGA,143030.100,3850.0996,N,07730.3751,W,1,08,1.11,61.9,M,-33.4,M,,*6F
231,3,-0.49,-0.33,-0.32,1.87,1.06,-1.00,-0.1230,0.0636,-0.0012,-0.9904,$GPGGA,143030.200,3850.0996,N,07730.3751,W,1,08,1.10,61.9,M,-33.4,M,,*6D
232,3,-0.16,0.27,0.34,0.13,-0.50,-1.12,-0.1244,0.0625,-0.0015,-0.9902,$GPGGA,143030.300,3850.0996,N,07730.3751,W,1,08,1.10,61.9,M,-33.4,M,,*6C
233,3,-0.10,-0.05,-0.12,1.06,0.31,-0.94,-0.1246,0.0640,-0.0024,-0.9901,$GPGGA,143030.400,3850.0996,N,07730.3751,W,1,08,1.10,61.9,M,-33.4,M,,*6B
234,3,0.00,0.17,-0.09,-0.31,-0.94,-0.81,-0.1254,0.0621,-0.0024,-0.9902,$GPGGA,143030.500,3850.0996,N,07730.3751,W,1,08,1.10,61.9,M,-33.4,M,,*6A
235,3,-0.06,-0.25,0.06,-1.12,0.94,-1.37,-0.1263,0.0644,-0.0020,-0.9899,$GPGGA,143030.600,3850.0996,N,07730.3751,W,1,08,1.10,61.9,M,-33.4,M,,*69
236,3,-0.28,-0.01,0.08,-0.19,-0.81,-1.44,-0.1274,0.0631,-0.0016,-0.9899,$GPGGA,143030.700,3850.0996,N,07730.3751,W,1,08,1.10,61.9,M,-33.4,M,,*68
237,3,-0.81,0.03,-0.19,0.56,-0.44,0.56,-0.1277,0.0638,-0.0022,-0.9897,$GPGGA,143030.800,3850.0996,N,07730.3751,W,1,08,1.10,61.9,M,-33.4,M,,*67
238,3,-0.03,0.07,-0.11,0.00,-0.81,1.00,-0.1272,0.0628,-0.0027,-0.9899,$GPGGA,143030.900,3850.0996,N,07730.3751,W,1,08,1.10,61.9,M,-33.4,M,,*66
239,3,0.00,-0.08,0.01,-0.69,-0.25,0.06,-0.1267,0.0630,-0.0027,-0.9899,$GPGGA,143031.000,3850.0996,N,07730.3751,W,1,08,1.10,61.9,M,-33.4,M,,*6E
240,3,-0.18,0.11,0.00,-0.13,-0.75,-0.19,-0.1267,0.0623,-0.0025,-0.9900,$GPGGA,143031.100,3850.0996,N,07730.3751,W,1,08,1.10,61.9,M,-33.4,M,,*6F
241,3,-0.08,-0.69,0.11,-0.37,0.94,0.37,-0.1266,0.0630,-0.0027,-0.9899,$GPGGA,143031.200,3850.0996,N,07730.3751,W,1,08,1.10,61.9,M,-33.4,M,,*6C
242,3,0.58,0.14,0.22,1.75,0.00,-1.37,-0.1270,0.0622,-0.0034,-0.9899,$GPGGA,143031.300,3850.0996,N,07730.3751,W,1,08,1.10,61.9,M,-33.4,M,,*6D
243,3,-0.64,-0.07,-0.21,1.62,2.25,-1.56,-0.1286,0.0644,-0.0053,-0.9896,$GPGGA,143031.400,3850.0996,N,07730.3751,W,1,08,1.10,61.9,M,-33.4,M,,*6A
244,3,0.12,0.22,0.20,1.62,-1.12,-0.50,-0.1294,0.0635,-0.0067,-0.9896,$GPGGA,143031.500,3850.0996,N,07730.3751,W,1,08,1.10,61.9,M,-33.4,M,,*6B
245,3,0.00,0.19,-0.30,-0.50,2.50,0.88,-0.1289,0.0651,-0.0082,-0.9895,$GPGGA,143031.600,3850.0996,N,07730.3751,W,1,08,1.10,61.9,M,-33.4,M,,*68
246,3,0.01,0.17,0.13,-2.19,-2.12,-1.12,-0.1291,0.0644,-0.0070,-0.9895,$GPGGA,143031.700,3850.0996,N,07730.3751,W,1,08,1.10,61.9,M,-33.4,M,,*69
247,3,-0.08,-0.58,0.01,-0.37,1.19,-0.75,-0.1299,0.0646,-0.0063,-0.9894,$GPGGA,143031.800,3850.0996,N,07730.3751,W,1,08,1.07,61.9,M,-33.4,M,,*60
248,3,0.28,0.84,0.08,0.50,0.44,-0.56,-0.1306,0.0654,-0.0046,-0.9893,$GPGGA,143031.900,3850.0996,N,07730.3751,W,1,08,1.07,61.9,M,-33.4,M,,*61
249,3,-0.39,-0.02,-0.24,0.13,-1.19,0.88,-0.1301,0.0652,-0.0047,-0.9893,$GPGGA,143032.000,3850.0996,N,07730.3751,W,1,08,1.10,61.9,M,-33.4,M,,*6D
250,3,0.16,-0.27,0.10,-0.37,0.62,0.37,-0.1298,0.0648,-0.0046,-0.9894,$GPGGA,143032.100,3850.0996,N,07730.3751,W,1,08,1.07,61.9,M,-33.4,M,,*6A
251,3,-0.06,0.17,0.09,1.19,-1.19,0.00,-0.1298,0.0646,-0.0047,-0.9894,$GPGGA,143032.200,3850.0996,N,07730.3751,W,1,08,1.07,61.9,M,-33.4,M,,*69
252,3,-0.14,0.20,-0.25,0.94,0.50,0.69,-0.1298,0.0644,-0.0065,-0.9894,$GPGGA,143032.300,3850.0996,N,07730.3751,W,1,08,1.10,61.9,M,-33.4,M,,*6E
253,3,0.14,0.07,-0.13,-0.81,-0.88,0.44,-0.1293,0.0647,-0.0069,-0.9894,$GPGGA,143032.400,3850.0996,N,07730.3751,W,1,08,1.07,61.9,M,-33.4,M,,*6F
254,3,0.02,0.09,-0.15,-1.12,-0.19,-0.13,-0.1293,0.0635,-0.0059,-0.9896,$GPGGA,143032.500,3850.0996,N,07730.3751,W,1,08,1.07,61.9,M,-33.4,M,,*6E
255,3,0.50,-0.22,0.11,-1.50,1.62,0.69,-0.1287,0.0646,-0.0048,-0.9896,$GPGGA,143032.600,3850.0996,N,07730.3751,W,1,08,1.07,61.9,M,-33.4,M,,*6D
256,3,-0.29,-0.03,-0.05,0.81,0.81,-2.19,-0.1298,0.0654,-0.0048,-0.9894,$GPGGA,143032.700,3850.0996,N,07730.3751,W,1,08,1.07,61.9,M,-33.4,M,,*6C
257,3,0.07,0.27,0.00,0.31,0.25,0.19,-0.1304,0.0658,-0.0058,-0.9893,$GPGGA,143032.800,3850.0996,N,07730.3751,W,1,08,1.07,61.9,M,-33.4,M,,*63
258,3,0.07,-0.13,-0.07,-0.13,-0.88,-0.13,-0.1304,0.0654,-0.0059,-0.9893,$GPGGA,143032.900,3850.0996,N,07730.3751,W,1,08,1.07,61.9,M,-33.4,M,,*62
259,3,0.03,0.09,-0.06,-0.06,0.31,0.00,-0.1304,0.0654,-0.0059,-0.9893,$GPGGA,143033.000,3850.0996,N,07730.3751,W,1,08,1.07,61.9,M,-33.4,M,,*6A
260,3,-0.26,-0.38,0.03,-1.12,-0.25,-0.94,-0.1309,0.0652,-0.0057,-0.9893,$GPGGA,143033.100,3850.0996,N,07730.3751,W,1,08,1.07,61.9,M,-33.4,M,,*6B
261,3,0.40,0.15,0.39,-2.00,2.25,1.19,-0.1309,0.0674,-0.0047,-0.9891,$GPGGA,143033.200,3850.0996,N,07730.3751,W,1,08,1.07,61.9,M,-33.4,M,,*68
262,3,-0.49,-0.16,0.21,-1.19,-3.06,-1.12,-0.1302,0.0663,-0.0032,-0.9893,$GPGGA,143033.300,3850.0996,N,07730.3751,W,1,08,1.07,61.9,M,-33.4,M,,*69
263,3,0.38,-0.23,0.26,-0.25,3.44,2.00,-0.1300,0.0673,-0.0031,-0.9892,$GPGGA,143033.400,3850.0996,N,07730.3751,W,1,08,1.07,61.9,M,-33.4,M,,*6E
264,3,-0.07,0.10,0.18,0.81,-2.00,0.06,-0.1289,0.0677,-0.0033,-0.9893,$GPGGA,143033.500,3850.0996,N,07730.3751,W,1,08,1.07,61.9,M,-33.4,M,,*6F
265,3,-0.06,0.16,-0.10,0.56,1.06,0.50,-0.1289,0.0676,-0.0043,-0.9893,$GPGGA,143033.600,3850.0996,N,07730.3751,W,1,08,1.07,61.9,M,-33.4,M,,*6C
266,3,-0.12,0.12,-0.02,0.13,-0.94,-0.13,-0.1288,0.0682,-0.0051,-0.9893,$GPGGA,143033.700,3850.0996,N,07730.3751,W,1,08,1.07,61.9,M,-33.4,M,,*6D
267,3,-0.22,-0.02,0.12,-0.13,0.37,-0.31,-0.1288,0.0679,-0.0052,-0.9893,$GPGGA,143033.800,3850.0996,N,07730.3751,W,1,08,1.07,61.9,M,-33.4,M,,*62
268,3,0.02,0.09,0.10,-0.06,-0.56,0.44,-0.1288,0.0679,-0.0052,-0.9893,$GPGGA,143033.900,3850.0996,N,07730.3751,W,1,08,1.07,61.9,M,-33.4,M,,*63
269,3,-0.14,0.10,0.10,0.25,0.44,0.25,-0.1288,0.0681,-0.0056,-0.9893,$GPGGA,143034.000,3850.0996,N,07730.3751,W,1,08,1.07,61.9,M,-33.4,M,,*6D
270,3,-0.27,0.17,0.17,-0.31,-0.13,1.19,-0.1282,0.0688,-0.0060,-0.9893,$GPGGA,143034.100,3850.0996,N,07730.3751,W,1,08,1.07,61.9,M,-33.4,M,,*6C
271,3,0.30,0.04,0.12,0.50,-1.19,1.62,-0.1270,0.0689,-0.0070,-0.9895,$GPGGA,143034.200,3850.0996,N,07730.3751,W,1,08,1.07,61.9,M,-33.4,M,,*6F
272,3,0.00,-0.10,0.13,-0.31,-1.19,-0.06,-0.1265,0.0672,-0.0067,-0.9897,$GPGGA,143034.300,3850.0996,N,07730.3751,W,1,08,1.07,61.9,M,-33.4,M,,*6E
273,3,0.00,0.07,0.13,-0.19,2.50,0.44,-0.1265,0.0689,-0.0067,-0.9896,$GPGGA,143034.400,3850.0996,N,07730.3751,W,1,08,1.07,61.9,M,-33.4,M,,*69
274,3,-0.10,0.17,0.14,1.50,-1.94,0.06,-0.1264,0.0685,-0.0079,-0.9896,$GPGGA,143034.500,3850.0996,N,07730.3751,W,1,08,1.07,61.9,M,-33.4,M,,*68
275,3,-0.18,-0.01,-0.04,0.56,-0.19,-0.25,-0.1267,0.0676,-0.0091,-0.9896,$GPGGA,143034.600,3850.0996,N,07730.3751,W,1,08,1.07,61.9,M,-33.4,M,,*6B
276,3,-0.10,0.04,-0.02,-0.50,0.75,0.56,-0.1267,0.0690,-0.0095,-0.9895,$GPGGA,143034.700,3850.0996,N,07730.3751,W,1,08,1.07,61.9,M,-33.4,M,,*6A
277,3,0.14,-0.09,0.03,-0.56,-0.62,0.44,-0.1262,0.0688,-0.0093,-0.9896,$GPGGA,143034.800,3850.0996,N,07730.3751,W,1,08,1.07,61.9,M,-33.4,M,,*65
278,3,-0.12,0.13,0.20,0.37,-0.06,-0.25,-0.1263,0.0685,-0.0086,-0.9896,$GPGGA,143034.900,3850.0996,N,07730.3751,W,1,08,1.07,61.9,M,-33.4,M,,*64
279,3,-0.60,0.12,-0.25,1.62,-0.31,0.88,-0.1260,0.0688,-0.0101,-0.9896,$GPGGA,143035.000,3850.0996,N,07730.3751,W,1,08,1.07,61.9,M,-33.4,M,,*6C
280,3,-0.39,0.00,0.04,-0.69,0.50,0.81,-0.1252,0.0688,-0.0106,-0.9897,$GPGGA,143035.100,3850.0996,N,07730.3751,W,1,08,1.07,61.9,M,-33.4,M,,*6D
281,3,0.19,0.04,0.28,-1.25,-1.44,0.75,-0.1245,0.0689,-0.0098,-0.9898,$GPGGA,143035.200,3850.0996,N,07730.3751,W,1,08,1.07,61.9,M,-33.4,M,,*6E
282,3,-0.25,-0.02,0.14,-0.94,-0.81,-2.06,-0.1254,0.0668,-0.0090,-0.9898,$GPGGA,143035.300,3850.0996,N,07730.3751,W,1,08,1.07,61.9,M,-33.4,M,,*6F
283,3,-0.58,-0.01,0.11,-1.06,1.62,1.12,-0.1259,0.0690,-0.0084,-0.9896,$GPGGA,143035.400,3850.0996,N,07730.3751,W,1,08,1.07,61.9,M,-33.4,M,,*68
284,3,0.15,0.05,0.02,0.44,-1.37,-1.12,-0.1250,0.0692,-0.0080,-0.9897,$GPGGA,143035.500,3850.0996,N,07730.3751,W,1,08,1.07,61.9,M,-33.4,M,,*69
285,3,-0.59,0.01,0.13,-0.94,-0.62,-0.62,-0.1265,0.0684,-0.0076,-0.9896,$GPGGA,143035.600,3850.0996,N,07730.3751,W,1,08,1.07,61.9,M,-33.4,M,,*6A
286,3,-0.16,0.02,0.31,0.37,1.37,0.50,-0.1257,0.0696,-0.0077,-0.9896,$GPGGA,143035.700,3850.0996,N,07730.3751,W,1,08,1.07,61.9,M,-33.4,M,,*6B
287,3,-0.28,0.12,0.11,1.44,-3.62,1.00,-0.1256,0.0681,-0.0084,-0.9897,$GPGGA,143035.800,3850.0996,N,07730.3751,W,1,08,1.07,61.9,M,-33.4,M,,*64
288,3,-0.07,-0.12,0.08,2.19,2.19,0.31,-0.1248,0.0676,-0.0099,-0.9898,$GPGGA,143035.900,3850.0996,N,07730.3751,W,1,08,1.07,61.9,M,-33.4,M,,*65
289,3,-0.21,0.50,-0.06,1.19,-2.00,0.56,-0.1249,0.0673,-0.0112,-0.9898,$GPGGA,143036.000,3850.0996,N,07730.3751,W,1,08,1.07,61.9,M,-33.4,M,,*6F
290,3,0.32,-0.06,-0.04,-2.44,2.19,1.06,-0.1241,0.0684,-0.0115,-0.9899,$GPGGA,143036.100,3850.0996,N,07730.3751,W,1,08,1.07,61.9,M,-33.4,M,,*6E
291,3,-0.19,-0.17,0.02,-1.75,-1.00,-2.56,-0.1256,0.0691,-0.0095,-0.9896,$GPGGA,143036.200,3850.0996,N,07730.3751,W,1,08,1.07,61.9,M,-33.4,M,,*6D
292,3,-0.07,0.20,0.08,-2.12,1.56,-0.19,-0.1263,0.0694,-0.0081,-0.9895,$GPGGA,143036.300,3850.0996,N,07730.3751,W,1,08,1.07,61.9,M,-33.4,M,,*6C
293,3,0.22,-0.16,0.01,-2.06,-2.62,-2.56,-0.1271,0.0693,-0.0060,-0.9894,$GPGGA,143036.400,3850.0996,N,07730.3751,W,1,08,1.07,61.9,M,-33.4,M,,*6B
294,3,-0.33,-0.07,0.19,-1.12,1.56,-2.44,-0.1296,0.0683,-0.0042,-0.9892,$GPGGA,143036.500,3850.0996,N,07730.3751,W,1,08,1.07,61.9,M,-33.4,M,,*6A
295,3,-0.10,0.10,0.33,-1.19,1.56,3.56,-0.1292,0.0718,-0.0038,-0.9890,$GPGGA,143036.600,3850.0996,N,07730.3751,W,1,08,1.07,61.9,M,-33.4,M,,*69
296,3,-0.39,0.01,0.16,-0.37,1.12,1.94,-0.1259,0.0731,-0.0041,-0.9893,$GPGGA,143036.700,3850.0996,N,07730.3751,W,1,08,1.07,61.9,M,-33.4,M,,*68
297,3,1.15,-0.25,0.66,-1.50,-0.56,3.87,-0.1224,0.0736,-0.0037,-0.9897,$GPGGA,143036.800,3850.0996,N,07730.3750,W,1,08,1.07,61.9,M,-33.4,M,,*66
298,3,-0.35,0.02,0.10,1.19,-1.69,3.00,-0.1208,0.0718,-0.0045,-0.9901,$GPGGA,143036.900,3850.0996,N,07730.3750,W,1,08,1.07,61.9,M,-33.4,M,,*67
299,3,0.21,0.22,0.05,0.75,1.19,0.50,-0.1191,0.0720,-0.0053,-0.9902,$GPGGA,143037.000,3850.0996,N,07730.3750,W,1,08,1.07,61.9,M,-33.4,M,,*6F
300,3,-0.20,0.39,-0.19,0.00,-1.31,0.75,-0.1188,0.0716,-0.0065,-0.9903,$GPGGA,143037.100,3850.0996,N,07730.3750,W,1,08,1.07,61.9,M,-33.4,M,,*6E
301,3,0.72,0.01,1.39,-4.00,1.19,0.62,-0.1180,0.0721,-0.0050,-0.9904,$GPGGA,143037.200,3850.0996,N,07730.3750,W,1,08,1.07,61.9,M,-33.4,M,,*6D
302,3,0.50,0.12,0.07,-2.50,-0.69,-2.19,-0.1184,0.0717,-0.0027,-0.9904,$GPGGA,143037.300,3850.0996,N,07730.3750,W,1,08,1.07,61.9,M,-33.4,M,,*6C
303,3,0.11,-0.01,0.15,0.25,0.69,-0.50,-0.1196,0.0714,-0.0016,-0.9902,$GPGGA,143037.400,3850.0996,N,07730.3750,W,1,08,1.07,61.9,M,-33.4,M,,*6B
304,3,0.26,-0.10,-0.21,2.12,0.06,1.50,-0.1193,0.0711,-0.0027,-0.9903,$GPGGA,143037.500,3850.0996,N,07730.3750,W,1,08,1.07,61.9,M,-33.4,M,,*6A
305,3,-0.07,0.21,-0.11,0.75,1.87,2.25,-0.1179,0.0718,-0.0042,-0.9904,$GPGGA,143037.600,3850.0996,N,07730.3750,W,1,08,1.07,61.9,M,-33.4,M,,*69
306,3,-0.69,0.38,-0.10,0.37,-0.81,-0.19,-0.1172,0.0723,-0.0045,-0.9905,$GPGGA,143037.700,3850.0996,N,07730.3750,W,1,08,1.07,61.9,M,-33.4,M,,*68
307,3,0.49,-0.01,0.01,-1.81,1.31,0.31,-0.1165,0.0725,-0.0037,-0.9905,$GPGGA,143037.800,3850.0996,N,07730.3750,W,1,08,1.07,61.9,M,-33.4,M,,*67
308,3,-0.36,-0.20,0.25,1.12,-2.62,-1.56,-0.1179,0.0706,-0.0027,-0.9905,$GPGGA,143037.900,3850.0996,N,07730.3750,W,1,08,1.07,61.9,M,-33.4,M,,*66
309,3,-0.32,-0.08,0.26,0.56,0.62,1.44,-0.1182,0.0704,-0.0027,-0.9905,$GPGGA,143038.000,3850.0996,N,07730.3750,W,1,08,1.07,61.9,M,-33.4,M,,*60
310,3,-0.31,-0.04,0.14,2.00,-0.25,1.25,-0.1170,0.0708,-0.0042,-0.9906,$GPGGA,143038.100,3850.0996,N,07730.3750,W,1,08,1.07,61.9,M,-33.4,M,,*61
311,3,0.10,0.34,0.01,0.06,0.75,1.44,-0.1157,0.0711,-0.0049,-0.9907,$GPGGA,143038.200,3850.0996,N,07730.3750,W,1,08,1.07,61.9,M,-33.4,M,,*62
312,3,-0.04,0.07,0.19,-0.31,-1.00,0.25,-0.1155,0.0710,-0.0052,-0.9907,$GPGGA,143038.300,3850.0996,N,07730.3750,W,1,08,1.07,61.9,M,-33.4,M,,*63
313,3,-0.20,0.06,-0.17,-1.56,1.44,2.56,-0.1144,0.0712,-0.0050,-0.9908,$GPGGA,143038.400,3850.0996,N,07730.3750,W,1,08,1.07,61.9,M,-33.4,M,,*64
314,3,-0.03,0.24,0.01,-1.69,-1.12,0.25,-0.1133,0.0720,-0.0038,-0.9910,$GPGGA,143038.500,3850.0996,N,07730.3750,W,1,08,1.07,61.9,M,-33.4,M,,*65
315,3,-0.94,0.31,0.17,-0.13,-1.31,-3.06,-0.1140,0.0705,-0.0029,-0.9910,$GPGGA,143038.600,3850.0996,N,07730.3750,W,1,08,1.07,61.9,M,-33.4,M,,*66
316,3,-0.03,0.11,-0.30,1.25,2.87,-0.88,-0.1147,0.0718,-0.0032,-0.9908,$GPGGA,143038.700,3850.0996,N,07730.3750,W,1,08,1.07,61.9,M,-33.4,M,,*67
317,3,0.07,0.22,-0.47,2.06,-0.62,0.81,-0.1146,0.0723,-0.0043,-0.9908,$GPGGA,143038.800,3850.0996,N,07730.3750,W,1,08,1.07,61.9,M,-33.4,M,,*68
318,3,-0.03,0.29,-0.24,0.94,0.31,1.12,-0.1140,0.0721,-0.0062,-0.9908,$GPGGA,143038.900,3850.0996,N,07730.3750,W,1,08,1.07,61.9,M,-33.4,M,,*69
319,3,0.27,-0.10,0.60,-0.69,-1.19,-0.13,-0.1132,0.0712,-0.0073,-0.9910,$GPGGA,143039.000,3850.0996,N,07730.3750,W,1,08,1.07,61.9,M,-33.4,M,,*61
320,3,-0.28,0.02,0.10,3.19,-0.94,0.31,-0.1136,0.0702,-0.0081,-0.9910,$GPGGA,143039.100,3850.0996,N,07730.3750,W,1,08,1.07,61.9,M,-33.4,M,,*60
321,3,-0.10,-0.14,-0.30,-0.37,0.44,0.06,-0.1133,0.0693,-0.0095,-0.9911,$GPGGA,143039.200,3850.0996,N,07730.3750,W,1,08,1.07,61.9,M,-33.4,M,,*63
322,3,0.17,0.21,0.20,-2.37,0.75,0.06,-0.1129,0.0705,-0.0079,-0.9911,$GPGGA,143039.300,3850.0996,N,07730.3750,W,1,08,1.07,61.9,M,-33.4,M,,*62
323,3,-0.07,-0.11,0.09,-0.31,-1.37,-1.00,-0.1134,0.0694,-0.0073,-0.9911,$GPGGA,143039.400,3850.0996,N,07730.3750,W,1,08,1.07,61.9,M,-33.4,M,,*65
324,3,-0.25,0.00,0.00,-1.50,1.56,0.13,-0.1136,0.0701,-0.0065,-0.9910,$GPGGA,143039.500,3850.0996,N,07730.3750,W,1,08,1.07,61.9,M,-33.4,M,,*64
325,3,-0.38,-0.27,0.23,0.13,0.50,0.31,-0.1135,0.0712,-0.0059,-0.9910,$GPGGA,143039.600,3850.0996,N,07730.3750,W,1,08,1.07,61.9,M,-33.4,M,,*67
326,3,-0.15,-0.04,0.22,-0.69,-0.31,1.00,-0.1127,0.0714,-0.0063,-0.9910,$GPGGA,143039.700,3850.0996,N,07730.3750,W,1,08,1.07,61.9,M,-33.4,M,,*66
327,3,-0.10,0.01,0.23,-0.50,-0.25,1.44,-0.1117,0.0713,-0.0062,-0.9911,$GPGGA,143039.800,3850.0995,N,07730.3750,W,1,08,1.07,61.9,M,-33.4,M,,*6A
328,3,0.19,-0.09,0.19,-0.50,0.69,1.87,-0.1104,0.0718,-0.0063,-0.9913,$GPGGA,143039.900,3850.0995,N,07730.3750,W,1,08,1.07,61.9,M,-33.4,M,,*6B
329,3,-0.46,-0.50,-0.12,-0.06,-0.81,-1.06,-0.1102,0.0698,-0.0056,-0.9915,$GPGGA,143040.000,3850.0995,N,07730.3750,W,1,08,1.07,61.9,M,-33.4,M,,*6C
330,3,0.89,0.59,0.31,-0.62,2.19,1.69,-0.1095,0.0721,-0.0048,-0.9913,$GPGGA,143040.100,3850.0995,N,07730.3750,W,1,08,1.07,61.9,M,-33.4,M,,*6D
331,3,-1.32,0.07,-0.31,1.37,-5.62,-0.56,-0.1094,0.0684,-0.0053,-0.9916,$GPGGA,143040.200,3850.0995,N,07730.3750,W,1,08,1.07,61.9,M,-33.4,M,,*6E
332,3,0.20,0.13,0.14,-1.12,4.94,0.44,-0.1098,0.0693,-0.0052,-0.9915,$GPGGA,143040.300,3850.0995,N,07730.3750,W,1,08,1.07,61.9,M,-33.4,M,,*6F
333,3,0.08,-0.13,0.20,-1.12,-3.37,-1.00,-0.1092,0.0692,-0.0039,-0.9916,$GPGGA,143040.400,3850.0995,N,07730.3750,W,1,08,1.07,61.9,M,-33.4,M,,*68
334,3,-0.12,0.04,0.13,-0.62,0.88,-1.12,-0.1109,0.0681,-0.0032,-0.9915,$GPGGA,143040.500,3850.0995,N,07730.3750,W,1,08,1.07,61.9,M,-33.4,M,,*69
335,3,0.10,-0.01,0.00,-0.56,-2.19,-2.31,-0.1118,0.0677,-0.0028,-0.9914,$GPGGA,143040.600,3850.0995,N,07730.3750,W,1,08,1.07,61.9,M,-33.4,M,,*6A
336,3,-0.32,0.58,0.02,-0.13,2.37,-1.62,-0.1140,0.0674,-0.0022,-0.9912,$GPGGA,143040.700,3850.0995,N,07730.3750,W,1,08,1.07,61.9,M,-33.4,M,,*6B
337,3,-0.12,0.09,0.03,-1.06,-0.62,1.81,-0.1133,0.0693,-0.0026,-0.9911,$GPGGA,143040.800,3850.0995,N,07730.3750,W,1,08,1.07,61.9,M,-33.4,M,,*64
338,3,-0.08,-0.22,0.09,-0.94,0.44,-0.19,-0.1125,0.0682,-0.0018,-0.9913,$GPGGA,143040.900,3850.0995,N,07730.3750,W,1,08,1.07,61.9,M,-33.4,M,,*65
339,3,0.02,0.06,0.02,0.06,0.00,0.37,-0.1125,0.0693,-0.0015,-0.9912,$GPGGA,143041.000,3850.0995,N,07730.3750,W,1,08,1.07,61.9,M,-33.4,M,,*6D
340,3,-0.06,-0.05,-0.01,0.62,0.62,0.56,-0.1121,0.0685,-0.0019,-0.9913,$GPGGA,143041.100,3850.0995,N,07730.3750,W,1,08,1.07,61.9,M,-33.4,M,,*6C
341,3,0.28,0.15,-0.10,-0.37,-1.75,-0.31,-0.1121,0.0683,-0.0024,-0.9913,$GPGGA,143041.200,3850.0995,N,07730.3750,W,1,08,1.07,61.9,M,-33.4,M,,*6F
342,3,-0.72,0.29,-0.02,-2.62,-0.37,-1.50,-0.1131,0.0662,-0.0007,-0.9914,$GPGGA,143041.300,3850.0995,N,07730.3750,W,1,08,1.07,61.9,M,-33.4,M,,*6E
343,3,0.23,-0.02,-0.02,-1.87,0.37,0.13,-0.1132,0.0679,0.0007,-0.9913,$GPGGA,143041.400,3850.0995,N,07730.3750,W,1,08,1.07,61.9,M,-33.4,M,,*69
344,3,-0.14,0.03,0.31,-1.06,-0.88,-0.56,-0.1131,0.0667,0.0024,-0.9913,$GPGGA,143041.500,3850.0995,N,07730.3750,W,1,08,1.07,61.9,M,-33.4,M,,*68
345,3,-0.29,0.04,-0.09,-0.56,0.13,0.37,-0.1131,0.0676,0.0027,-0.9913,$GPGGA,143041.600,3850.0995,N,07730.3750,W,1,08,1.07,61.9,M,-33.4,M,,*6B
346,3,-0.15,-0.03,0.43,-0.69,-1.94,0.62,-0.1130,0.0657,0.0037,-0.9914,$GPGGA,143041.700,3850.0995,N,07730.3750,W,1,08,1.07,61.9,M,-33.4,M,,*6A
347,3,-0.02,-0.26,0.24,0.31,1.69,1.56,-0.1118,0.0663,0.0035,-0.9915,$GPGGA,143041.800,3850.0995,N,07730.3750,W,1,08,1.07,61.9,M,-33.4,M,,*65
348,3,-0.14,0.20,0.09,1.00,-2.50,1.62,-0.1111,0.0655,0.0029,-0.9916,$GPGGA,143041.900,3850.0995,N,07730.3750,W,1,08,1.07,61.9,M,-33.4,M,,*64
349,3,0.03,-0.02,0.16,1.12,1.44,2.00,-0.1093,0.0656,0.0020,-0.9918,$GPGGA,143042.000,3850.0995,N,07730.3750,W,1,08,1.07,61.9,M,-33.4,M,,*6E
350,3,0.04,0.16,0.08,0.81,-1.25,0.62,-0.1084,0.0654,0.0013,-0.9919,$GPGGA,143042.100,3850.0995,N,07730.3750,W,1,08,1.07,61.9,M,-33.4,M,,*6F
351,3,0.00,0.03,0.02,1.06,0.81,1.00,-0.1082,0.0651,0.0000,-0.9920,$GPGGA,143042.200,3850.0995,N,07730.3750,W,1,08,1.07,61.9,M,-33.4,M,,*6C
352,3,-0.55,-0.43,0.10,0.50,-0.94,0.19,-0.1078,0.0650,-0.0004,-0.9921,$GPGGA,143042.300,3850.0995,N,07730.3750,W,1,08,1.07,61.9,M,-33.4,M,,*6D
353,3,-0.13,0.31,0.18,-0.56,-0.13,1.44,-0.1074,0.0648,0.0001,-0.9921,$GPGGA,143042.400,3850.0995,N,07730.3750,W,1,08,1.07,61.9,M,-33.4,M,,*6A
354,3,0.11,0.06,0.19,-0.19,-0.81,1.00,-0.1062,0.0649,-0.0004,-0.9922,$GPGGA,143042.500,3850.0995,N,07730.3750,W,1,08,1.07,61.9,M,-33.4,M,,*6B
355,3,-0.72,0.03,0.09,0.81,0.81,-0.25,-0.1063,0.0638,-0.0004,-0.9922,$GPGGA,143042.600,3850.0995,N,07730.3750,W,1,08,1.07,61.9,M,-33.4,M,,*68
356,3,0.29,0.26,-0.29,-1.81,1.31,-1.00,-0.1061,0.0648,-0.0002,-0.9922,$GPGGA,143042.700,3850.0995,N,07730.3750,W,1,08,1.07,61.9,M,-33.4,M,,*69
357,3,-0.08,0.40,-0.21,-6.56,1.37,0.88,-0.1061,0.0665,0.0032,-0.9921,$GPGGA,143042.800,3850.0995,N,07730.3750,W,1,08,1.07,61.9,M,-33.4,M,,*66
358,3,0.00,-0.16,-0.18,-7.62,-1.00,-2.94,-0.1064,0.0672,0.0093,-0.9920,$GPGGA,143042.900,3850.0995,N,07730.3750,W,1,08,1.07,61.9,M,-33.4,M,,*67
359,3,-0.20,-0.18,0.48,-8.06,-0.62,-2.81,-0.1084,0.0668,0.0171,-0.9917,$GPGGA,143043.000,3850.0995,N,07730.3750,W,1,08,1.07,61.9,M,-33.4,M,,*6F
360,3,-0.23,-0.32,0.13,-5.81,0.00,2.06,-0.1085,0.0678,0.0226,-0.9915,$GPGGA,143043.100,3850.0995,N,07730.3750,W,1,08,1.07,61.9,M,-33.4,M,,*6E
361,3,-0.01,0.18,0.31,-2.94,-1.75,3.12,-0.1060,0.0670,0.0262,-0.9918,$GPGGA,143043.200,3850.0995,N,07730.3750,W,1,08,1.07,61.9,M,-33.4,M,,*6D
362,3,-0.09,0.09,-0.01,-3.19,0.81,6.87,-0.1013,0.0668,0.0281,-0.9922,$GPGGA,143043.300,3850.0995,N,07730.3750,W,1,08,1.07,61.9,M,-33.4,M,,*6C
363,3,-0.16,0.31,-0.20,-6.81,1.44,6.87,-0.0952,0.0691,0.0317,-0.9926,$GPGGA,143043.400,3850.0995,N,07730.3750,W,1,08,1.07,61.9,M,-33.4,M,,*6B
364,3,0.07,0.10,-0.04,-9.25,-1.06,1.56,-0.0909,0.0699,0.0378,-0.9927,$GPGGA,143043.500,3850.0995,N,07730.3750,W,1,08,1.07,61.9,M,-33.4,M,,*6A
365,3,0.45,0.45,-0.15,-10.56,-3.25,-2.25,-0.0905,0.0701,0.0462,-0.9924,$GPGGA,143043.600,3850.0995,N,07730.3750,W,1,08,1.07,61.9,M,-33.4,M,,*69
366,3,0.04,0.42,-0.30,-12.75,-0.06,-8.38,-0.0945,0.0681,0.0560,-0.9916,$GPGGA,143043.700,3850.0995,N,07730.3750,W,1,08,1.07,61.9,M,-33.4,M,,*68
367,3,-0.12,-0.07,1.47,-9.88,19.06,-6.12,-0.1013,0.0774,0.0672,-0.9896,$GPGGA,143043.800,3850.0995,N,07730.3750,W,1,08,1.07,61.9,M,-33.4,M,,*67
368,3,-0.70,-0.48,-0.61,-0.25,-2.69,-0.25,-0.1044,0.0866,0.0704,-0.9883,$GPGGA,143043.900,3850.0995,N,07730.3750,W,1,08,1.07,61.9,M,-33.4,M,,*66
369,3,-0.05,0.38,-0.24,0.25,0.56,-0.94,-0.1041,0.0826,0.0697,-0.9886,$GPGGA,143044.000,3850.0995,N,07730.3750,W,1,08,1.07,61.9,M,-33.4,M,,*68
370,3,-0.32,0.21,-0.12,-0.75,-2.37,0.75,-0.1033,0.0833,0.0704,-0.9886,$GPGGA,143044.100,3850.0995,N,07730.3750,W,1,08,1.07,61.9,M,-33.4,M,,*69
371,3,-0.09,0.26,0.12,0.31,1.81,-0.88,-0.1035,0.0834,0.0706,-0.9886,$GPGGA,143044.200,3850.0995,N,07730.3750,W,1,08,1.07,61.9,M,-33.4,M,,*6A
372,3,-0.07,-0.08,0.01,-0.50,-1.06,0.62,-0.1032,0.0827,0.0706,-0.9887,$GPGGA,143044.300,3850.0995,N,07730.3750,W,1,08,1.07,61.9,M,-33.4,M,,*6B
373,3,-0.07,0.15,0.09,0.06,-0.69,-0.19,-0.1033,0.0836,0.0700,-0.9886,$GPGGA,143044.400,3850.0995,N,07730.3750,W,1,08,1.07,61.9,M,-33.4,M,,*6C
374,3,-0.09,0.15,0.01,-0.25,0.56,0.31,-0.1031,0.0833,0.0698,-0.9887,$GPGGA,143044.500,3850.0995,N,07730.3750,W,1,08,1.07,61.9,M,-33.4,M,,*6D
375,3,-0.07,0.01,0.04,-0.19,-0.94,0.25,-0.1031,0.0835,0.0695,-0.9887,$GPGGA,143044.600,3850.0995,N,07730.3750,W,1,08,1.07,61.9,M,-33.4,M,,*6E
376,3,-0.07,0.13,0.07,-0.06,0.56,-0.31,-0.1031,0.0836,0.0691,-0.9888,$GPGGA,143044.700,3850.0995,N,07730.3750,W,1,08,1.07,61.9,M,-33.4,M,,*6F
377,3,-0.10,0.11,0.06,-0.25,-0.50,0.25,-0.1030,0.0837,0.0689,-0.9888,$GPGGA,143044.800,3850.0995,N,07730.3750,W,1,08,1.07,61.9,M,-33.4,M,,*60
378,3,-0.08,0.04,0.05,0.00,0.19,-0.19,-0.1030,0.0839,0.0687,-0.9888,$GPGGA,143044.900,3850.0995,N,07730.3750,W,1,08,1.07,61.9,M,-33.4,M,,*61
379,3,-0.09,0.07,0.04,-0.19,-0.06,-0.13,-0.1030,0.0840,0.0685,-0.9888,$GPGGA,143045.000,3850.0995,N,07730.3750,W,1,08,1.07,61.8,M,-33.4,M,,*68
380,3,-0.08,0.07,0.05,-0.19,-0.25,0.06,-0.1030,0.0842,0.0683,-0.9888,$GPGGA,143045.100,3850.0995,N,07730.3750,W,1,08,1.07,61.8,M,-33.4,M,,*69
381,3,-0.08,0.09,0.06,-0.06,0.19,-0.13,-0.1029,0.0843,0.0681,-0.9888,$GPGGA,143045.200,3850.0995,N,07730.3750,W,1,08,1.07,61.8,M,-33.4,M,,*6A
382,3,-0.08,0.06,0.04,-0.13,-0.37,0.06,-0.1029,0.0844,0.0679,-0.9888,$GPGGA,143045.300,3850.0995,N,07730.3750,W,1,08,1.07,61.8,M,-33.4,M,,*6B
383,3,-0.07,0.07,0.08,-0.19,0.19,-0.06,-0.1029,0.0845,0.0678,-0.9888,$GPGGA,143045.400,3850.0995,N,07730.3750,W,1,08,1.07,61.8,M,-33.4,M,,*6C
384,3,-0.06,0.06,0.04,0.13,0.00,0.06,-0.1028,0.0845,0.0677,-0.9888,$GPGGA,143045.500,3850.0995,N,07730.3750,W,1,08,1.07,61.8,M,-33.4,M,,*6D
385,3,-0.07,0.03,0.04,0.00,0.00,0.19,-0.1028,0.0846,0.0676,-0.9888,$GPGGA,143045.600,3850.0995,N,07730.3750,W,1,08,1.07,61.8,M,-33.4,M,,*6E
386,3,-0.09,0.07,0.10,0.00,0.00,-0.06,-0.1028,0.0846,0.0676,-0.9888,$GPGGA,143045.700,3850.0995,N,07730.3750,W,1,08,1.10,61.8,M,-33.4,M,,*69
387,3,-0.09,0.07,0.03,0.00,-0.06,0.06,-0.1028,0.0846,0.0676,-0.9888,$GPGGA,143045.800,3850.0995,N,07730.3750,W,1,08,1.10,61.8,M,-33.4,M,,*66
388,3,-0.08,0.06,0.07,0.06,0.25,0.06,-0.1028,0.0846,0.0676,-0.9888,$GPGGA,143045.900,3850.0995,N,07730.3750,W,1,08,1.07,61.8,M,-33.4,M,,*61
389,3,-0.08,0.05,0.07,0.00,-0.13,0.06,-0.1028,0.0846,0.0676,-0.9888,$GPGGA,143046.000,3850.0995,N,07730.3750,W,1,08,1.07,61.8,M,-33.4,M,,*6B
390,3,-0.07,0.06,0.03,0.00,0.19,0.00,-0.1028,0.0846,0.0676,-0.9888,$GPGGA,143046.100,3850.0995,N,07730.3750,W,1,08,1.07,61.8,M,-33.4,M,,*6A
391,3,-0.06,0.07,0.06,0.19,-0.19,0.06,-0.1028,0.0846,0.0676,-0.9888,$GPGGA,143046.200,3850.0995,N,07730.3750,W,1,08,1.07,61.8,M,-33.4,M,,*69
392,3,-0.06,0.07,0.03,0.00,-0.06,-0.06,-0.1028,0.0846,0.0676,-0.9888,$GPGGA,143046.300,3850.0995,N,07730.3750,W,1,08,1.07,61.8,M,-33.4,M,,*68
393,3,-0.10,0.08,0.40,-0.81,0.31,-0.31,-0.1028,0.0846,0.0677,-0.9888,$GPGGA,143046.400,3850.0995,N,07730.3750,W,1,08,1.10,61.8,M,-33.4,M,,*69
394,3,0.00,0.08,0.10,0.31,-0.31,-0.13,-0.1028,0.0847,0.0676,-0.9888,$GPGGA,143046.500,3850.0995,N,07730.3750,W,1,08,1.07,61.8,M,-33.4,M,,*6E
395,3,-0.02,-0.02,0.00,-0.06,0.75,-0.06,-0.1028,0.0848,0.0674,-0.9888,$GPGGA,143046.600,3850.0995,N,07730.3750,W,1,08,1.10,61.8,M,-33.4,M,,*6B
396,3,-0.08,0.14,-0.06,0.25,0.31,-1.06,-0.1031,0.0850,0.0673,-0.9888,$GPGGA,143046.700,3850.0995,N,07730.3750,W,1,08,1.07,61.8,M,-33.4,M,,*6C
397,3,-0.01,0.06,0.01,-0.31,0.19,0.37,-0.1031,0.0852,0.0672,-0.9887,$GPGGA,143046.800,3850.0995,N,07730.3750,W,1,08,1.07,61.8,M,-33.4,M,,*63
398,3,0.01,0.17,0.02,0.37,0.31,-0.44,-0.1030,0.0847,0.0673,-0.9888,$GPGGA,143046.900,3850.0995,N,07730.3750,W,1,08,1.10,61.8,M,-33.4,M,,*64
399,3,-0.17,-0.64,0.10,-0.56,0.56,0.62,-0.1031,0.0855,0.0668,-0.9887,$GPGGA,143047.000,3850.0995,N,07730.3750,W,1,08,1.07,61.8,M,-33.4,M,,*6A
400,3,-0.03,0.08,0.27,-0.81,-0.88,0.19,-0.1029,0.0846,0.0667,-0.9888,$GPGGA,143047.100,3850.0995,N,07730.3750,W,1,08,1.07,61.8,M,-33.4,M,,*6B
401,3,0.32,0.00,0.84,-1.12,-1.94,1.69,-0.1019,0.0844,0.0671,-0.9890,$GPGGA,143047.200,3850.0995,N,07730.3750,W,1,08,1.07,61.8,M,-33.4,M,,*68
402,3,-0.01,-0.16,0.87,0.62,0.44,0.50,-0.1009,0.0833,0.0671,-0.9891,$GPGGA,143047.300,3850.0995,N,07730.3750,W,1,08,1.07,61.8,M,-33.4,M,,*69
403,3,-0.19,-0.29,1.09,-1.37,-4.69,-1.25,-0.1011,0.0814,0.0671,-0.9893,$GPGGA,143047.400,3850.0995,N,07730.3750,W,1,08,1.07,61.8,M,-33.4,M,,*6E
404,3,-0.53,-0.85,1.19,-6.62,-3.50,-2.94,-0.1027,0.0779,0.0713,-0.9891,$GPGGA,143047.500,3850.0995,N,07730.3750,W,1,08,1.07,61.8,M,-33.4,M,,*6F
405,3,-0.30,-0.41,1.14,-11.13,3.75,-0.94,-0.1041,0.0788,0.0800,-0.9882,$GPGGA,143047.600,3850.0995,N,07730.3750,W,1,08,1.07,61.8,M,-33.4,M,,*6C
406,3,0.00,0.08,1.68,-7.19,11.00,3.62,-0.1024,0.0867,0.0865,-0.9872,$GPGGA,143047.700,3850.0995,N,07730.3750,W,1,08,1.07,61.8,M,-33.4,M,,*6D
407,3,0.40,0.21,1.04,-2.87,9.44,7.87,-0.0982,0.0950,0.0880,-0.9867,$GPGGA,143047.800,3850.0995,N,07730.3750,W,1,08,1.07,61.8,M,-33.4,M,,*62
408,3,0.64,0.49,-0.38,0.06,0.13,11.81,-0.0898,0.0999,0.0879,-0.9871,$GPGGA,143047.900,3850.0995,N,07730.3750,W,1,08,1.07,61.8,M,-33.4,M,,*63
409,3,0.77,0.80,-1.39,3.19,-6.25,12.63,-0.0794,0.0973,0.0856,-0.9884,$GPGGA,143048.000,3850.0995,N,07730.3750,W,1,08,1.07,61.8,M,-33.4,M,,*65
410,3,-0.01,0.51,-1.67,3.87,-9.31,12.69,-0.0687,0.0908,0.0818,-0.9901,$GPGGA,143048.100,3850.0995,N,07730.3750,W,1,09,0.88,61.8,M,-33.4,M,,*63
411,3,-0.52,-0.01,-1.16,3.06,-5.19,13.00,-0.0570,0.0876,0.0771,-0.9915,$GPGGA,143048.200,3850.0995,N,07730.3750,W,1,09,0.88,61.8,M,-33.4,M,,*60
412,3,-0.51,-0.01,-0.69,-1.69,-2.75,10.81,-0.0468,0.0867,0.0760,-0.9922,$GPGGA,143048.300,3850.0995,N,07730.3750,W,1,09,0.88,61.8,M,-33.4,M,,*61
413,3,-0.62,-0.16,-0.27,-3.06,-1.00,6.00,-0.0393,0.0881,0.0782,-0.9922,$GPGGA,143048.400,3850.0995,N,07730.3750,W,1,09,0.88,61.8,M,-33.4,M,,*66
414,3,-0.52,0.01,-0.69,-2.12,0.94,0.88,-0.0361,0.0933,0.0822,-0.9916,$GPGGA,143048.500,3850.0995,N,07730.3750,W,1,09,0.88,61.8,M,-33.4,M,,*67
415,3,-0.30,0.09,-0.49,0.31,3.69,-4.06,-0.0379,0.0989,0.0831,-0.9909,$GPGGA,143048.600,3850.0995,N,07730.3750,W,1,09,0.88,61.8,M,-33.4,M,,*64
416,3,-0.05,0.33,-0.35,1.44,5.19,-9.44,-0.0438,0.1030,0.0828,-0.9902,$GPGGA,143048.700,3850.0995,N,07730.3750,W,1,09,0.88,61.8,M,-33.4,M,,*65
417,3,-0.27,0.16,0.18,3.81,5.62,-12.44,-0.0537,0.1078,0.0805,-0.9894,$GPGGA,143048.800,3850.0995,N,07730.3750,W,1,09,0.88,61.8,M,-33.4,M,,*6A
418,3,-0.14,-0.05,0.08,5.56,7.12,-14.31,-0.0657,0.1119,0.0768,-0.9886,$GPGGA,143048.900,3850.0995,N,07730.3750,W,1,09,0.88,61.8,M,-33.4,M,,*6B
419,3,-0.11,0.02,0.16,5.75,11.31,-16.56,-0.0798,0.1185,0.0729,-0.9871,$GPGGA,143049.000,3850.0995,N,07730.3750,W,1,09,0.88,61.8,M,-33.4,M,,*63
